% program   : RTKPOST ver.demo5 b34g
% inp file  : C:\Users\Abdullateef\Documents\PHD\Research on Precision Agriculture Navigation Technology\nav data\sensorlogSlim\gnss_log_2022_05_29_14_51_17.22o
% inp file  : C:\Users\Abdullateef\Documents\PHD\Research on Precision Agriculture Navigation Technology\nav data\sensorlogSlim\BRDM00DLR_S_20221490000_01D_MN.rnx\BRDM00DLR_S_20221490000_01D_MN.rnx
% obs start : 2022/05/29 13:51:35.4 GPST (week2212  49895.4s)
% obs end   : 2022/05/29 14:52:19.4 GPST (week2212  53539.4s)
% pos mode  : Single
% elev mask : 20.0 deg
% ionos opt : Broadcast
% tropo opt : Saastamoinen
% ephemeris : Broadcast
% navi sys  : GPS GLONASS Galileo BDS
%
% (lat/lon/height=WGS84/ellipsoidal,Q=1:fix,2:float,3:sbas,4:dgps,5:single,6:ppp,ns=# of satellites)
%  GPST                  latitude(deg) longitude(deg)  height(m)   Q  ns   sdn(m)   sde(m)   sdu(m)  sdne(m)  sdeu(m)  sdun(m) age(s)  ratio
2022/05/29 13:51:35.421    8.851942606    7.742141578   401.3251   5  23   1.9955   2.2051   6.3503   0.7794  -1.2564   1.9431   0.00    0.0
2022/05/29 13:51:36.421    8.851934248    7.742144424   402.5858   5  24   1.9940   2.1462   5.7358   0.8033  -0.4467   1.8892   0.00    0.0
2022/05/29 13:51:37.421    8.851927230    7.742149537   403.5654   5  23   1.9953   2.2051   6.3505   0.7791  -1.2569   1.9424   0.00    0.0
2022/05/29 13:51:38.421    8.851945439    7.742157962   401.8124   5  23   1.9952   2.2051   6.3507   0.7789  -1.2571   1.9420   0.00    0.0
2022/05/29 13:51:39.421    8.851939616    7.742132306   394.4860   5  24   1.9937   2.1462   5.7364   0.8027  -0.4482   1.8885   0.00    0.0
2022/05/29 13:51:40.421    8.851954075    7.742171209   394.6692   5  24   1.9579   2.2018   6.2628   0.8081  -1.2052   1.8345   0.00    0.0
2022/05/29 13:51:41.421    8.851988248    7.742137196   399.0095   5  25   1.9572   2.1444   5.6704   0.8228  -0.3538   1.7987   0.00    0.0
2022/05/29 13:51:42.421    8.851945041    7.742183315   391.4643   5  25   1.9571   2.1444   5.6707   0.8226  -0.3545   1.7985   0.00    0.0
2022/05/29 13:51:43.421    8.851956349    7.742144654   391.0045   5  25   1.9570   2.1444   5.6710   0.8225  -0.3550   1.7984   0.00    0.0
2022/05/29 13:51:44.421    8.851955166    7.742156455   396.3363   5  25   1.9570   2.1444   5.6713   0.8223  -0.3557   1.7982   0.00    0.0
2022/05/29 13:51:45.421    8.851972828    7.742167644   400.0046   5  23   1.9931   2.2208   5.9931   0.8053  -1.0915   1.8822   0.00    0.0
2022/05/29 13:51:46.421    8.851965359    7.742159048   392.0643   5  25   1.9568   2.1444   5.6719   0.8219  -0.3569   1.7979   0.00    0.0
2022/05/29 13:51:47.421    8.852030388    7.742211896   418.0550   5  25   1.9567   2.1444   5.6721   0.8217  -0.3575   1.7977   0.00    0.0
2022/05/29 13:51:48.421    8.852045657    7.742202638   377.0151   5  23   1.9941   2.2053   6.3518   0.7775  -1.2592   1.9384   0.00    0.0
2022/05/29 13:51:49.421    8.851990143    7.742192750   380.8938   5  24   1.9571   2.2019   6.2649   0.8068  -1.2074   1.8321   0.00    0.0
2022/05/29 13:51:50.421    8.852037306    7.742289589   421.2643   5  23   2.2215   2.5507   5.8862   1.3567   1.4262   2.1183   0.00    0.0
2022/05/29 13:51:51.421    8.851980567    7.742191067   415.2758   5  24   2.2104   2.4856   5.8392   1.4024   1.2678   2.1567   0.00    0.0
2022/05/29 13:51:52.421    8.852090691    7.742209494   418.9098   5  23   2.2570   2.4855   5.9199   1.4034   1.2705   2.2572   0.00    0.0
2022/05/29 13:51:53.421    8.852060960    7.742213714   415.1709   5  23   2.2569   2.4854   5.9201   1.4032   1.2703   2.2571   0.00    0.0
2022/05/29 13:51:54.421    8.851997064    7.742178209   402.0224   5  23   2.1492   2.1522   5.7603   0.8768  -0.3588   1.9873   0.00    0.0
2022/05/29 13:51:55.421    8.852019773    7.742183680   415.3967   5  25   1.9560   2.1445   5.6744   0.8202  -0.3623   1.7965   0.00    0.0
2022/05/29 13:51:56.421    8.852040242    7.742183869   415.3239   5  23   2.0119   2.3134   6.0820   0.9195   0.6918   2.0620   0.00    0.0
2022/05/29 13:51:57.421    8.852043597    7.742184724   408.3199   5  24   2.0024   2.2433   5.9794   0.9772   1.0527   2.0088   0.00    0.0
2022/05/29 13:51:58.421    8.852015278    7.742156397   394.3848   5  24   1.9657   2.2164   5.7865   0.7491  -0.8746   1.8571   0.00    0.0
2022/05/29 13:51:59.421    8.852075249    7.742226564   407.2000   5  25   1.9557   2.1445   5.6755   0.8195  -0.3648   1.7958   0.00    0.0
2022/05/29 13:52:00.421    8.852024414    7.742195969   410.2525   5  24   1.9656   2.2164   5.7871   0.7486  -0.8751   1.8568   0.00    0.0
2022/05/29 13:52:01.421    8.852028743    7.742206949   414.4713   5  24   2.1046   2.1509   5.6926   0.8943  -0.2496   1.8869   0.00    0.0
2022/05/29 13:52:02.421    8.852030096    7.742224846   397.0038   5  23   2.1161   2.2214   5.8064   0.8225  -0.8350   1.9527   0.00    0.0
2022/05/29 13:52:03.421    8.851989040    7.742204260   382.8084   5  24   2.1044   2.1509   5.6932   0.8939  -0.2510   1.8868   0.00    0.0
2022/05/29 13:52:04.421    8.852088509    7.742177062   412.1671   5  24   1.9652   2.2164   5.7882   0.7478  -0.8762   1.8562   0.00    0.0
2022/05/29 13:52:05.421    8.851981285    7.742158706   415.1341   5  24   2.1043   2.1508   5.6939   0.8935  -0.2524   1.8868   0.00    0.0
2022/05/29 13:52:06.421    8.852013657    7.742155065   435.9577   5  23   2.1158   2.2214   5.8078   0.8216  -0.8359   1.9527   0.00    0.0
2022/05/29 13:52:07.421    8.852120799    7.742229257   443.9512   5  25   1.9550   2.1445   5.6778   0.8180  -0.3695   1.7945   0.00    0.0
2022/05/29 13:52:08.421    8.852044938    7.742208326   414.9046   5  24   1.9770   2.1983   5.7142   0.7255   0.4157   1.7410   0.00    0.0
2022/05/29 13:52:09.421    8.851985721    7.742134950   415.1075   5  25   1.9548   2.1445   5.6784   0.8176  -0.3707   1.7942   0.00    0.0
2022/05/29 13:52:10.421    8.851962978    7.742143806   393.5435   5  24   2.1039   2.1508   5.6955   0.8926  -0.2559   1.8867   0.00    0.0
2022/05/29 13:52:11.421    8.851973559    7.742143567   400.3510   5  25   1.9546   2.1445   5.6789   0.8172  -0.3718   1.7939   0.00    0.0
2022/05/29 13:52:12.421    8.852023449    7.742172510   398.7892   5  24   2.0904   2.1476   5.9361   0.8679   0.2470   2.1209   0.00    0.0
2022/05/29 13:52:13.421    8.851987650    7.742182551   400.6729   5  25   1.9545   2.1445   5.6795   0.8168  -0.3730   1.7936   0.00    0.0
2022/05/29 13:52:14.421    8.851939183    7.742189682   378.8040   5  23   2.2196   2.1525   5.7453   0.8580  -0.3594   2.0215   0.00    0.0
2022/05/29 13:52:15.421    8.851949190    7.742172555   391.4673   5  23   2.1040   2.2250   5.9424   0.9042  -1.0148   1.8687   0.00    0.0
2022/05/29 13:52:16.421    8.851988879    7.742158566   399.9474   5  23   2.1152   2.2214   5.8111   0.8193  -0.8382   1.9527   0.00    0.0
2022/05/29 13:52:17.421    8.851938823    7.742176868   385.7689   5  25   1.9541   2.1445   5.6806   0.8161  -0.3754   1.7929   0.00    0.0
2022/05/29 13:52:18.421    8.852020790    7.742160572   400.6106   5  24   1.9542   2.2180   5.9295   0.8240  -1.0504   1.7816   0.00    0.0
2022/05/29 13:52:19.421    8.852076945    7.742177424   405.9459   5  24   2.0464   2.1470   5.7228   0.7763  -0.4613   1.9058   0.00    0.0
2022/05/29 13:52:20.421    8.852011468    7.742169108   396.2932   5  23   2.1036   2.2250   5.9444   0.9030  -1.0161   1.8690   0.00    0.0
2022/05/29 13:52:21.421    8.852022929    7.742167694   412.1344   5  23   1.9641   2.3421   6.1645   0.7262  -1.5396   1.8734   0.00    0.0
2022/05/29 13:52:22.421    8.852089669    7.742229905   410.3467   5  24   1.9538   2.2180   5.9309   0.8231  -1.0516   1.7811   0.00    0.0
2022/05/29 13:52:23.421    8.851990718    7.742175636   391.2293   5  22   2.1150   2.3473   6.1821   0.8055  -1.5168   1.9666   0.00    0.0
2022/05/29 13:52:24.421    8.851938363    7.742174352   393.2811   5  22   2.2191   2.2272   5.9995   0.8618  -1.0558   2.0148   0.00    0.0
2022/05/29 13:52:25.421    8.852062476    7.742186784   405.2566   5  23   2.0597   2.2208   5.8444   0.6824  -0.9401   1.9774   0.00    0.0
2022/05/29 13:52:26.421    8.851999680    7.742199170   404.9486   5  23   2.1032   2.2250   5.9467   0.9015  -1.0177   1.8693   0.00    0.0
2022/05/29 13:52:27.421    8.851957550    7.742153498   405.7141   5  23   2.2188   2.1525   5.7506   0.8552  -0.3673   2.0226   0.00    0.0
2022/05/29 13:52:28.421    8.851984605    7.742188450   416.5216   5  24   2.1027   2.1508   5.7014   0.8891  -0.2684   1.8862   0.00    0.0
2022/05/29 13:52:29.421    8.851905371    7.742176730   394.6590   5  23   2.2187   2.1525   5.7514   0.8548  -0.3685   2.0228   0.00    0.0
2022/05/29 13:52:30.421    8.851944222    7.742207202   402.5620   5  22   2.1146   2.3473   6.1851   0.8032  -1.5183   1.9674   0.00    0.0
2022/05/29 13:52:31.421    8.852049224    7.742157828   444.8311   5  22   2.4915   2.1557   6.1375   0.9298   0.3430   2.5531   0.00    0.0
2022/05/29 13:52:32.421    8.851943301    7.742172184   418.4768   5  23   2.1143   2.2213   5.8164   0.8157  -0.8420   1.9526   0.00    0.0
2022/05/29 13:52:33.421    8.852010108    7.742216952   393.2506   5  23   2.1142   2.2213   5.8167   0.8154  -0.8422   1.9526   0.00    0.0
2022/05/29 13:52:34.421    8.851962656    7.742145851   408.0151   5  23   2.1026   2.2250   5.9499   0.8995  -1.0197   1.8696   0.00    0.0
2022/05/29 13:52:35.421    8.851998653    7.742170579   392.5974   5  22   2.2350   2.2247   5.8774   0.7585  -0.9015   2.1024   0.00    0.0
2022/05/29 13:52:36.421    8.852048177    7.742181817   402.2780   5  25   1.9525   2.1446   5.6859   0.8125  -0.3864   1.7898   0.00    0.0
2022/05/29 13:52:37.421    8.852017444    7.742178078   393.0286   5  24   1.9874   2.1465   5.7476   0.7913  -0.4753   1.8745   0.00    0.0
2022/05/29 13:52:38.421    8.852089183    7.742159278   397.6834   5  23   2.0864   2.1493   5.7975   0.7454  -0.5567   1.9986   0.00    0.0
2022/05/29 13:52:39.421    8.852045026    7.742169319   385.6116   5  24   1.9872   2.1465   5.7479   0.7909  -0.4762   1.8740   0.00    0.0
2022/05/29 13:52:40.421    8.851946670    7.742119710   384.1042   5  24   1.9871   2.1465   5.7481   0.7907  -0.4766   1.8738   0.00    0.0
2022/05/29 13:52:41.421    8.851963047    7.742146084   398.0732   5  22   2.2705   2.1542   5.8313   0.8272  -0.4711   2.1327   0.00    0.0
2022/05/29 13:52:42.421    8.852016396    7.742159303   403.4156   5  24   1.9869   2.1465   5.7485   0.7903  -0.4775   1.8733   0.00    0.0
2022/05/29 13:52:43.421    8.851947587    7.742125059   393.8388   5  22   2.2704   2.1542   5.8319   0.8267  -0.4720   2.1326   0.00    0.0
2022/05/29 13:52:44.421    8.851930882    7.742138592   400.2144   5  24   1.9867   2.1465   5.7489   0.7899  -0.4784   1.8728   0.00    0.0
2022/05/29 13:52:45.421    8.851955445    7.742177651   397.0961   5  23   2.1446   2.1523   5.7725   0.8664  -0.3841   1.9816   0.00    0.0
2022/05/29 13:52:46.421    8.852044179    7.742180888   396.7595   5  24   2.0442   2.1471   5.7319   0.7706  -0.4762   1.9038   0.00    0.0
2022/05/29 13:52:47.421    8.852025851    7.742185162   413.3781   5  24   2.1014   2.1508   5.7075   0.8855  -0.2810   1.8856   0.00    0.0
2022/05/29 13:52:48.421    8.852001702    7.742188331   406.2953   5  22   2.2699   2.1542   5.8335   0.8255  -0.4745   2.1326   0.00    0.0
2022/05/29 13:52:49.421    8.852117923    7.742156214   425.6934   5  25   1.9514   2.1446   5.6895   0.8101  -0.3937   1.7875   0.00    0.0
2022/05/29 13:52:50.421    8.852044931    7.742179081   398.6655   5  24   1.9860   2.1465   5.7500   0.7887  -0.4812   1.8713   0.00    0.0
2022/05/29 13:52:51.421    8.852087732    7.742219329   388.4239   5  24   1.9859   2.1466   5.7502   0.7885  -0.4816   1.8711   0.00    0.0
2022/05/29 13:52:52.421    8.852005172    7.742192283   383.4263   5  24   2.1011   2.1508   5.7092   0.8845  -0.2843   1.8854   0.00    0.0
2022/05/29 13:52:53.421    8.852000934    7.742199155   389.8636   5  23   2.1439   2.1523   5.7744   0.8647  -0.3880   1.9807   0.00    0.0
2022/05/29 13:52:54.421    8.852007877    7.742194554   392.2328   5  23   2.1438   2.1523   5.7747   0.8645  -0.3885   1.9805   0.00    0.0
2022/05/29 13:52:55.421    8.851992495    7.742211544   396.0290   5  23   2.1437   2.1523   5.7749   0.8643  -0.3890   1.9804   0.00    0.0
2022/05/29 13:52:56.421    8.852042056    7.742175960   411.9240   5  25   1.9507   2.1446   5.6914   0.8088  -0.3977   1.7863   0.00    0.0
2022/05/29 13:52:57.421    8.851954223    7.742135201   394.7791   5  23   2.1435   2.1523   5.7754   0.8639  -0.3899   1.9802   0.00    0.0
2022/05/29 13:52:58.421    8.851966399    7.742177941   399.0618   5  22   2.2691   2.1543   5.8366   0.8232  -0.4793   2.1325   0.00    0.0
2022/05/29 13:52:59.421    8.851969637    7.742165407   389.2454   5  23   2.1433   2.1523   5.7758   0.8635  -0.3909   1.9800   0.00    0.0
2022/05/29 13:53:00.421    8.852027256    7.742197651   402.5975   5  24   1.9850   2.1466   5.7518   0.7867  -0.4856   1.8688   0.00    0.0
2022/05/29 13:53:01.421    8.851972298    7.742166540   409.6489   5  23   2.1432   2.1523   5.7763   0.8631  -0.3918   1.9797   0.00    0.0
2022/05/29 13:53:02.421    8.852017356    7.742146219   403.7791   5  24   1.9848   2.1466   5.7522   0.7863  -0.4865   1.8683   0.00    0.0
2022/05/29 13:53:03.421    8.851969506    7.742149877   396.8865   5  24   1.9846   2.1466   5.7524   0.7861  -0.4870   1.8681   0.00    0.0
2022/05/29 13:53:04.421    8.851986359    7.742197178   407.4587   5  23   2.1429   2.1523   5.7770   0.8625  -0.3933   1.9793   0.00    0.0
2022/05/29 13:53:05.421    8.852025885    7.742135265   400.8391   5  24   1.9844   2.1466   5.7527   0.7857  -0.4878   1.8675   0.00    0.0
2022/05/29 13:53:06.421    8.851995762    7.742169216   397.7907   5  23   2.1427   2.1523   5.7775   0.8621  -0.3942   1.9791   0.00    0.0
2022/05/29 13:53:07.421    8.852000709    7.742169903   398.0189   5  23   2.1426   2.1523   5.7777   0.8619  -0.3947   1.9790   0.00    0.0
2022/05/29 13:53:08.421    8.851978953    7.742172054   417.5616   5  24   1.9841   2.1467   5.7533   0.7851  -0.4892   1.8668   0.00    0.0
2022/05/29 13:53:09.421    8.852002743    7.742199975   414.8080   5  23   2.1424   2.1523   5.7782   0.8615  -0.3957   1.9787   0.00    0.0
2022/05/29 13:53:10.421    8.851981880    7.742174231   406.8430   5  24   1.9839   2.1467   5.7537   0.7847  -0.4901   1.8663   0.00    0.0
2022/05/29 13:53:11.421    8.852006024    7.742171450   414.5294   5  25   1.9495   2.1447   5.6955   0.8059  -0.4060   1.7837   0.00    0.0
2022/05/29 13:53:12.421    8.852012655    7.742198825   432.6581   5  24   2.0997   2.1508   5.7156   0.8807  -0.2971   1.8847   0.00    0.0
2022/05/29 13:53:13.421    8.852010308    7.742170259   406.2953   5  24   1.9836   2.1467   5.7542   0.7841  -0.4914   1.8655   0.00    0.0
2022/05/29 13:53:14.421    8.851967323    7.742157023   393.2788   5  24   1.9835   2.1467   5.7544   0.7839  -0.4918   1.8653   0.00    0.0
2022/05/29 13:53:15.421    8.851997199    7.742169289   407.2159   5  24   1.9834   2.1467   5.7546   0.7837  -0.4923   1.8650   0.00    0.0
2022/05/29 13:53:16.421    8.852012201    7.742197521   400.0197   5  25   1.9490   2.1447   5.6968   0.8050  -0.4087   1.7828   0.00    0.0
2022/05/29 13:53:17.421    8.851991453    7.742212199   405.9270   5  25   1.9489   2.1447   5.6971   0.8048  -0.4093   1.7827   0.00    0.0
2022/05/29 13:53:18.421    8.851958060    7.742196838   392.0014   5  25   1.9488   2.1447   5.6974   0.8046  -0.4098   1.7825   0.00    0.0
2022/05/29 13:53:19.421    8.851977587    7.742199532   405.1281   5  25   1.9488   2.1447   5.6976   0.8044  -0.4104   1.7823   0.00    0.0
2022/05/29 13:53:20.421    8.851984139    7.742185866   387.6029   5  25   1.9487   2.1447   5.6979   0.8042  -0.4109   1.7821   0.00    0.0
2022/05/29 13:53:21.421    8.851950835    7.742171803   391.9593   5  25   1.9486   2.1447   5.6982   0.8040  -0.4114   1.7820   0.00    0.0
2022/05/29 13:53:22.421    8.851968186    7.742171297   402.6248   5  25   1.9485   2.1447   5.6984   0.8038  -0.4120   1.7818   0.00    0.0
2022/05/29 13:53:23.421    8.851943025    7.742161159   398.1087   5  25   1.9484   2.1447   5.6987   0.8037  -0.4125   1.7816   0.00    0.0
2022/05/29 13:53:24.421    8.852031741    7.742191243   415.8338   5  25   1.9483   2.1447   5.6990   0.8035  -0.4131   1.7814   0.00    0.0
2022/05/29 13:53:25.421    8.852045154    7.742207335   402.2562   5  25   1.9482   2.1447   5.6992   0.8033  -0.4136   1.7812   0.00    0.0
2022/05/29 13:53:26.421    8.852044094    7.742185413   396.8906   5  25   1.9481   2.1447   5.6995   0.8031  -0.4142   1.7810   0.00    0.0
2022/05/29 13:53:27.421    8.852041357    7.742169668   399.5021   5  25   1.9481   2.1447   5.6998   0.8029  -0.4147   1.7809   0.00    0.0
2022/05/29 13:53:28.421    8.852086416    7.742212947   403.9906   5  25   1.9480   2.1447   5.7001   0.8027  -0.4153   1.7807   0.00    0.0
2022/05/29 13:53:29.421    8.852009797    7.742202625   400.8181   5  25   1.9479   2.1447   5.7003   0.8025  -0.4158   1.7805   0.00    0.0
2022/05/29 13:53:30.421    8.852024063    7.742210733   401.3548   5  25   1.9478   2.1447   5.7006   0.8023  -0.4163   1.7803   0.00    0.0
2022/05/29 13:53:31.421    8.852007336    7.742206286   411.0472   5  25   1.9477   2.1447   5.7008   0.8021  -0.4169   1.7801   0.00    0.0
2022/05/29 13:53:32.421    8.852016855    7.742186032   421.3925   5  25   1.9476   2.1448   5.7011   0.8019  -0.4174   1.7800   0.00    0.0
2022/05/29 13:53:33.421    8.851943158    7.742165579   402.8465   5  25   1.9475   2.1448   5.7014   0.8018  -0.4179   1.7798   0.00    0.0
2022/05/29 13:53:34.421    8.851960038    7.742171295   410.4713   5  25   1.9475   2.1448   5.7016   0.8016  -0.4185   1.7796   0.00    0.0
2022/05/29 13:53:35.421    8.851947037    7.742213299   400.8638   5  25   1.9474   2.1448   5.7019   0.8014  -0.4190   1.7794   0.00    0.0
2022/05/29 13:53:36.421    8.851940786    7.742142136   393.2818   5  25   1.9473   2.1448   5.7022   0.8012  -0.4195   1.7792   0.00    0.0
2022/05/29 13:53:37.421    8.851943746    7.742181089   403.6800   5  25   1.9472   2.1448   5.7024   0.8010  -0.4201   1.7791   0.00    0.0
2022/05/29 13:53:38.421    8.851964348    7.742156481   399.5226   5  25   1.9471   2.1448   5.7027   0.8008  -0.4206   1.7789   0.00    0.0
2022/05/29 13:53:39.421    8.852033773    7.742220545   400.1571   5  25   1.9470   2.1448   5.7030   0.8006  -0.4212   1.7787   0.00    0.0
2022/05/29 13:53:40.421    8.851979115    7.742205296   405.5034   5  25   1.9469   2.1448   5.7032   0.8004  -0.4217   1.7785   0.00    0.0
2022/05/29 13:53:41.421    8.851986278    7.742163591   404.5196   5  25   1.9469   2.1448   5.7035   0.8002  -0.4222   1.7783   0.00    0.0
2022/05/29 13:53:42.421    8.852048701    7.742181337   399.6856   5  25   1.9468   2.1448   5.7038   0.8001  -0.4227   1.7781   0.00    0.0
2022/05/29 13:53:43.421    8.852054091    7.742202588   395.2579   5  25   1.9467   2.1448   5.7040   0.7999  -0.4233   1.7779   0.00    0.0
2022/05/29 13:53:44.421    8.852027235    7.742209092   404.8163   5  25   1.9466   2.1448   5.7043   0.7997  -0.4238   1.7778   0.00    0.0
2022/05/29 13:53:45.421    8.852039248    7.742152553   413.2266   5  25   1.9465   2.1448   5.7046   0.7995  -0.4243   1.7776   0.00    0.0
2022/05/29 13:53:46.421    8.852086337    7.742183832   422.5342   5  25   1.9464   2.1448   5.7048   0.7993  -0.4249   1.7774   0.00    0.0
2022/05/29 13:53:47.421    8.852034566    7.742190059   416.1971   5  25   1.9463   2.1448   5.7051   0.7991  -0.4254   1.7772   0.00    0.0
2022/05/29 13:53:48.421    8.851998969    7.742152012   413.9359   5  25   1.9462   2.1448   5.7054   0.7989  -0.4259   1.7770   0.00    0.0
2022/05/29 13:53:49.421    8.852013978    7.742210078   421.5939   5  24   2.0971   2.1508   5.7273   0.8735  -0.3197   1.8831   0.00    0.0
2022/05/29 13:53:50.421    8.852063744    7.742185548   426.8198   5  25   1.9461   2.1448   5.7059   0.7985  -0.4270   1.7767   0.00    0.0
2022/05/29 13:53:51.421    8.852012474    7.742183089   406.2610   5  24   2.0970   2.1508   5.7279   0.8731  -0.3209   1.8830   0.00    0.0
2022/05/29 13:53:52.421    8.852045243    7.742199225   411.8074   5  25   1.9459   2.1448   5.7064   0.7982  -0.4281   1.7763   0.00    0.0
2022/05/29 13:53:53.421    8.851996029    7.742189903   408.7399   5  24   2.0968   2.1508   5.7285   0.8727  -0.3221   1.8829   0.00    0.0
2022/05/29 13:53:54.421    8.851951887    7.742181949   400.5522   5  24   2.0968   2.1508   5.7289   0.8725  -0.3227   1.8829   0.00    0.0
2022/05/29 13:53:55.421    8.852043922    7.742156374   414.2713   5  24   2.0967   2.1508   5.7292   0.8723  -0.3233   1.8828   0.00    0.0
2022/05/29 13:53:56.421    8.851981675    7.742158774   413.6363   5  24   2.0966   2.1508   5.7295   0.8721  -0.3239   1.8828   0.00    0.0
2022/05/29 13:53:57.421    8.852096680    7.742197698   410.0230   5  25   1.9455   2.1449   5.7077   0.7972  -0.4307   1.7753   0.00    0.0
2022/05/29 13:53:58.421    8.852035746    7.742172281   428.8189   5  25   1.9454   2.1449   5.7080   0.7970  -0.4312   1.7752   0.00    0.0
2022/05/29 13:53:59.421    8.852089680    7.742193106   416.1443   5  25   1.9453   2.1449   5.7082   0.7968  -0.4317   1.7750   0.00    0.0
2022/05/29 13:54:00.421    8.852076939    7.742155746   412.5995   5  25   1.9452   2.1449   5.7085   0.7966  -0.4322   1.7748   0.00    0.0
2022/05/29 13:54:01.421    8.851968627    7.742177342   383.0662   5  24   2.0963   2.1508   5.7311   0.8712  -0.3268   1.8825   0.00    0.0
2022/05/29 13:54:02.421    8.852017625    7.742187251   389.6169   5  24   2.0962   2.1508   5.7314   0.8710  -0.3274   1.8825   0.00    0.0
2022/05/29 13:54:03.421    8.852001870    7.742182052   400.8736   5  24   2.0961   2.1508   5.7317   0.8708  -0.3280   1.8824   0.00    0.0
2022/05/29 13:54:04.421    8.852002909    7.742207566   383.1790   5  23   2.1373   2.1525   5.7908   0.8501  -0.4211   1.9717   0.00    0.0
2022/05/29 13:54:05.421    8.851968803    7.742177004   399.0124   5  24   2.0960   2.1508   5.7323   0.8704  -0.3292   1.8823   0.00    0.0
2022/05/29 13:54:06.421    8.851978051    7.742177935   394.5998   5  23   2.1371   2.1525   5.7913   0.8497  -0.4220   1.9714   0.00    0.0
2022/05/29 13:54:07.421    8.852002165    7.742173408   412.0911   5  23   2.1370   2.1525   5.7915   0.8495  -0.4225   1.9713   0.00    0.0
2022/05/29 13:54:08.421    8.851955975    7.742170823   399.7094   5  24   2.0958   2.1508   5.7332   0.8698  -0.3309   1.8822   0.00    0.0
2022/05/29 13:54:09.421    8.852020744    7.742214265   404.8697   5  23   2.1368   2.1525   5.7920   0.8491  -0.4234   1.9710   0.00    0.0
2022/05/29 13:54:10.421    8.852009142    7.742202205   398.4747   5  24   2.0956   2.1508   5.7339   0.8694  -0.3321   1.8821   0.00    0.0
2022/05/29 13:54:11.421    8.851973543    7.742203145   406.2873   5  24   2.0956   2.1508   5.7342   0.8692  -0.3327   1.8820   0.00    0.0
2022/05/29 13:54:12.421    8.852008984    7.742217025   404.2342   5  24   2.0955   2.1508   5.7345   0.8690  -0.3333   1.8820   0.00    0.0
2022/05/29 13:54:13.421    8.851984381    7.742164714   386.7635   5  24   2.0954   2.1508   5.7348   0.8688  -0.3338   1.8819   0.00    0.0
2022/05/29 13:54:14.421    8.851943340    7.742153343   389.3103   5  24   2.0953   2.1508   5.7351   0.8686  -0.3344   1.8819   0.00    0.0
2022/05/29 13:54:15.421    8.851988972    7.742166792   416.0911   5  24   2.0953   2.1508   5.7354   0.8684  -0.3350   1.8818   0.00    0.0
2022/05/29 13:54:16.421    8.851991949    7.742148028   414.8717   5  24   2.0952   2.1508   5.7357   0.8682  -0.3355   1.8818   0.00    0.0
2022/05/29 13:54:17.421    8.852017124    7.742142583   419.5796   5  24   2.0951   2.1508   5.7360   0.8680  -0.3361   1.8817   0.00    0.0
2022/05/29 13:54:18.421    8.851978843    7.742120256   413.8459   5  24   2.0951   2.1508   5.7363   0.8678  -0.3367   1.8817   0.00    0.0
2022/05/29 13:54:19.421    8.851974623    7.742136636   423.6437   5  24   2.0950   2.1508   5.7366   0.8676  -0.3372   1.8816   0.00    0.0
2022/05/29 13:54:20.421    8.851949486    7.742131983   428.2259   5  24   2.0949   2.1508   5.7370   0.8674  -0.3378   1.8815   0.00    0.0
2022/05/29 13:54:21.421    8.851997922    7.742172457   421.0080   5  24   2.0948   2.1508   5.7373   0.8672  -0.3384   1.8815   0.00    0.0
2022/05/29 13:54:22.421    8.851936278    7.742129223   402.3914   5  24   2.0948   2.1508   5.7376   0.8670  -0.3390   1.8814   0.00    0.0
2022/05/29 13:54:23.421    8.851960374    7.742156544   407.0064   5  24   2.0947   2.1508   5.7379   0.8668  -0.3395   1.8814   0.00    0.0
2022/05/29 13:54:24.421    8.852002211    7.742206561   411.4154   5  24   2.0946   2.1508   5.7382   0.8667  -0.3401   1.8813   0.00    0.0
2022/05/29 13:54:25.421    8.851991615    7.742150911   414.6000   5  24   2.0946   2.1508   5.7385   0.8665  -0.3407   1.8813   0.00    0.0
2022/05/29 13:54:26.421    8.851969519    7.742140068   383.1617   5  24   2.0945   2.1509   5.7388   0.8663  -0.3412   1.8812   0.00    0.0
2022/05/29 13:54:27.421    8.851964148    7.742137547   379.1431   5  23   2.2595   2.1547   6.0040   0.9270   0.3326   2.2437   0.00    0.0
2022/05/29 13:54:28.421    8.852160167    7.742209142   397.8574   5  25   1.9428   2.1450   5.7157   0.7913  -0.4467   1.7694   0.00    0.0
2022/05/29 13:54:29.421    8.852025430    7.742195467   398.2833   5  23   2.2593   2.1547   6.0044   0.9266   0.3307   2.2434   0.00    0.0
2022/05/29 13:54:30.421    8.851989244    7.742173941   394.3961   5  23   2.2592   2.1547   6.0046   0.9263   0.3299   2.2432   0.00    0.0
2022/05/29 13:54:31.421    8.852033198    7.742217225   423.8149   5  23   2.2591   2.1547   6.0048   0.9261   0.3289   2.2430   0.00    0.0
2022/05/29 13:54:32.421    8.852010019    7.742135982   422.5374   5  24   2.0941   2.1509   5.7407   0.8651  -0.3447   1.8809   0.00    0.0
2022/05/29 13:54:33.421    8.852018905    7.742214556   429.9900   5  23   2.2589   2.1547   6.0052   0.9256   0.3271   2.2427   0.00    0.0
2022/05/29 13:54:34.421    8.851988815    7.742170694   425.6349   5  23   2.1345   2.1526   5.7976   0.8439  -0.4345   1.9676   0.00    0.0
2022/05/29 13:54:35.421    8.851964345    7.742181116   405.5954   5  24   2.0938   2.1509   5.7416   0.8645  -0.3464   1.8807   0.00    0.0
2022/05/29 13:54:36.421    8.851995721    7.742178478   418.3612   5  24   2.0938   2.1509   5.7419   0.8643  -0.3469   1.8807   0.00    0.0
2022/05/29 13:54:37.421    8.852003422    7.742118124   439.1021   5  23   2.2584   2.1547   6.0059   0.9247   0.3236   2.2421   0.00    0.0
2022/05/29 13:54:38.421    8.852001982    7.742181211   428.4809   5  23   2.1341   2.1526   5.7985   0.8430  -0.4363   1.9670   0.00    0.0
2022/05/29 13:54:39.421    8.852033540    7.742177711   424.0495   5  22   2.3124   2.1560   6.0853   0.9041   0.1762   2.3477   0.00    0.0
2022/05/29 13:54:40.421    8.852020858    7.742168794   416.8560   5  24   2.0935   2.1509   5.7431   0.8635  -0.3492   1.8804   0.00    0.0
2022/05/29 13:54:41.421    8.852014865    7.742173072   425.6120   5  24   2.0934   2.1509   5.7434   0.8633  -0.3497   1.8804   0.00    0.0
2022/05/29 13:54:42.421    8.851965673    7.742152782   410.6890   5  24   2.0933   2.1509   5.7437   0.8631  -0.3503   1.8803   0.00    0.0
2022/05/29 13:54:43.421    8.852018815    7.742181634   444.5604   5  24   2.0933   2.1509   5.7440   0.8629  -0.3509   1.8802   0.00    0.0
2022/05/29 13:54:44.421    8.852015101    7.742139501   432.3722   5  24   2.0932   2.1509   5.7443   0.8627  -0.3514   1.8802   0.00    0.0
2022/05/29 13:54:45.421    8.852012947    7.742148551   444.5635   5  24   2.0931   2.1509   5.7447   0.8625  -0.3520   1.8801   0.00    0.0
2022/05/29 13:54:46.421    8.852010736    7.742116056   437.6135   5  24   2.0931   2.1509   5.7450   0.8623  -0.3525   1.8801   0.00    0.0
2022/05/29 13:54:47.421    8.851984006    7.742112203   431.5156   5  24   2.0930   2.1509   5.7453   0.8621  -0.3531   1.8800   0.00    0.0
2022/05/29 13:54:48.421    8.851985673    7.742115129   438.3178   5  24   2.0929   2.1509   5.7456   0.8619  -0.3536   1.8800   0.00    0.0
2022/05/29 13:54:49.421    8.852005166    7.742150218   416.1126   5  24   2.0928   2.1509   5.7459   0.8617  -0.3542   1.8799   0.00    0.0
2022/05/29 13:54:50.421    8.852047633    7.742194198   412.5926   5  24   2.0928   2.1509   5.7462   0.8615  -0.3548   1.8798   0.00    0.0
2022/05/29 13:54:51.421    8.852068808    7.742202690   404.3010   5  24   2.0927   2.1509   5.7465   0.8613  -0.3553   1.8798   0.00    0.0
2022/05/29 13:54:52.421    8.852030796    7.742144728   411.4528   5  23   2.1616   2.2401   6.5148   1.0395  -1.4307   1.3677   0.00    0.0
2022/05/29 13:54:53.421    8.852064919    7.742201710   422.3225   5  24   2.0338   2.1480   5.7732   0.7433  -0.5425   1.8921   0.00    0.0
2022/05/29 13:54:54.421    8.852037982    7.742190696   402.4555   5  25   1.9405   2.1452   5.7223   0.7864  -0.4598   1.7643   0.00    0.0
2022/05/29 13:54:55.421    8.851993055    7.742184835   384.5084   5  25   1.9404   2.1452   5.7226   0.7862  -0.4603   1.7641   0.00    0.0
2022/05/29 13:54:56.421    8.851964037    7.742150454   395.9473   5  24   2.0336   2.1480   5.7741   0.7426  -0.5440   1.8918   0.00    0.0
2022/05/29 13:54:57.421    8.852033134    7.742184751   384.9470   5  24   1.9575   2.2125   6.4969   0.8705  -1.3700   1.5210   0.00    0.0
2022/05/29 13:54:58.421    8.852031441    7.742193956   391.4098   5  25   1.9402   2.1452   5.7233   0.7856  -0.4618   1.7635   0.00    0.0
2022/05/29 13:54:59.421    8.851991415    7.742167445   408.2722   5  25   1.9401   2.1453   5.7236   0.7854  -0.4623   1.7633   0.00    0.0
2022/05/29 13:55:00.421    8.852026082    7.742171127   397.8256   5  25   1.9400   2.1453   5.7238   0.7852  -0.4628   1.7631   0.00    0.0
2022/05/29 13:55:01.421    8.851984911    7.742153398   405.0391   5  23   2.1615   2.2402   6.5152   1.0387  -1.4313   1.3656   0.00    0.0
2022/05/29 13:55:02.421    8.851962207    7.742129417   402.4198   5  24   1.9572   2.2126   6.4974   0.8701  -1.3710   1.5187   0.00    0.0
2022/05/29 13:55:03.421    8.851998173    7.742186098   414.6156   5  24   1.9572   2.2126   6.4975   0.8700  -1.3712   1.5182   0.00    0.0
2022/05/29 13:55:04.421    8.851964078    7.742204187   409.5891   5  24   1.9571   2.2126   6.4976   0.8699  -1.3714   1.5177   0.00    0.0
2022/05/29 13:55:05.421    8.851945435    7.742196329   412.9541   5  23   2.0491   2.2155   6.5457   0.8296  -1.4037   1.6681   0.00    0.0
2022/05/29 13:55:06.421    8.851932412    7.742161880   405.2392   5  24   1.9570   2.2127   6.4978   0.8697  -1.3718   1.5168   0.00    0.0
2022/05/29 13:55:07.421    8.851971028    7.742163592   399.0821   5  23   2.0490   2.2155   6.5461   0.8294  -1.4041   1.6675   0.00    0.0
2022/05/29 13:55:08.421    8.852015606    7.742190205   401.9938   5  23   2.0489   2.2156   6.5462   0.8293  -1.4043   1.6672   0.00    0.0
2022/05/29 13:55:09.421    8.851993457    7.742218364   400.7117   5  24   1.9568   2.2127   6.4981   0.8695  -1.3723   1.5154   0.00    0.0
2022/05/29 13:55:10.421    8.852032286    7.742223257   404.0264   5  24   1.9568   2.2128   6.4982   0.8694  -1.3725   1.5149   0.00    0.0
2022/05/29 13:55:11.421    8.852109154    7.742219631   403.0565   5  23   2.0487   2.2156   6.5467   0.8290  -1.4050   1.6662   0.00    0.0
2022/05/29 13:55:12.421    8.852041664    7.742174788   389.6373   5  24   1.9567   2.2128   6.4984   0.8692  -1.3729   1.5140   0.00    0.0
2022/05/29 13:55:13.421    8.852088213    7.742205067   396.6035   5  24   1.9566   2.2128   6.4985   0.8691  -1.3731   1.5135   0.00    0.0
2022/05/29 13:55:14.421    8.852080592    7.742234608   398.1241   5  24   1.9566   2.2128   6.4986   0.8690  -1.3733   1.5131   0.00    0.0
2022/05/29 13:55:15.421    8.852050522    7.742239551   396.9060   5  24   1.9565   2.2129   6.4987   0.8689  -1.3735   1.5126   0.00    0.0
2022/05/29 13:55:16.421    8.852006471    7.742178257   398.0144   5  24   1.9565   2.2129   6.4988   0.8689  -1.3737   1.5122   0.00    0.0
2022/05/29 13:55:17.421    8.852011958    7.742184088   409.0762   5  24   1.9564   2.2129   6.4989   0.8688  -1.3739   1.5117   0.00    0.0
2022/05/29 13:55:18.421    8.851975714    7.742168243   404.8122   5  24   1.9564   2.2129   6.4990   0.8687  -1.3740   1.5112   0.00    0.0
2022/05/29 13:55:19.421    8.851960723    7.742210743   405.5937   5  24   1.9563   2.2130   6.4991   0.8686  -1.3742   1.5108   0.00    0.0
2022/05/29 13:55:20.421    8.851971147    7.742199076   401.0539   5  23   2.0483   2.2159   6.5482   0.8280  -1.4070   1.6633   0.00    0.0
2022/05/29 13:55:21.421    8.851936202    7.742187241   392.6716   5  24   1.9562   2.2130   6.4993   0.8684  -1.3746   1.5098   0.00    0.0
2022/05/29 13:55:22.421    8.851911907    7.742137339   389.1448   5  24   1.9561   2.2130   6.4994   0.8683  -1.3748   1.5094   0.00    0.0
2022/05/29 13:55:23.421    8.851902627    7.742152607   375.1263   5  23   2.0481   2.2159   6.5487   0.8277  -1.4076   1.6623   0.00    0.0
2022/05/29 13:55:24.421    8.851906283    7.742189430   386.5440   5  24   1.9560   2.2131   6.4996   0.8682  -1.3752   1.5085   0.00    0.0
2022/05/29 13:55:25.421    8.851936604    7.742196297   376.1948   5  24   1.9560   2.2131   6.4997   0.8681  -1.3754   1.5080   0.00    0.0
2022/05/29 13:55:26.421    8.852004768    7.742225138   398.9702   5  23   2.0480   2.2160   6.5492   0.8274  -1.4083   1.6613   0.00    0.0
2022/05/29 13:55:27.421    8.852006333    7.742208600   395.9501   5  23   2.0479   2.2161   6.5493   0.8272  -1.4085   1.6610   0.00    0.0
2022/05/29 13:55:28.421    8.851991415    7.742222941   389.5509   5  24   1.9558   2.2132   6.5000   0.8678  -1.3759   1.5066   0.00    0.0
2022/05/29 13:55:29.421    8.851964194    7.742171819   390.5996   5  23   2.0478   2.2161   6.5497   0.8270  -1.4089   1.6603   0.00    0.0
2022/05/29 13:55:30.421    8.852008312    7.742189492   393.2132   5  23   2.0477   2.2161   6.5498   0.8269  -1.4092   1.6600   0.00    0.0
2022/05/29 13:55:31.421    8.852005933    7.742196691   398.1899   5  24   1.9557   2.2132   6.5003   0.8676  -1.3765   1.5051   0.00    0.0
2022/05/29 13:55:32.421    8.852020268    7.742165455   385.5451   5  23   2.0476   2.2162   6.5501   0.8267  -1.4096   1.6593   0.00    0.0
2022/05/29 13:55:33.421    8.852070217    7.742212163   392.4831   5  23   2.0476   2.2162   6.5503   0.8266  -1.4098   1.6590   0.00    0.0
2022/05/29 13:55:34.421    8.852024063    7.742171801   384.7611   5  23   2.0475   2.2162   6.5505   0.8265  -1.4100   1.6586   0.00    0.0
2022/05/29 13:55:35.421    8.852051561    7.742210731   395.2127   5  24   1.9555   2.2133   6.5006   0.8672  -1.3772   1.5032   0.00    0.0
2022/05/29 13:55:36.421    8.851937705    7.742160155   387.1012   5  22   2.0828   2.2200   6.6118   0.7962  -1.4505   1.7583   0.00    0.0
2022/05/29 13:55:37.421    8.852075891    7.742213135   391.8269   5  22   2.0827   2.2200   6.6118   0.7961  -1.4506   1.7578   0.00    0.0
2022/05/29 13:55:38.421    8.852052468    7.742211768   410.8289   5  23   2.0473   2.2163   6.5511   0.8261  -1.4109   1.6573   0.00    0.0
2022/05/29 13:55:39.421    8.852056039    7.742207978   410.2035   5  24   1.9552   2.2134   6.5010   0.8669  -1.3780   1.5014   0.00    0.0
2022/05/29 13:55:40.421    8.852042985    7.742176097   401.4583   5  23   2.0472   2.2164   6.5514   0.8259  -1.4113   1.6566   0.00    0.0
2022/05/29 13:55:41.421    8.852054765    7.742219323   395.0652   5  24   1.9551   2.2135   6.5012   0.8667  -1.3783   1.5004   0.00    0.0
2022/05/29 13:55:42.421    8.852075828    7.742199870   400.0885   5  23   2.0471   2.2164   6.5517   0.8256  -1.4118   1.6560   0.00    0.0
2022/05/29 13:55:43.421    8.852020194    7.742210273   372.0390   5  22   2.1038   2.3264   6.6903   1.0971  -1.7167   1.2624   0.00    0.0
2022/05/29 13:55:44.421    8.852021279    7.742214775   394.1251   5  23   1.9842   2.2168   6.5545   0.8427  -1.4146   1.5904   0.00    0.0
2022/05/29 13:55:45.421    8.852027784    7.742231499   390.1992   5  22   2.1037   2.3265   6.6904   1.0970  -1.7173   1.2607   0.00    0.0
2022/05/29 13:55:46.421    8.852026770    7.742201640   399.1556   5  22   2.0821   2.2202   6.6122   0.7952  -1.4522   1.7539   0.00    0.0
2022/05/29 13:55:47.421    8.852064949    7.742282415   410.7720   5  23   2.0739   2.3242   6.6421   1.1139  -1.6927   1.1410   0.00    0.0
2022/05/29 13:55:48.421    8.852070573    7.742225179   392.1562   5  23   2.0468   2.2166   6.5526   0.8250  -1.4131   1.6540   0.00    0.0
2022/05/29 13:55:49.421    8.852002259    7.742216955   391.9292   5  24   2.0320   2.2214   5.7750   0.9785  -0.7894   1.6302   0.00    0.0
2022/05/29 13:55:50.421    8.851973093    7.742184594   401.3820   5  24   1.9547   2.2137   6.5020   0.8659  -1.3800   1.4961   0.00    0.0
2022/05/29 13:55:51.421    8.851952107    7.742200692   394.2490   5  23   2.0737   2.3243   6.6429   1.1137  -1.6938   1.1379   0.00    0.0
2022/05/29 13:55:52.421    8.851932587    7.742193674   411.8601   5  22   2.1423   2.3321   6.7125   1.0670  -1.7470   1.3458   0.00    0.0
2022/05/29 13:55:53.421    8.851959976    7.742211519   404.1683   5  22   2.1031   2.3269   6.6911   1.0967  -1.7193   1.2538   0.00    0.0
2022/05/29 13:55:54.421    8.851970501    7.742197586   406.7440   5  21   2.1770   2.3352   6.7683   1.0450  -1.7768   1.4639   0.00    0.0
2022/05/29 13:55:55.421    8.851995666    7.742211494   397.3413   5  22   2.1421   2.3322   6.7133   1.0668  -1.7480   1.3441   0.00    0.0
2022/05/29 13:55:56.421    8.852003605    7.742242977   394.2549   5  23   2.0734   2.3245   6.6438   1.1135  -1.6952   1.1340   0.00    0.0
2022/05/29 13:55:57.421    8.851990968    7.742196474   402.3093   5  22   2.1420   2.3323   6.7139   1.0667  -1.7486   1.3431   0.00    0.0
2022/05/29 13:55:58.421    8.852020006    7.742226522   420.0667   5  22   2.1419   2.3323   6.7141   1.0666  -1.7490   1.3425   0.00    0.0
2022/05/29 13:55:59.421    8.852018440    7.742214764   412.3013   5  23   2.0732   2.3247   6.6444   1.1133  -1.6961   1.1316   0.00    0.0
2022/05/29 13:56:00.421    8.851919859    7.742122193   405.7487   5  22   2.1418   2.3324   6.7147   1.0665  -1.7496   1.3415   0.00    0.0
2022/05/29 13:56:01.421    8.851879646    7.742126877   406.1238   5  21   2.3004   2.3332   7.1090   1.0438  -1.7875   1.9383   0.00    0.0
2022/05/29 13:56:02.421    8.851981450    7.742133435   405.5127   5  23   2.1037   2.2281   5.8442   0.9272  -0.8833   1.7679   0.00    0.0
2022/05/29 13:56:03.421    8.851999889    7.742199450   398.7614   5  21   2.5382   2.2388   6.2635   1.0531  -0.7462   2.4477   0.00    0.0
2022/05/29 13:56:04.421    8.851987459    7.742193154   404.3722   5  23   2.1035   2.2281   5.8449   0.9268  -0.8843   1.7675   0.00    0.0
2022/05/29 13:56:05.421    8.852011499    7.742215418   389.4734   5  22   2.2767   2.2281   6.1868   0.9288  -0.8794   2.2113   0.00    0.0
2022/05/29 13:56:06.421    8.852006426    7.742237507   403.7315   5  23   2.1033   2.2281   5.8456   0.9264  -0.8852   1.7671   0.00    0.0
2022/05/29 13:56:07.421    8.851983684    7.742188151   387.0620   5  23   2.1032   2.2281   5.8460   0.9262  -0.8857   1.7670   0.00    0.0
2022/05/29 13:56:08.421    8.851998316    7.742209641   387.5168   5  23   2.1030   2.2282   5.8464   0.9260  -0.8862   1.7668   0.00    0.0
2022/05/29 13:56:09.421    8.851997168    7.742190255   385.1892   5  23   2.1029   2.2282   5.8467   0.9259  -0.8866   1.7666   0.00    0.0
2022/05/29 13:56:10.421    8.851996526    7.742171425   399.2866   5  23   2.1028   2.2282   5.8471   0.9257  -0.8871   1.7664   0.00    0.0
2022/05/29 13:56:11.421    8.852035473    7.742179937   402.2388   5  22   2.2758   2.2282   6.1883   0.9273  -0.8830   2.2097   0.00    0.0
2022/05/29 13:56:12.421    8.852082069    7.742190739   410.6101   5  21   2.2992   2.3337   7.1098   1.0427  -1.7914   1.9319   0.00    0.0
2022/05/29 13:56:13.421    8.852025303    7.742147164   408.2249   5  23   2.1025   2.2282   5.8482   0.9251  -0.8885   1.7659   0.00    0.0
2022/05/29 13:56:14.421    8.851972340    7.742164293   396.9166   5  21   2.2990   2.3338   7.1099   1.0426  -1.7921   1.9307   0.00    0.0
2022/05/29 13:56:15.421    8.852002080    7.742172596   413.3323   5  23   2.1023   2.2283   5.8489   0.9247  -0.8895   1.7655   0.00    0.0
2022/05/29 13:56:16.421    8.852020381    7.742207478   401.8511   5  21   2.4393   2.3854   6.7488   1.3097  -1.8422   1.0176   0.00    0.0
2022/05/29 13:56:17.421    8.852003120    7.742181966   398.0131   5  22   2.3472   2.3817   6.6885   1.3433  -1.8092   0.6603   0.00    0.0
2022/05/29 13:56:18.421    8.851982770    7.742136854   387.9770   5  22   2.3042   2.2385   5.8810   1.0271  -0.8155   1.9197   0.00    0.0
2022/05/29 13:56:19.421    8.852008677    7.742185664   397.7045   5  22   2.3041   2.2385   5.8815   1.0269  -0.8160   1.9197   0.00    0.0
2022/05/29 13:56:20.421    8.851947716    7.742149272   384.1556   5  22   2.3040   2.2385   5.8819   1.0267  -0.8164   1.9197   0.00    0.0
2022/05/29 13:56:21.421    8.852031950    7.742193227   400.2795   5  22   2.3039   2.2385   5.8823   1.0264  -0.8169   1.9196   0.00    0.0
2022/05/29 13:56:22.421    8.851967816    7.742167297   389.4054   5  21   2.5357   2.2389   6.2700   1.0478  -0.7592   2.4460   0.00    0.0
2022/05/29 13:56:23.421    8.852021219    7.742233744   380.8114   5  21   2.5355   2.2389   6.2703   1.0475  -0.7599   2.4459   0.00    0.0
2022/05/29 13:56:24.421    8.851992207    7.742214631   393.0443   5  22   2.3036   2.2385   5.8836   1.0258  -0.8183   1.9196   0.00    0.0
2022/05/29 13:56:25.421    8.851996953    7.742204757   385.6513   5  21   2.5352   2.2389   6.2710   1.0470  -0.7613   2.4457   0.00    0.0
2022/05/29 13:56:26.421    8.851997680    7.742205799   397.6762   5  21   2.5351   2.2389   6.2714   1.0467  -0.7620   2.4456   0.00    0.0
2022/05/29 13:56:27.421    8.852036390    7.742185483   418.9073   5  23   2.2263   2.1499   6.1134   0.7633  -0.4687   2.3058   0.00    0.0
2022/05/29 13:56:28.421    8.852203926    7.742184195   446.3790   5  22   2.3032   2.2386   5.8852   1.0249  -0.8201   1.9195   0.00    0.0
2022/05/29 13:56:29.421    8.851934624    7.742118167   399.5188   5  21   2.5347   2.2390   6.2724   1.0458  -0.7640   2.4453   0.00    0.0
2022/05/29 13:56:30.421    8.852021550    7.742193153   413.0748   5  21   2.5346   2.2390   6.2727   1.0456  -0.7647   2.4452   0.00    0.0
2022/05/29 13:56:31.421    8.852020464    7.742177217   398.7149   5  20   2.6514   2.3860   7.1153   1.3171  -1.8315   1.8340   0.00    0.0
2022/05/29 13:56:32.421    8.852041426    7.742168112   404.6280   5  21   2.4390   2.3859   6.7517   1.3084  -1.8450   1.0139   0.00    0.0
2022/05/29 13:56:33.421    8.851987979    7.742174271   383.8730   5  20   2.6513   2.3860   7.1153   1.3169  -1.8319   1.8334   0.00    0.0
2022/05/29 13:56:34.421    8.852068152    7.742243561   415.3455   5  20   2.6513   2.3861   7.1154   1.3168  -1.8322   1.8331   0.00    0.0
2022/05/29 13:56:35.421    8.851954646    7.742139650   391.9858   5  21   2.5339   2.2390   6.2744   1.0442  -0.7681   2.4447   0.00    0.0
2022/05/29 13:56:36.421    8.852025616    7.742186151   383.2653   5  21   2.5337   2.2390   6.2748   1.0439  -0.7688   2.4446   0.00    0.0
2022/05/29 13:56:37.421    8.852005436    7.742172863   371.3536   5  21   2.5336   2.2390   6.2751   1.0436  -0.7694   2.4445   0.00    0.0
2022/05/29 13:56:38.421    8.852000895    7.742195451   392.5988   5  20   2.6511   2.3862   7.1155   1.3164  -1.8330   1.8319   0.00    0.0
2022/05/29 13:56:39.421    8.851957253    7.742177207   388.5251   5  19   2.7058   2.4186   7.1523   1.3951  -1.7535   1.9358   0.00    0.0
2022/05/29 13:56:40.421    8.852037484    7.742184413   411.9126   5  21   2.4388   2.3861   6.7532   1.3077  -1.8464   1.0120   0.00    0.0
2022/05/29 13:56:41.421    8.851980529    7.742182517   396.2365   5  19   2.7058   2.4186   7.1525   1.3949  -1.7538   1.9356   0.00    0.0
2022/05/29 13:56:42.421    8.851999627    7.742159803   400.1915   5  20   2.4791   2.4180   6.7735   1.3725  -1.7909   1.1201   0.00    0.0
2022/05/29 13:56:43.421    8.851977647    7.742174655   411.3354   5  20   2.6509   2.3863   7.1156   1.3158  -1.8341   1.8305   0.00    0.0
2022/05/29 13:56:44.421    8.851966434    7.742204428   397.3032   5  19   2.7058   2.4187   7.1529   1.3946  -1.7542   1.9352   0.00    0.0
2022/05/29 13:56:45.421    8.851996484    7.742258434   413.6522   5  20   2.6508   2.3864   7.1156   1.3156  -1.8345   1.8299   0.00    0.0
2022/05/29 13:56:46.421    8.851967522    7.742234509   409.2646   5  19   2.7058   2.4187   7.1531   1.3944  -1.7545   1.9350   0.00    0.0
2022/05/29 13:56:47.421    8.852074705    7.742193959   439.2456   5  20   2.3971   2.2668   6.6928   1.0683  -1.3775   1.8255   0.00    0.0
2022/05/29 13:56:48.421    8.851997098    7.742181000   422.8767   5  21   2.3129   2.2667   6.5983   1.0635  -1.3839   1.6205   0.00    0.0
2022/05/29 13:56:49.421    8.851975358    7.742188572   423.5785   5  21   2.3251   2.2451   6.6175   0.9790  -1.4869   1.6577   0.00    0.0
2022/05/29 13:56:50.421    8.851992311    7.742216631   416.7670   5  20   2.4791   2.4181   6.7754   1.3718  -1.7917   1.1199   0.00    0.0
2022/05/29 13:56:51.421    8.852043518    7.742216957   422.6211   5  20   2.4843   2.3879   6.7986   1.2921  -1.8650   1.1759   0.00    0.0
2022/05/29 13:56:52.421    8.852059201    7.742270835   422.1352   5  22   2.3009   2.2388   5.8953   1.0198  -0.8311   1.9191   0.00    0.0
2022/05/29 13:56:53.421    8.852020745    7.742173229   431.5942   5  21   2.3487   2.2404   5.9463   1.0002  -0.8693   2.0120   0.00    0.0
2022/05/29 13:56:54.421    8.852012505    7.742172852   438.6304   5  20   2.4790   2.4182   6.7764   1.3715  -1.7921   1.1198   0.00    0.0
2022/05/29 13:56:55.421    8.851988474    7.742188219   432.6751   5  21   2.3484   2.2404   5.9469   0.9997  -0.8702   2.0118   0.00    0.0
2022/05/29 13:56:56.421    8.852032906    7.742189399   441.9676   5  21   2.3483   2.2404   5.9473   0.9995  -0.8706   2.0116   0.00    0.0
2022/05/29 13:56:57.421    8.851956924    7.742178890   414.5947   5  22   2.3004   2.2389   5.8974   1.0187  -0.8334   1.9190   0.00    0.0
2022/05/29 13:56:58.421    8.852045186    7.742159649   445.6002   5  20   2.4868   2.2663   6.2433   1.1885  -0.1891   2.3737   0.00    0.0
2022/05/29 13:56:59.421    8.852038804    7.742223179   429.8345   5  20   2.6448   2.1798   6.4683   0.9552   0.5256   2.8588   0.00    0.0
2022/05/29 13:57:00.421    8.852038164    7.742224558   409.1521   5  22   2.1803   2.1747   5.9149   0.9026   0.2419   2.0715   0.00    0.0
2022/05/29 13:57:01.421    8.852036005    7.742222786   397.7227   5  23   2.1204   2.1536   5.8292   0.8129  -0.4959   1.9444   0.00    0.0
2022/05/29 13:57:02.421    8.852041808    7.742175617   411.3259   5  24   2.0831   2.1515   5.7852   0.8351  -0.4235   1.8699   0.00    0.0
2022/05/29 13:57:03.421    8.852008398    7.742147848   397.8489   5  24   2.0830   2.1515   5.7855   0.8349  -0.4239   1.8699   0.00    0.0
2022/05/29 13:57:04.421    8.852006738    7.742159787   408.2361   5  24   2.0829   2.1515   5.7858   0.8347  -0.4244   1.8698   0.00    0.0
2022/05/29 13:57:05.421    8.852048510    7.742190299   410.7583   5  23   2.2044   2.2341   5.8198   1.0634  -0.7462   1.7448   0.00    0.0
2022/05/29 13:57:06.421    8.852017759    7.742184661   405.5486   5  24   2.0828   2.1516   5.7864   0.8343  -0.4254   1.8696   0.00    0.0
2022/05/29 13:57:07.421    8.852039556    7.742191174   416.4853   5  23   2.2042   2.2341   5.8204   1.0630  -0.7470   1.7445   0.00    0.0
2022/05/29 13:57:08.421    8.852007547    7.742189364   399.0698   5  23   2.2041   2.2341   5.8207   1.0629  -0.7474   1.7443   0.00    0.0
2022/05/29 13:57:09.421    8.852081643    7.742215435   423.3725   5  23   2.2040   2.2341   5.8210   1.0627  -0.7479   1.7442   0.00    0.0
2022/05/29 13:57:10.421    8.852063366    7.742182735   415.5025   5  22   2.3414   2.2356   6.0754   1.0923  -0.6470   2.1014   0.00    0.0
2022/05/29 13:57:11.421    8.851956959    7.742150595   414.5658   5  23   2.0538   2.2244   5.8337   0.9478  -0.8594   1.6758   0.00    0.0
2022/05/29 13:57:12.421    8.852076133    7.742205080   429.5936   5  22   2.1661   2.2248   6.0765   0.9627  -0.8174   1.9944   0.00    0.0
2022/05/29 13:57:13.421    8.852047533    7.742192464   420.8947   5  22   2.1659   2.2248   6.0765   0.9625  -0.8179   1.9939   0.00    0.0
2022/05/29 13:57:14.421    8.852058225    7.742187650   423.0225   5  22   2.1657   2.2248   6.0765   0.9623  -0.8184   1.9934   0.00    0.0
2022/05/29 13:57:15.421    8.852068016    7.742211797   411.9846   5  22   2.1655   2.2248   6.0766   0.9621  -0.8190   1.9929   0.00    0.0
2022/05/29 13:57:16.421    8.852030928    7.742171570   399.5940   5  22   2.1654   2.2249   6.0766   0.9619  -0.8195   1.9924   0.00    0.0
2022/05/29 13:57:17.421    8.852099939    7.742220206   401.6991   5  22   2.1652   2.2249   6.0766   0.9616  -0.8200   1.9919   0.00    0.0
2022/05/29 13:57:18.421    8.852061860    7.742231484   395.9602   5  23   2.1271   2.2232   6.0279   0.9794  -0.7790   1.9120   0.00    0.0
2022/05/29 13:57:19.421    8.851973984    7.742160731   383.6921   5  23   2.1269   2.2232   6.0281   0.9792  -0.7795   1.9117   0.00    0.0
2022/05/29 13:57:20.421    8.851985833    7.742128659   394.0520   5  21   2.3148   2.2318   6.2700   0.8829  -0.9727   2.2867   0.00    0.0
2022/05/29 13:57:21.421    8.852047456    7.742233004   401.9889   5  21   2.2924   2.3373   7.1135   1.0366  -1.8155   1.8906   0.00    0.0
2022/05/29 13:57:22.421    8.852076309    7.742204364   399.8640   5  22   2.1627   2.3284   6.9179   1.1091  -1.7197   1.5209   0.00    0.0
2022/05/29 13:57:23.421    8.852055242    7.742191208   407.0133   5  22   2.1626   2.3284   6.9179   1.1091  -1.7200   1.5201   0.00    0.0
2022/05/29 13:57:24.421    8.852053232    7.742173306   406.9462   5  22   2.1625   2.3284   6.9178   1.1090  -1.7203   1.5192   0.00    0.0
2022/05/29 13:57:25.421    8.852072532    7.742177193   411.8393   5  23   2.1261   2.2233   6.0288   0.9780  -0.7829   1.9093   0.00    0.0
2022/05/29 13:57:26.421    8.852058993    7.742200407   406.9879   5  23   2.1259   2.2233   6.0290   0.9778  -0.7835   1.9089   0.00    0.0
2022/05/29 13:57:27.421    8.852037777    7.742218042   412.2794   5  23   2.1258   2.2233   6.0291   0.9776  -0.7840   1.9085   0.00    0.0
2022/05/29 13:57:28.421    8.852023456    7.742187893   401.5955   5  21   2.1972   2.3311   6.9703   1.0898  -1.7478   1.6225   0.00    0.0
2022/05/29 13:57:29.421    8.852034593    7.742152337   410.9202   5  22   2.1621   2.3287   6.9175   1.1087  -1.7217   1.5151   0.00    0.0
2022/05/29 13:57:30.421    8.851987320    7.742150133   395.1031   5  22   2.3385   2.2357   6.0793   1.0878  -0.6597   2.0964   0.00    0.0
2022/05/29 13:57:31.421    8.851978122    7.742177031   404.2414   5  23   2.1252   2.2234   6.0296   0.9768  -0.7863   1.9069   0.00    0.0
2022/05/29 13:57:32.421    8.851958778    7.742197964   384.3349   5  22   2.3382   2.2357   6.0797   1.0873  -0.6610   2.0959   0.00    0.0
2022/05/29 13:57:33.421    8.852065548    7.742235103   405.1141   5  22   2.0964   2.3313   6.6977   1.0925  -1.7437   1.1632   0.00    0.0
2022/05/29 13:57:34.421    8.852032368    7.742206246   394.0824   5  23   2.0684   2.3289   6.6605   1.1089  -1.7223   1.0536   0.00    0.0
2022/05/29 13:57:35.421    8.851958595    7.742147095   402.7222   5  21   2.1965   2.3314   6.9690   1.0895  -1.7495   1.6159   0.00    0.0
2022/05/29 13:57:36.421    8.851995419    7.742176950   397.3167   5  23   2.0683   2.3290   6.6608   1.1088  -1.7228   1.0519   0.00    0.0
2022/05/29 13:57:37.421    8.851977288    7.742149634   406.9300   5  23   2.0683   2.3290   6.6610   1.1088  -1.7231   1.0510   0.00    0.0
2022/05/29 13:57:38.421    8.852023575    7.742171076   403.4191   5  23   2.0682   2.3291   6.6611   1.1087  -1.7234   1.0502   0.00    0.0
2022/05/29 13:57:39.421    8.852041481    7.742247693   410.1821   5  22   2.1613   2.3291   6.9169   1.1082  -1.7246   1.5067   0.00    0.0
2022/05/29 13:57:40.421    8.852052614    7.742219093   408.1124   5  22   2.1612   2.3292   6.9169   1.1081  -1.7249   1.5059   0.00    0.0
2022/05/29 13:57:41.421    8.852063284    7.742212109   404.4524   5  22   2.1611   2.3292   6.9168   1.1081  -1.7252   1.5050   0.00    0.0
2022/05/29 13:57:42.421    8.852030718    7.742180449   398.3157   5  23   2.0680   2.3293   6.6617   1.1086  -1.7244   1.0467   0.00    0.0
2022/05/29 13:57:43.421    8.852046445    7.742218146   403.1107   5  22   2.1610   2.3293   6.9167   1.1079  -1.7258   1.5034   0.00    0.0
2022/05/29 13:57:44.421    8.852108930    7.742257793   400.5661   5  23   2.0679   2.3294   6.6620   1.1085  -1.7250   1.0449   0.00    0.0
2022/05/29 13:57:45.421    8.852116580    7.742286100   407.3512   5  23   2.0679   2.3294   6.6622   1.1084  -1.7252   1.0440   0.00    0.0
2022/05/29 13:57:46.421    8.852115225    7.742233424   386.8653   5  23   2.0678   2.3294   6.6623   1.1084  -1.7255   1.0432   0.00    0.0
2022/05/29 13:57:47.421    8.852115355    7.742256012   402.8943   5  23   2.0678   2.3295   6.6625   1.1083  -1.7258   1.0423   0.00    0.0
2022/05/29 13:57:48.421    8.852039243    7.742213135   387.5950   5  24   1.9488   2.2166   6.5095   0.8561  -1.4005   1.4375   0.00    0.0
2022/05/29 13:57:49.421    8.852018678    7.742225787   393.4124   5  24   1.9487   2.2166   6.5095   0.8560  -1.4007   1.4370   0.00    0.0
2022/05/29 13:57:50.421    8.852063592    7.742223858   394.6071   5  23   2.0676   2.3296   6.6629   1.1082  -1.7266   1.0397   0.00    0.0
2022/05/29 13:57:51.421    8.852037164    7.742214564   399.0578   5  24   1.9486   2.2166   6.5096   0.8559  -1.4010   1.4360   0.00    0.0
2022/05/29 13:57:52.421    8.852022701    7.742226172   390.2562   5  23   2.0676   2.3297   6.6632   1.1081  -1.7271   1.0379   0.00    0.0
2022/05/29 13:57:53.421    8.852019834    7.742218125   394.0757   5  23   2.0675   2.3298   6.6633   1.1081  -1.7274   1.0371   0.00    0.0
2022/05/29 13:57:54.421    8.851964782    7.742185714   403.2415   5  23   2.0653   2.2176   6.7325   0.8798  -1.3634   1.7983   0.00    0.0
2022/05/29 13:57:55.421    8.851957581    7.742183643   394.8722   5  23   2.0674   2.3299   6.6636   1.1080  -1.7279   1.0353   0.00    0.0
2022/05/29 13:57:56.421    8.851928359    7.742179913   398.8547   5  24   1.9484   2.2168   6.5098   0.8554  -1.4018   1.4334   0.00    0.0
2022/05/29 13:57:57.421    8.851994264    7.742204978   400.0562   5  21   2.4372   2.3885   6.7663   1.3014  -1.8594   0.9931   0.00    0.0
2022/05/29 13:57:58.421    8.851912613    7.742140642   401.6040   5  22   2.1354   2.3384   6.7447   1.0590  -1.7872   1.2739   0.00    0.0
2022/05/29 13:57:59.421    8.851973586    7.742162959   391.6348   5  22   2.3449   2.3844   6.6963   1.3370  -1.8223   0.5827   0.00    0.0
2022/05/29 13:58:00.421    8.851963047    7.742180065   386.5052   5  22   2.3106   2.2452   6.7321   1.0659  -1.3759   1.7688   0.00    0.0
2022/05/29 13:58:01.421    8.851931435    7.742196751   394.6116   5  22   2.1595   2.3301   6.9155   1.1070  -1.7309   1.4882   0.00    0.0
2022/05/29 13:58:02.421    8.851972752    7.742201179   395.7823   5  22   2.1595   2.3302   6.9154   1.1069  -1.7312   1.4873   0.00    0.0
2022/05/29 13:58:03.421    8.852027193    7.742244661   400.4262   5  22   2.3105   2.2452   6.7315   1.0656  -1.3762   1.7675   0.00    0.0
2022/05/29 13:58:04.421    8.852055233    7.742246549   395.4739   5  22   2.1593   2.3303   6.9153   1.1068  -1.7318   1.4856   0.00    0.0
2022/05/29 13:58:05.421    8.852047603    7.742229567   407.4598   5  23   2.0644   2.2178   6.7306   0.8788  -1.3656   1.7914   0.00    0.0
2022/05/29 13:58:06.421    8.852065338    7.742246175   403.6852   5  23   2.0643   2.2179   6.7304   0.8787  -1.3658   1.7907   0.00    0.0
2022/05/29 13:58:07.421    8.852034525    7.742233917   406.2259   5  23   2.0642   2.2179   6.7302   0.8786  -1.3660   1.7901   0.00    0.0
2022/05/29 13:58:08.421    8.852029718    7.742205750   405.8053   5  22   2.1590   2.3305   6.9150   1.1066  -1.7329   1.4822   0.00    0.0
2022/05/29 13:58:09.421    8.852069080    7.742214418   394.7068   5  22   2.1589   2.3305   6.9149   1.1065  -1.7332   1.4813   0.00    0.0
2022/05/29 13:58:10.421    8.852066531    7.742214147   394.2749   5  23   2.0640   2.2180   6.7297   0.8783  -1.3666   1.7882   0.00    0.0
2022/05/29 13:58:11.421    8.852105063    7.742250848   392.7472   5  23   2.0639   2.2180   6.7295   0.8782  -1.3668   1.7876   0.00    0.0
2022/05/29 13:58:12.421    8.852150905    7.742266192   390.9855   5  22   2.1587   2.3306   6.9147   1.1064  -1.7341   1.4787   0.00    0.0
2022/05/29 13:58:13.421    8.852108515    7.742228550   399.7905   5  24   1.9476   2.2172   6.5104   0.8541  -1.4045   1.4245   0.00    0.0
2022/05/29 13:58:14.421    8.852086565    7.742191711   401.6561   5  24   1.9475   2.2172   6.5104   0.8540  -1.4047   1.4240   0.00    0.0
2022/05/29 13:58:15.421    8.852075852    7.742247894   397.7835   5  23   2.1188   2.2241   6.0351   0.9679  -0.8106   1.8889   0.00    0.0
2022/05/29 13:58:16.421    8.852028614    7.742170249   399.3955   5  24   2.0450   2.1490   5.9750   0.7867  -0.4130   2.0094   0.00    0.0
2022/05/29 13:58:17.421    8.852003460    7.742165539   401.1275   5  22   2.1583   2.3309   6.9143   1.1061  -1.7354   1.4745   0.00    0.0
2022/05/29 13:58:18.421    8.852008549    7.742166930   433.3007   5  23   2.1184   2.2241   6.0354   0.9673  -0.8122   1.8877   0.00    0.0
2022/05/29 13:58:19.421    8.851967187    7.742174092   422.0900   5  23   2.0632   2.2182   6.7281   0.8774  -1.3684   1.7825   0.00    0.0
2022/05/29 13:58:20.421    8.851975456    7.742143350   416.3074   5  24   2.0445   2.1490   5.9752   0.7858  -0.4161   2.0080   0.00    0.0
2022/05/29 13:58:21.421    8.852008173    7.742163158   412.8759   5  25   1.9224   2.1473   5.7699   0.7464  -0.5546   1.7177   0.00    0.0
2022/05/29 13:58:22.421    8.851987262    7.742180859   415.4910   5  24   1.9471   2.2175   6.5107   0.8533  -1.4059   1.4198   0.00    0.0
2022/05/29 13:58:23.421    8.851961798    7.742118297   434.1666   5  25   1.9223   2.1473   5.7703   0.7460  -0.5555   1.7172   0.00    0.0
2022/05/29 13:58:24.421    8.852041632    7.742243661   408.9638   5  23   2.0661   2.3312   6.6677   1.1068  -1.7355   1.0093   0.00    0.0
2022/05/29 13:58:25.421    8.852024900    7.742219102   406.4920   5  24   1.9470   2.2175   6.5107   0.8531  -1.4064   1.4182   0.00    0.0
2022/05/29 13:58:26.421    8.851946868    7.742127377   437.0345   5  25   1.9220   2.1474   5.7710   0.7454  -0.5567   1.7165   0.00    0.0
2022/05/29 13:58:27.421    8.851937374    7.742183493   405.1500   5  23   1.9685   2.2381   6.5479   0.9030  -1.3299   1.4869   0.00    0.0
2022/05/29 13:58:28.421    8.851869664    7.742178671   378.6532   5  23   2.0625   2.2184   6.7264   0.8766  -1.3702   1.7768   0.00    0.0
2022/05/29 13:58:29.421    8.851929170    7.742188619   382.1602   5  21   2.1562   2.2396   6.8779   0.9321  -1.2787   2.0144   0.00    0.0
2022/05/29 13:58:30.421    8.851864255    7.742134846   368.0688   5  24   2.0432   2.1491   5.9759   0.7835  -0.4236   2.0044   0.00    0.0
2022/05/29 13:58:31.421    8.851937188    7.742166953   340.2332   5  24   1.9435   2.1685   5.8144   0.8012  -0.3177   1.7737   0.00    0.0
2022/05/29 13:58:32.421    8.851951900    7.742163741   385.5368   5  25   1.9215   2.1474   5.7722   0.7443  -0.5593   1.7149   0.00    0.0
2022/05/29 13:58:33.421    8.851952045    7.742193438   380.0928   5  25   1.9214   2.1475   5.7724   0.7441  -0.5597   1.7147   0.00    0.0
