% program   : RTKPOST ver.demo5 b34g
% inp file  : C:\Users\Abdullateef\Documents\PHD\Research on Precision Agriculture Navigation Technology\nav data\sensorlogSlim\gnss_log_2022_05_29_14_51_17.22o
% inp file  : C:\Users\Abdullateef\Documents\PHD\Research on Precision Agriculture Navigation Technology\nav data\sensorlogSlim\BRDM00DLR_S_20221490000_01D_MN.rnx\BRDM00DLR_S_20221490000_01D_MN.rnx
% obs start : 2022/05/29 13:51:35.4 GPST (week2212  49895.4s)
% obs end   : 2022/05/29 14:52:19.4 GPST (week2212  53539.4s)
% pos mode  : Single
% elev mask : 0.0 deg
% ionos opt : Broadcast
% tropo opt : Saastamoinen
% ephemeris : Broadcast
% navi sys  : GPS GLONASS Galileo BDS
%
% (lat/lon/height=WGS84/ellipsoidal,Q=1:fix,2:float,3:sbas,4:dgps,5:single,6:ppp,ns=# of satellites)
%  GPST                  latitude(deg) longitude(deg)  height(m)   Q  ns   sdn(m)   sde(m)   sdu(m)  sdne(m)  sdeu(m)  sdun(m) age(s)  ratio
2022/05/29 13:51:35.421    8.851942578    7.742157195   399.7778   5  31   1.7247   1.8299   4.8018   0.3492  -1.5304   1.1980   0.00    0.0
2022/05/29 13:51:36.421    8.851950278    7.742160698   400.4534   5  33   1.7171   1.7526   4.3793   0.2521  -1.1683   1.2502   0.00    0.0
2022/05/29 13:51:37.421    8.851923868    7.742139433   407.4588   5  30   1.7278   1.8989   5.1167   0.2618  -1.7996   1.2726   0.00    0.0
2022/05/29 13:51:38.421    8.851941420    7.742135866   406.1620   5  30   1.7278   1.8989   5.1169   0.2616  -1.7997   1.2724   0.00    0.0
2022/05/29 13:51:39.421    8.851938136    7.742125729   401.0974   5  31   1.7249   1.8858   4.4591   0.3754  -1.1275   1.2148   0.00    0.0
2022/05/29 13:51:40.421    8.851951723    7.742156945   398.4141   5  31   1.6831   1.8982   5.1075   0.2961  -1.7954   1.2228   0.00    0.0
2022/05/29 13:51:41.421    8.851997672    7.742135875   401.3235   5  32   1.6830   1.8353   4.6499   0.2962  -1.4828   1.2224   0.00    0.0
2022/05/29 13:51:42.421    8.851955590    7.742179461   392.3870   5  33   1.6802   1.7834   4.4228   0.3596  -1.2556   1.1644   0.00    0.0
2022/05/29 13:51:43.421    8.851965705    7.742157565   388.8821   5  32   1.6829   1.8353   4.6504   0.2956  -1.4830   1.2224   0.00    0.0
2022/05/29 13:51:44.421    8.851961725    7.742166416   397.3744   5  33   1.6801   1.7833   4.4232   0.3592  -1.2557   1.1644   0.00    0.0
2022/05/29 13:51:45.421    8.851973952    7.742180391   396.0708   5  31   1.7270   1.8457   4.5219   0.4037  -1.4192   1.1680   0.00    0.0
2022/05/29 13:51:46.421    8.851976723    7.742177775   394.3718   5  33   1.6800   1.7833   4.4236   0.3588  -1.2558   1.1643   0.00    0.0
2022/05/29 13:51:47.421    8.852011081    7.742172661   410.7117   5  33   1.6373   1.8207   4.4325   0.4200  -1.3692   0.9728   0.00    0.0
2022/05/29 13:51:48.421    8.852019039    7.742171008   383.2019   5  31   1.6783   1.8759   4.8319   0.4331  -1.6562   0.9620   0.00    0.0
2022/05/29 13:51:49.421    8.851956328    7.742141924   394.2618   5  33   1.6373   1.8147   4.5662   0.4712  -1.4119   0.8793   0.00    0.0
2022/05/29 13:51:50.421    8.851966555    7.742190266   408.0100   5  31   1.7237   1.9461   4.4383   0.6164  -1.3563   0.9318   0.00    0.0
2022/05/29 13:51:51.421    8.851966357    7.742152900   415.4555   5  32   1.7019   1.9223   4.4336   0.6801  -1.3794   0.9620   0.00    0.0
2022/05/29 13:51:52.421    8.852055967    7.742178531   407.2688   5  32   1.7446   1.8812   4.2436   0.7027  -1.1781   0.9509   0.00    0.0
2022/05/29 13:51:53.421    8.852039991    7.742179850   402.2097   5  31   1.7462   1.9222   4.4383   0.6809  -1.3791   1.0013   0.00    0.0
2022/05/29 13:51:54.421    8.852032169    7.742187410   408.9548   5  31   1.7457   1.8209   4.4445   0.4142  -1.3728   0.9521   0.00    0.0
2022/05/29 13:51:55.421    8.852003319    7.742172328   410.9293   5  33   1.7126   1.7735   4.3541   0.4557  -1.1501   1.1723   0.00    0.0
2022/05/29 13:51:56.421    8.852028640    7.742182860   405.7702   5  30   1.7248   1.9126   4.8101   0.2887  -1.4545   1.3211   0.00    0.0
2022/05/29 13:51:57.421    8.852033944    7.742167702   406.5492   5  32   1.7031   1.7931   4.7107   0.2846  -1.2125   1.3128   0.00    0.0
2022/05/29 13:51:58.421    8.852000400    7.742146694   395.4670   5  32   1.7174   1.8316   4.3924   0.3839  -1.2593   1.2039   0.00    0.0
2022/05/29 13:51:59.421    8.852040746    7.742177351   405.2047   5  32   1.7169   1.8209   4.5872   0.3946  -1.3850   1.2463   0.00    0.0
2022/05/29 13:52:00.421    8.852007629    7.742173063   409.0799   5  32   1.7173   1.8315   4.3928   0.3834  -1.2594   1.2039   0.00    0.0
2022/05/29 13:52:01.421    8.852014906    7.742163638   412.5430   5  32   1.7830   1.7735   4.3582   0.4613  -1.1513   1.1384   0.00    0.0
2022/05/29 13:52:02.421    8.852064611    7.742148316   414.8138   5  31   1.7884   1.8315   4.3957   0.3853  -1.2597   1.1731   0.00    0.0
2022/05/29 13:52:03.421    8.851974983    7.742172782   388.1632   5  30   1.8661   1.8366   4.8563   0.1819  -1.5166   1.5244   0.00    0.0
2022/05/29 13:52:04.421    8.852132405    7.742133404   420.8103   5  32   1.7172   1.8315   4.3937   0.3824  -1.2595   1.2039   0.00    0.0
2022/05/29 13:52:05.421    8.851998559    7.742169916   405.9715   5  31   1.8565   1.7833   4.5767   0.3394  -1.2596   1.4208   0.00    0.0
2022/05/29 13:52:06.421    8.852025551    7.742171516   418.6552   5  30   1.8697   1.8412   4.6085   0.1922  -1.3587   1.4686   0.00    0.0
2022/05/29 13:52:07.421    8.852090273    7.742197212   423.1995   5  32   1.7691   1.7832   4.5770   0.3496  -1.2596   1.4141   0.00    0.0
2022/05/29 13:52:08.421    8.852098042    7.742153540   426.4842   5  31   1.7645   1.8381   4.4041   0.4902  -1.2264   1.0613   0.00    0.0
2022/05/29 13:52:09.421    8.852030911    7.742192499   401.3745   5  32   1.7690   1.7832   4.5775   0.3490  -1.2598   1.4141   0.00    0.0
2022/05/29 13:52:10.421    8.851995012    7.742151968   401.5856   5  31   1.7841   1.8260   4.4787   0.4931  -1.3566   1.0538   0.00    0.0
2022/05/29 13:52:11.421    8.851950000    7.742117415   406.9346   5  32   1.7730   1.7802   4.5612   0.3571  -1.2383   1.4194   0.00    0.0
2022/05/29 13:52:12.421    8.852011899    7.742173564   397.9152   5  30   1.8824   1.8264   4.7219   0.4636  -1.3701   1.5364   0.00    0.0
2022/05/29 13:52:13.421    8.851989580    7.742185555   400.9031   5  31   1.7941   1.8259   4.6221   0.4888  -1.3552   1.3452   0.00    0.0
2022/05/29 13:52:14.421    8.852015550    7.742174825   407.0126   5  32   1.7605   1.7790   4.2529   0.3670  -1.1703   0.9233   0.00    0.0
2022/05/29 13:52:15.421    8.851950329    7.742188798   395.3870   5  30   1.8174   1.8837   4.5195   0.6282  -1.4408   0.9912   0.00    0.0
2022/05/29 13:52:16.421    8.851998620    7.742169359   404.2188   5  31   1.7301   1.8773   4.3248   0.5499  -1.3500   0.7638   0.00    0.0
2022/05/29 13:52:17.421    8.851946852    7.742185380   391.3553   5  30   1.8008   1.8857   4.9198   0.4047  -1.6220   1.4402   0.00    0.0
2022/05/29 13:52:18.421    8.852020564    7.742148238   408.0620   5  30   1.7777   1.9255   5.0591   0.1932  -1.7653   1.5172   0.00    0.0
2022/05/29 13:52:19.421    8.852063491    7.742175107   404.3921   5  30   1.8659   1.8318   4.6391   0.4019  -1.3763   1.4151   0.00    0.0
2022/05/29 13:52:20.421    8.852047414    7.742164502   404.0020   5  30   1.8171   1.8836   4.5208   0.6269  -1.4411   0.9919   0.00    0.0
2022/05/29 13:52:21.421    8.852031422    7.742177167   410.5114   5  29   1.7999   1.9968   4.8557   0.4236  -1.7383   1.3721   0.00    0.0
2022/05/29 13:52:22.421    8.852068012    7.742200280   406.3607   5  29   1.8006   1.9873   5.1435   0.4214  -1.8897   1.4277   0.00    0.0
2022/05/29 13:52:23.421    8.852004474    7.742181894   393.8516   5  28   1.8930   1.9968   4.8563   0.4269  -1.7385   1.3728   0.00    0.0
2022/05/29 13:52:24.421    8.851965780    7.742186318   398.6600   5  28   1.9714   1.9035   4.7732   0.4328  -1.5728   1.4013   0.00    0.0
2022/05/29 13:52:25.421    8.852091322    7.742174693   403.7455   5  32   1.6911   1.8376   4.2731   0.3118  -1.2549   0.9949   0.00    0.0
2022/05/29 13:52:26.421    8.852001093    7.742198877   403.8098   5  31   1.7582   1.8452   4.5247   0.4072  -1.4188   1.1079   0.00    0.0
2022/05/29 13:52:27.421    8.851952269    7.742140936   406.0192   5  30   1.9384   1.7905   4.5999   0.1404  -1.2871   1.5001   0.00    0.0
2022/05/29 13:52:28.421    8.852018719    7.742192072   409.7856   5  33   1.6987   1.7731   4.2515   0.4454  -1.1595   0.8784   0.00    0.0
2022/05/29 13:52:29.421    8.851992922    7.742175287   411.3870   5  32   1.7602   1.7789   4.2556   0.3633  -1.1709   0.9256   0.00    0.0
2022/05/29 13:52:30.421    8.851969736    7.742172938   413.3601   5  30   1.7596   1.9314   4.5788   0.3511  -1.5527   1.1310   0.00    0.0
2022/05/29 13:52:31.421    8.852010266    7.742112751   427.0039   5  29   1.9493   1.8479   4.7867  -0.3202  -1.5485   1.5290   0.00    0.0
2022/05/29 13:52:32.421    8.851976706    7.742180437   411.5562   5  30   1.7610   1.9146   4.7226   0.1065  -1.6182   1.2451   0.00    0.0
2022/05/29 13:52:33.421    8.852012525    7.742211664   390.1227   5  31   1.7572   1.8431   4.4622   0.2667  -1.3479   1.1711   0.00    0.0
2022/05/29 13:52:34.421    8.851964112    7.742156047   401.3121   5  31   1.7037   1.8996   4.5786   0.4914  -1.5721   0.8423   0.00    0.0
2022/05/29 13:52:35.421    8.852000381    7.742180774   384.1278   5  29   1.8693   1.9088   4.6912  -0.1913  -1.5673   1.3509   0.00    0.0
2022/05/29 13:52:36.421    8.852000081    7.742151451   387.2103   5  34   1.6345   1.7730   4.2475   0.4390  -1.1588   0.9329   0.00    0.0
2022/05/29 13:52:37.421    8.852000946    7.742163377   391.7178   5  32   1.7225   1.7989   4.3430   0.5539  -1.0377   1.1354   0.00    0.0
2022/05/29 13:52:38.421    8.852033582    7.742149389   386.8136   5  32   1.8162   1.7490   4.3360   0.2477  -1.0838   1.3133   0.00    0.0
2022/05/29 13:52:39.421    8.852029171    7.742161652   387.9668   5  33   1.7479   1.7427   4.3253   0.3667  -1.0626   1.2544   0.00    0.0
2022/05/29 13:52:40.421    8.851979917    7.742142396   408.4665   5  33   1.7479   1.7427   4.3255   0.3665  -1.0626   1.2543   0.00    0.0
2022/05/29 13:52:41.421    8.851994402    7.742182865   401.3013   5  30   1.9121   1.7791   4.3817   0.3414  -1.1733   1.2480   0.00    0.0
2022/05/29 13:52:42.421    8.851991533    7.742129598   400.1490   5  31   1.8181   1.7996   4.4867   0.5787  -1.0107   1.3936   0.00    0.0
2022/05/29 13:52:43.421    8.851958523    7.742138740   396.2197   5  30   1.9923   1.7732   4.4634   0.4735  -0.9312   1.5194   0.00    0.0
2022/05/29 13:52:44.421    8.851983788    7.742182897   400.6379   5  32   1.7562   1.7732   4.3708   0.4362  -1.1548   1.2104   0.00    0.0
2022/05/29 13:52:45.421    8.851954396    7.742149402   400.8859   5  31   1.9054   1.7686   4.4478   0.5462  -0.9050   1.4454   0.00    0.0
2022/05/29 13:52:46.421    8.852033313    7.742151444   402.0909   5  33   1.7575   1.7489   4.3343   0.2362  -1.0850   1.2830   0.00    0.0
2022/05/29 13:52:47.421    8.852033367    7.742178700   401.0791   5  31   1.8632   1.7978   4.4644   0.6130  -0.9854   1.3591   0.00    0.0
2022/05/29 13:52:48.421    8.852012626    7.742195001   401.6583   5  30   1.9921   1.7732   4.4643   0.4725  -0.9315   1.5196   0.00    0.0
2022/05/29 13:52:49.421    8.852153649    7.742194417   407.0924   5  34   1.6953   1.7424   4.3246   0.3531  -1.0643   1.2279   0.00    0.0
2022/05/29 13:52:50.421    8.852015369    7.742153723   399.7504   5  32   1.8082   1.7680   4.4480   0.5213  -0.9067   1.4316   0.00    0.0
2022/05/29 13:52:51.421    8.852056670    7.742174757   390.9583   5  32   1.8081   1.7680   4.4481   0.5212  -0.9068   1.4315   0.00    0.0
2022/05/29 13:52:52.421    8.852002106    7.742186807   381.6558   5  31   1.8580   1.8005   4.4792   0.6069  -1.0101   1.3523   0.00    0.0
2022/05/29 13:52:53.421    8.851972512    7.742153674   392.4055   5  31   1.9050   1.7685   4.4489   0.5449  -0.9053   1.4450   0.00    0.0
2022/05/29 13:52:54.421    8.851969075    7.742143738   396.2873   5  32   1.8228   1.7425   4.3292   0.3598  -1.0629   1.2331   0.00    0.0
2022/05/29 13:52:55.421    8.851990460    7.742193051   397.2636   5  33   1.7324   1.7424   4.2109   0.3509  -1.0681   0.9748   0.00    0.0
2022/05/29 13:52:56.421    8.852049795    7.742176005   402.8088   5  34   1.6951   1.7423   4.3260   0.3515  -1.0645   1.2279   0.00    0.0
2022/05/29 13:52:57.421    8.851957199    7.742129363   397.5460   5  32   1.8227   1.7424   4.3298   0.3590  -1.0630   1.2331   0.00    0.0
2022/05/29 13:52:58.421    8.851977334    7.742171118   402.0030   5  32   1.7990   1.7489   4.2167   0.2227  -1.0829   1.0261   0.00    0.0
2022/05/29 13:52:59.421    8.851986456    7.742133591   402.1284   5  33   1.7323   1.7424   4.2115   0.3500  -1.0681   0.9746   0.00    0.0
2022/05/29 13:53:00.421    8.852005376    7.742160951   400.3727   5  34   1.6647   1.7424   4.2083   0.3539  -1.0686   1.0152   0.00    0.0
2022/05/29 13:53:01.421    8.851985620    7.742159053   411.5394   5  33   1.7322   1.7423   4.2118   0.3496  -1.0681   0.9746   0.00    0.0
2022/05/29 13:53:02.421    8.852036148    7.742165676   403.5853   5  34   1.6646   1.7423   4.2086   0.3536  -1.0686   1.0150   0.00    0.0
2022/05/29 13:53:03.421    8.852004219    7.742173678   402.5827   5  34   1.6646   1.7423   4.2088   0.3534  -1.0686   1.0149   0.00    0.0
2022/05/29 13:53:04.421    8.851990930    7.742184156   405.8638   5  32   1.7423   1.7729   4.2597   0.4283  -1.1615   0.9113   0.00    0.0
2022/05/29 13:53:05.421    8.852022885    7.742141452   397.2559   5  32   1.7550   1.7730   4.3749   0.4319  -1.1558   1.2087   0.00    0.0
2022/05/29 13:53:06.421    8.852004864    7.742186944   394.9094   5  32   1.8224   1.7423   4.3314   0.3566  -1.0633   1.2330   0.00    0.0
2022/05/29 13:53:07.421    8.852005249    7.742154581   400.8968   5  33   1.7320   1.7423   4.2127   0.3482  -1.0681   0.9744   0.00    0.0
2022/05/29 13:53:08.421    8.851965220    7.742134442   419.5827   5  34   1.6644   1.7422   4.2096   0.3525  -1.0686   1.0143   0.00    0.0
2022/05/29 13:53:09.421    8.852001862    7.742172285   414.6988   5  33   1.7320   1.7422   4.2130   0.3478  -1.0681   0.9743   0.00    0.0
2022/05/29 13:53:10.421    8.851991843    7.742169094   408.1892   5  33   1.7115   1.7674   4.3049   0.4925  -0.9354   1.1778   0.00    0.0
2022/05/29 13:53:11.421    8.852009378    7.742161671   416.3022   5  35   1.6188   1.7421   4.2095   0.3416  -1.0693   1.0006   0.00    0.0
2022/05/29 13:53:12.421    8.851996434    7.742164274   425.6260   5  32   1.7581   1.7997   4.3438   0.5772  -1.0394   1.0807   0.00    0.0
2022/05/29 13:53:13.421    8.851998689    7.742163140   401.2949   5  33   1.7462   1.7422   4.3317   0.3592  -1.0638   1.2515   0.00    0.0
2022/05/29 13:53:14.421    8.851984515    7.742158311   397.9847   5  34   1.6641   1.7422   4.2106   0.3514  -1.0687   1.0137   0.00    0.0
2022/05/29 13:53:15.421    8.851971988    7.742145865   397.1987   5  33   1.7461   1.7422   4.3321   0.3587  -1.0639   1.2513   0.00    0.0
2022/05/29 13:53:16.421    8.852008824    7.742169420   403.1419   5  34   1.6331   1.7727   4.2549   0.4326  -1.1597   0.9315   0.00    0.0
2022/05/29 13:53:17.421    8.851976794    7.742164102   405.1651   5  35   1.6187   1.7420   4.2105   0.3405  -1.0693   1.0004   0.00    0.0
2022/05/29 13:53:18.421    8.851952656    7.742183663   394.5005   5  34   1.6942   1.7420   4.3305   0.3465  -1.0652   1.2275   0.00    0.0
2022/05/29 13:53:19.421    8.851971489    7.742155288   409.2177   5  35   1.6186   1.7420   4.2109   0.3401  -1.0693   1.0003   0.00    0.0
2022/05/29 13:53:20.421    8.851973380    7.742165280   390.7028   5  33   1.7087   1.7727   4.3725   0.4392  -1.1544   1.1716   0.00    0.0
2022/05/29 13:53:21.421    8.851976239    7.742160799   400.7593   5  33   1.6778   1.7990   4.3445   0.5520  -1.0378   1.0972   0.00    0.0
2022/05/29 13:53:22.421    8.851961138    7.742173892   401.8911   5  33   1.7086   1.7727   4.3730   0.4388  -1.1545   1.1715   0.00    0.0
2022/05/29 13:53:23.421    8.851941473    7.742152104   408.3646   5  34   1.6621   1.7670   4.3050   0.4768  -0.9375   1.1565   0.00    0.0
2022/05/29 13:53:24.421    8.852028010    7.742168253   413.3047   5  34   1.6329   1.7726   4.2564   0.4313  -1.1599   0.9312   0.00    0.0
2022/05/29 13:53:25.421    8.852060192    7.742205018   403.0420   5  35   1.6184   1.7419   4.2119   0.3390  -1.0693   1.0000   0.00    0.0
2022/05/29 13:53:26.421    8.852028471    7.742170307   395.7241   5  33   1.7084   1.7726   4.3738   0.4380  -1.1546   1.1715   0.00    0.0
2022/05/29 13:53:27.421    8.852017656    7.742148047   403.1782   5  33   1.7084   1.7726   4.3740   0.4378  -1.1547   1.1715   0.00    0.0
2022/05/29 13:53:28.421    8.852050994    7.742180523   399.5995   5  32   1.7653   1.7996   4.4852   0.5741  -1.0126   1.3465   0.00    0.0
2022/05/29 13:53:29.421    8.852023314    7.742205209   405.9379   5  33   1.7083   1.7726   4.3745   0.4374  -1.1548   1.1714   0.00    0.0
2022/05/29 13:53:30.421    8.852026513    7.742196111   416.4188   5  34   1.6938   1.7419   4.3329   0.3438  -1.0656   1.2273   0.00    0.0
2022/05/29 13:53:31.421    8.851995588    7.742183482   414.9402   5  33   1.7082   1.7726   4.3749   0.4370  -1.1549   1.1714   0.00    0.0
2022/05/29 13:53:32.421    8.852006407    7.742168149   421.9445   5  34   1.6326   1.7725   4.2579   0.4300  -1.1600   0.9309   0.00    0.0
2022/05/29 13:53:33.421    8.851972743    7.742169554   415.4131   5  34   1.6325   1.7725   4.2580   0.4299  -1.1601   0.9309   0.00    0.0
2022/05/29 13:53:34.421    8.851998103    7.742181068   425.4611   5  34   1.6325   1.7725   4.2582   0.4297  -1.1601   0.9308   0.00    0.0
2022/05/29 13:53:35.421    8.851939072    7.742168668   410.2924   5  34   1.6617   1.7670   4.3065   0.4754  -0.9375   1.1556   0.00    0.0
2022/05/29 13:53:36.421    8.851961657    7.742125160   406.6567   5  33   1.6772   1.7990   4.3466   0.5504  -1.0382   1.0961   0.00    0.0
2022/05/29 13:53:37.421    8.851967167    7.742167688   413.8015   5  33   1.6772   1.7990   4.3468   0.5502  -1.0382   1.0960   0.00    0.0
2022/05/29 13:53:38.421    8.851974238    7.742140508   411.7229   5  33   1.6771   1.7991   4.3469   0.5501  -1.0382   1.0959   0.00    0.0
2022/05/29 13:53:39.421    8.852045389    7.742214433   401.8141   5  32   1.7053   1.8427   4.3914   0.6525  -1.1515   1.0043   0.00    0.0
2022/05/29 13:53:40.421    8.851988011    7.742202359   403.0439   5  32   1.7646   1.7997   4.4872   0.5725  -1.0133   1.3459   0.00    0.0
2022/05/29 13:53:41.421    8.851998089    7.742161358   400.3116   5  32   1.7646   1.7997   4.4874   0.5724  -1.0133   1.3458   0.00    0.0
2022/05/29 13:53:42.421    8.852051980    7.742177788   391.3346   5  32   1.7645   1.7997   4.4876   0.5722  -1.0134   1.3457   0.00    0.0
2022/05/29 13:53:43.421    8.852040484    7.742188329   395.6381   5  33   1.6769   1.7991   4.3476   0.5496  -1.0384   1.0955   0.00    0.0
2022/05/29 13:53:44.421    8.852003931    7.742186569   403.8716   5  32   1.7644   1.7997   4.4879   0.5720  -1.0135   1.3456   0.00    0.0
2022/05/29 13:53:45.421    8.852014878    7.742135349   410.6649   5  32   1.7644   1.7997   4.4881   0.5718  -1.0135   1.3456   0.00    0.0
2022/05/29 13:53:46.421    8.852053153    7.742150290   412.4031   5  32   1.7643   1.7997   4.4882   0.5717  -1.0136   1.3455   0.00    0.0
2022/05/29 13:53:47.421    8.852023304    7.742166182   415.6940   5  34   1.6320   1.7724   4.2606   0.4276  -1.1603   0.9303   0.00    0.0
2022/05/29 13:53:48.421    8.851994042    7.742142140   415.7761   5  34   1.6320   1.7724   4.2608   0.4274  -1.1604   0.9302   0.00    0.0
2022/05/29 13:53:49.421    8.851997722    7.742171235   424.1009   5  33   1.6965   1.7724   4.2649   0.4301  -1.1608   0.8835   0.00    0.0
2022/05/29 13:53:50.421    8.852074643    7.742189523   419.6208   5  33   1.6577   1.8135   4.3125   0.5424  -1.2654   0.8197   0.00    0.0
2022/05/29 13:53:51.421    8.852014869    7.742186619   396.4120   5  32   1.7570   1.7998   4.3491   0.5725  -1.0399   1.0814   0.00    0.0
2022/05/29 13:53:52.421    8.852041645    7.742176822   418.3511   5  34   1.6319   1.7724   4.2615   0.4268  -1.1605   0.9301   0.00    0.0
2022/05/29 13:53:53.421    8.851990360    7.742183718   401.6377   5  33   1.6964   1.7724   4.2655   0.4293  -1.1609   0.8837   0.00    0.0
2022/05/29 13:53:54.421    8.851937188    7.742171390   396.8470   5  32   1.7569   1.7998   4.3495   0.5721  -1.0399   1.0815   0.00    0.0
2022/05/29 13:53:55.421    8.852030661    7.742159635   403.6522   5  33   1.6963   1.7723   4.2659   0.4289  -1.1609   0.8838   0.00    0.0
2022/05/29 13:53:56.421    8.851976380    7.742160177   411.7801   5  33   1.6963   1.7723   4.2660   0.4288  -1.1609   0.8839   0.00    0.0
2022/05/29 13:53:57.421    8.852070827    7.742184234   399.0606   5  34   1.6317   1.7723   4.2624   0.4260  -1.1606   0.9298   0.00    0.0
2022/05/29 13:53:58.421    8.852005193    7.742147049   422.0907   5  34   1.6317   1.7723   4.2626   0.4258  -1.1606   0.9298   0.00    0.0
2022/05/29 13:53:59.421    8.852045829    7.742165544   407.9409   5  33   1.6763   1.7991   4.3499   0.5479  -1.0387   1.0943   0.00    0.0
2022/05/29 13:54:00.421    8.852049161    7.742147771   402.3597   5  33   1.6573   1.8133   4.3147   0.5408  -1.2659   0.8189   0.00    0.0
2022/05/29 13:54:01.421    8.851995475    7.742189245   386.3342   5  33   1.6962   1.7723   4.2668   0.4278  -1.1610   0.8842   0.00    0.0
2022/05/29 13:54:02.421    8.852025127    7.742202119   386.8115   5  33   1.6961   1.7723   4.2670   0.4276  -1.1610   0.8842   0.00    0.0
2022/05/29 13:54:03.421    8.852006939    7.742198766   391.3712   5  33   1.6961   1.7723   4.2672   0.4274  -1.1610   0.8843   0.00    0.0
2022/05/29 13:54:04.421    8.852008564    7.742217057   377.9610   5  32   1.7402   1.7724   4.2690   0.4164  -1.1622   0.9101   0.00    0.0
2022/05/29 13:54:05.421    8.851962840    7.742175195   398.4919   5  33   1.6961   1.7723   4.2675   0.4270  -1.1611   0.8844   0.00    0.0
2022/05/29 13:54:06.421    8.851970550    7.742170455   393.6925   5  32   1.7401   1.7724   4.2693   0.4160  -1.1623   0.9100   0.00    0.0
2022/05/29 13:54:07.421    8.852001505    7.742175206   404.9243   5  32   1.7401   1.7724   4.2694   0.4158  -1.1623   0.9100   0.00    0.0
2022/05/29 13:54:08.421    8.851948790    7.742159559   402.7188   5  33   1.6960   1.7722   4.2680   0.4264  -1.1611   0.8846   0.00    0.0
2022/05/29 13:54:09.421    8.852005409    7.742198045   401.0783   5  32   1.7400   1.7724   4.2697   0.4154  -1.1623   0.9100   0.00    0.0
2022/05/29 13:54:10.421    8.851975724    7.742177810   398.5242   5  32   1.7784   1.7722   4.3843   0.4320  -1.1570   1.1485   0.00    0.0
2022/05/29 13:54:11.421    8.851929836    7.742173490   406.3581   5  32   1.7784   1.7722   4.3845   0.4318  -1.1570   1.1486   0.00    0.0
2022/05/29 13:54:12.421    8.851985134    7.742197889   402.9232   5  32   1.7784   1.7722   4.3847   0.4316  -1.1571   1.1487   0.00    0.0
2022/05/29 13:54:13.421    8.851989480    7.742176942   386.3596   5  32   1.7783   1.7722   4.3849   0.4313  -1.1571   1.1487   0.00    0.0
2022/05/29 13:54:14.421    8.851928288    7.742150977   391.9533   5  32   1.7783   1.7722   4.3851   0.4311  -1.1572   1.1488   0.00    0.0
2022/05/29 13:54:15.421    8.851966149    7.742154856   407.1760   5  32   1.7783   1.7722   4.3853   0.4309  -1.1572   1.1489   0.00    0.0
2022/05/29 13:54:16.421    8.851999879    7.742155524   410.6798   5  32   1.7782   1.7722   4.3855   0.4306  -1.1573   1.1489   0.00    0.0
2022/05/29 13:54:17.421    8.852009098    7.742144838   416.0366   5  33   1.6957   1.7722   4.2695   0.4247  -1.1612   0.8851   0.00    0.0
2022/05/29 13:54:18.421    8.852009968    7.742141689   414.5455   5  32   1.7782   1.7722   4.3859   0.4302  -1.1574   1.1491   0.00    0.0
2022/05/29 13:54:19.421    8.851976259    7.742147292   419.9818   5  33   1.6957   1.7721   4.2698   0.4243  -1.1613   0.8852   0.00    0.0
2022/05/29 13:54:20.421    8.851983090    7.742152554   430.0388   5  33   1.6956   1.7721   4.2699   0.4241  -1.1613   0.8852   0.00    0.0
2022/05/29 13:54:21.421    8.852005526    7.742176953   418.7740   5  33   1.6956   1.7721   4.2701   0.4239  -1.1613   0.8853   0.00    0.0
2022/05/29 13:54:22.421    8.851975031    7.742167760   411.6589   5  33   1.6956   1.7721   4.2703   0.4237  -1.1613   0.8854   0.00    0.0
2022/05/29 13:54:23.421    8.851961883    7.742153741   410.2626   5  32   1.7561   1.7999   4.3534   0.5686  -1.0403   1.0819   0.00    0.0
2022/05/29 13:54:24.421    8.851969190    7.742168863   407.5666   5  32   1.7560   1.7999   4.3535   0.5685  -1.0403   1.0819   0.00    0.0
2022/05/29 13:54:25.421    8.852014501    7.742175048   402.7744   5  32   1.7560   1.7999   4.3536   0.5684  -1.0403   1.0819   0.00    0.0
2022/05/29 13:54:26.421    8.851986359    7.742145832   390.6700   5  32   1.7560   1.7999   4.3538   0.5683  -1.0403   1.0819   0.00    0.0
2022/05/29 13:54:27.421    8.851968172    7.742142777   383.1072   5  31   1.8324   1.7999   4.4178   0.5659  -1.0421   1.2500   0.00    0.0
2022/05/29 13:54:28.421    8.852124221    7.742193253   380.9555   5  33   1.6752   1.7992   4.3539   0.5447  -1.0394   1.0919   0.00    0.0
2022/05/29 13:54:29.421    8.851994733    7.742169837   395.5168   5  31   1.8324   1.7999   4.4180   0.5656  -1.0422   1.2500   0.00    0.0
2022/05/29 13:54:30.421    8.851984569    7.742174415   395.1896   5  31   1.8323   1.7999   4.4180   0.5655  -1.0422   1.2499   0.00    0.0
2022/05/29 13:54:31.421    8.851985553    7.742184330   412.5180   5  31   1.8323   1.7999   4.4181   0.5654  -1.0422   1.2499   0.00    0.0
2022/05/29 13:54:32.421    8.852042228    7.742160926   414.5468   5  33   1.6953   1.7720   4.2719   0.4218  -1.1615   0.8859   0.00    0.0
2022/05/29 13:54:33.421    8.852002822    7.742199477   417.4054   5  32   1.7614   1.7724   4.3233   0.4013  -1.1714   1.0499   0.00    0.0
2022/05/29 13:54:34.421    8.851974813    7.742153333   419.8354   5  31   1.8041   1.7999   4.3576   0.5652  -1.0409   1.1114   0.00    0.0
2022/05/29 13:54:35.421    8.851979352    7.742188820   408.7013   5  33   1.6952   1.7720   4.2724   0.4212  -1.1615   0.8860   0.00    0.0
2022/05/29 13:54:36.421    8.852011814    7.742179606   415.9741   5  33   1.6952   1.7720   4.2725   0.4210  -1.1615   0.8861   0.00    0.0
2022/05/29 13:54:37.421    8.852012773    7.742146109   426.3890   5  32   1.7613   1.7723   4.3239   0.4005  -1.1715   1.0499   0.00    0.0
2022/05/29 13:54:38.421    8.852012746    7.742183843   422.2249   5  32   1.7390   1.7721   4.2742   0.4096  -1.1626   0.9092   0.00    0.0
2022/05/29 13:54:39.421    8.852041329    7.742190724   413.1511   5  31   1.8107   1.7725   4.3267   0.3862  -1.1732   1.0794   0.00    0.0
2022/05/29 13:54:40.421    8.852048585    7.742200114   407.6932   5  33   1.6951   1.7720   4.2732   0.4203  -1.1616   0.8863   0.00    0.0
2022/05/29 13:54:41.421    8.852017550    7.742190966   414.9088   5  32   1.7555   1.7999   4.3558   0.5665  -1.0406   1.0820   0.00    0.0
2022/05/29 13:54:42.421    8.851997627    7.742171359   420.6330   5  33   1.6950   1.7720   4.2735   0.4199  -1.1616   0.8864   0.00    0.0
2022/05/29 13:54:43.421    8.852022649    7.742176302   438.7465   5  33   1.6950   1.7720   4.2737   0.4197  -1.1616   0.8865   0.00    0.0
2022/05/29 13:54:44.421    8.852016067    7.742143312   437.1354   5  33   1.6950   1.7719   4.2738   0.4195  -1.1617   0.8865   0.00    0.0
2022/05/29 13:54:45.421    8.852015326    7.742153933   433.1592   5  33   1.6950   1.7719   4.2740   0.4193  -1.1617   0.8866   0.00    0.0
2022/05/29 13:54:46.421    8.852023710    7.742133145   423.6415   5  32   1.7554   1.8000   4.3564   0.5659  -1.0406   1.0821   0.00    0.0
2022/05/29 13:54:47.421    8.851984822    7.742128481   431.2279   5  33   1.6949   1.7719   4.2743   0.4189  -1.1617   0.8867   0.00    0.0
2022/05/29 13:54:48.421    8.851973993    7.742110823   428.1363   5  32   1.7553   1.8000   4.3567   0.5656  -1.0406   1.0821   0.00    0.0
2022/05/29 13:54:49.421    8.852012885    7.742153727   407.7626   5  32   1.7553   1.8000   4.3568   0.5655  -1.0407   1.0821   0.00    0.0
2022/05/29 13:54:50.421    8.852013364    7.742157618   412.8991   5  33   1.6948   1.7719   4.2748   0.4183  -1.1618   0.8868   0.00    0.0
2022/05/29 13:54:51.421    8.852049373    7.742187547   396.9328   5  31   1.7883   1.8437   4.4048   0.6754  -1.1580   0.9745   0.00    0.0
2022/05/29 13:54:52.421    8.852053943    7.742187221   394.4773   5  31   1.7993   1.8492   4.8968   0.6980  -1.4249   0.5350   0.00    0.0
2022/05/29 13:54:53.421    8.852037708    7.742177838   409.8087   5  31   1.7610   1.8462   4.4126   0.5994  -1.1698   1.0540   0.00    0.0
2022/05/29 13:54:54.421    8.852035834    7.742175824   397.5513   5  32   1.7020   1.8421   4.4047   0.6440  -1.1558   0.9949   0.00    0.0
2022/05/29 13:54:55.421    8.852007583    7.742171688   387.2595   5  32   1.7020   1.8421   4.4048   0.6439  -1.1558   0.9948   0.00    0.0
2022/05/29 13:54:56.421    8.851984113    7.742153682   398.4757   5  31   1.7609   1.8462   4.4132   0.5990  -1.1701   1.0538   0.00    0.0
2022/05/29 13:54:57.421    8.852030384    7.742178691   388.8932   5  31   1.7241   1.8969   4.9441   0.7342  -1.5336   0.6084   0.00    0.0
2022/05/29 13:54:58.421    8.851974745    7.742129007   404.2554   5  33   1.6740   1.7994   4.3579   0.5414  -1.0401   1.0893   0.00    0.0
2022/05/29 13:54:59.421    8.851990489    7.742159659   404.4885   5  32   1.7018   1.8421   4.4055   0.6434  -1.1560   0.9943   0.00    0.0
2022/05/29 13:55:00.421    8.851979767    7.742132900   402.2924   5  33   1.6739   1.7994   4.3582   0.5412  -1.0402   1.0892   0.00    0.0
2022/05/29 13:55:01.421    8.851985231    7.742164571   400.3378   5  30   1.8464   1.9095   5.0048   0.8268  -1.5881  -0.3801   0.00    0.0
2022/05/29 13:55:02.421    8.851963474    7.742127828   399.5371   5  32   1.6717   1.8597   4.9080   0.6173  -1.6052   0.3381   0.00    0.0
2022/05/29 13:55:03.421    8.852009390    7.742190609   409.6386   5  32   1.6717   1.8596   4.9082   0.6173  -1.6052   0.3374   0.00    0.0
2022/05/29 13:55:04.421    8.851974380    7.742195957   403.0720   5  32   1.6716   1.8596   4.9083   0.6172  -1.6052   0.3367   0.00    0.0
2022/05/29 13:55:05.421    8.851979689    7.742205019   413.0026   5  31   1.7273   1.8644   4.9127   0.5678  -1.6138   0.4496   0.00    0.0
2022/05/29 13:55:06.421    8.851960251    7.742173474   407.5530   5  32   1.6716   1.8596   4.9086   0.6170  -1.6052   0.3353   0.00    0.0
2022/05/29 13:55:07.421    8.852015944    7.742178118   406.5914   5  31   1.7273   1.8644   4.9130   0.5676  -1.6138   0.4489   0.00    0.0
2022/05/29 13:55:08.421    8.852031792    7.742186499   401.8184   5  31   1.7272   1.8644   4.9132   0.5675  -1.6139   0.4485   0.00    0.0
2022/05/29 13:55:09.421    8.852013183    7.742218522   395.4862   5  33   1.6448   1.8021   4.7893   0.4937  -1.4433   0.6575   0.00    0.0
2022/05/29 13:55:10.421    8.852041585    7.742215005   402.1361   5  32   1.6715   1.8595   4.9091   0.6167  -1.6053   0.3325   0.00    0.0
2022/05/29 13:55:11.421    8.852098383    7.742200950   400.4739   5  33   1.6785   1.7764   4.7331   0.3033  -1.3632   0.8576   0.00    0.0
2022/05/29 13:55:12.421    8.852029333    7.742166533   396.0677   5  33   1.6409   1.8083   4.8074   0.4921  -1.4649   0.6533   0.00    0.0
2022/05/29 13:55:13.421    8.852044255    7.742148521   408.9647   5  33   1.6447   1.8020   4.7897   0.4933  -1.4432   0.6561   0.00    0.0
2022/05/29 13:55:14.421    8.852045481    7.742212891   389.5863   5  32   1.6715   1.8594   4.9097   0.6163  -1.6053   0.3297   0.00    0.0
2022/05/29 13:55:15.421    8.852033781    7.742215995   396.4195   5  33   1.6447   1.8020   4.7899   0.4931  -1.4431   0.6554   0.00    0.0
2022/05/29 13:55:16.421    8.852013461    7.742185626   396.0869   5  33   1.6408   1.8083   4.8077   0.4917  -1.4648   0.6522   0.00    0.0
2022/05/29 13:55:17.421    8.851991419    7.742162896   410.0370   5  33   1.6447   1.8019   4.7901   0.4929  -1.4431   0.6548   0.00    0.0
2022/05/29 13:55:18.421    8.851953371    7.742142863   412.9990   5  33   1.6407   1.8083   4.8078   0.4915  -1.4647   0.6517   0.00    0.0
2022/05/29 13:55:19.421    8.851972055    7.742209134   403.6123   5  33   1.6446   1.8019   4.7903   0.4927  -1.4430   0.6541   0.00    0.0
2022/05/29 13:55:20.421    8.851967723    7.742181239   398.7856   5  32   1.6952   1.8141   4.8138   0.4232  -1.4764   0.7243   0.00    0.0
2022/05/29 13:55:21.421    8.851957299    7.742174931   395.8051   5  32   1.6936   1.8355   4.8346   0.6198  -1.3617   0.8310   0.00    0.0
2022/05/29 13:55:22.421    8.851951353    7.742149361   394.7849   5  32   1.6713   1.8592   4.9108   0.6156  -1.6053   0.3241   0.00    0.0
2022/05/29 13:55:23.421    8.851955858    7.742177832   386.7185   5  32   1.6995   1.8076   4.7964   0.4248  -1.4546   0.7254   0.00    0.0
2022/05/29 13:55:24.421    8.851930670    7.742192391   390.8695   5  32   1.6713   1.8592   4.9110   0.6154  -1.6053   0.3227   0.00    0.0
2022/05/29 13:55:25.421    8.851913401    7.742130550   399.3701   5  33   1.6406   1.8082   4.8083   0.4908  -1.4646   0.6498   0.00    0.0
2022/05/29 13:55:26.421    8.852007780    7.742238367   391.5258   5  32   1.6995   1.8075   4.7968   0.4244  -1.4546   0.7247   0.00    0.0
2022/05/29 13:55:27.421    8.851976000    7.742168965   410.7039   5  32   1.6951   1.8141   4.8144   0.4223  -1.4764   0.7233   0.00    0.0
2022/05/29 13:55:28.421    8.851994032    7.742218550   394.8879   5  32   1.6712   1.8591   4.9116   0.6151  -1.6054   0.3198   0.00    0.0
2022/05/29 13:55:29.421    8.851985335    7.742181834   398.0406   5  31   1.7268   1.8640   4.9163   0.5651  -1.6143   0.4411   0.00    0.0
2022/05/29 13:55:30.421    8.852005760    7.742193674   395.0567   5  31   1.7268   1.8639   4.9165   0.5650  -1.6143   0.4408   0.00    0.0
2022/05/29 13:55:31.421    8.852026484    7.742223028   395.8758   5  33   1.6445   1.8016   4.7915   0.4916  -1.4428   0.6499   0.00    0.0
2022/05/29 13:55:32.421    8.852037411    7.742193156   389.8314   5  31   1.7268   1.8639   4.9168   0.5648  -1.6144   0.4400   0.00    0.0
2022/05/29 13:55:33.421    8.852077655    7.742224012   392.2236   5  32   1.6994   1.8073   4.7976   0.4235  -1.4546   0.7232   0.00    0.0
2022/05/29 13:55:34.421    8.852044077    7.742191405   389.5501   5  31   1.7267   1.8639   4.9171   0.5646  -1.6144   0.4393   0.00    0.0
2022/05/29 13:55:35.421    8.852061752    7.742224683   391.7109   5  33   1.6444   1.8015   4.7919   0.4912  -1.4427   0.6485   0.00    0.0
2022/05/29 13:55:36.421    8.851977796    7.742185698   400.3550   5  30   1.7598   1.8661   4.9218   0.5362  -1.6204   0.5133   0.00    0.0
2022/05/29 13:55:37.421    8.852064799    7.742213807   389.5915   5  30   1.7598   1.8660   4.9219   0.5361  -1.6204   0.5128   0.00    0.0
2022/05/29 13:55:38.421    8.852063833    7.742234401   405.4535   5  32   1.6993   1.8072   4.7982   0.4229  -1.4546   0.7221   0.00    0.0
2022/05/29 13:55:39.421    8.852069134    7.742220828   407.1651   5  32   1.6710   1.8588   4.9130   0.6141  -1.6054   0.3116   0.00    0.0
2022/05/29 13:55:40.421    8.852092032    7.742237972   389.8494   5  32   1.6993   1.8072   4.7984   0.4226  -1.4546   0.7216   0.00    0.0
2022/05/29 13:55:41.421    8.852082200    7.742246515   395.5326   5  33   1.6444   1.8013   4.7926   0.4906  -1.4426   0.6463   0.00    0.0
2022/05/29 13:55:42.421    8.852088034    7.742214629   396.6076   5  31   1.7266   1.8637   4.9182   0.5637  -1.6146   0.4364   0.00    0.0
2022/05/29 13:55:43.421    8.852058014    7.742225435   383.1628   5  31   1.7558   1.8580   4.8671   0.6822  -1.5707  -0.0271   0.00    0.0
2022/05/29 13:55:44.421    8.852028605    7.742212804   396.7253   5  31   1.7003   1.8606   4.9174   0.5920  -1.6104   0.3943   0.00    0.0
2022/05/29 13:55:45.421    8.852042799    7.742243370   393.6356   5  30   1.7828   1.9314   5.0170   0.7926  -1.7632  -0.6149   0.00    0.0
2022/05/29 13:55:46.421    8.852038506    7.742210140   401.1545   5  30   1.7596   1.8658   4.9230   0.5352  -1.6204   0.5085   0.00    0.0
2022/05/29 13:55:47.421    8.852037902    7.742254620   400.7565   5  31   1.7509   1.9304   5.0150   0.8056  -1.7605  -0.6561   0.00    0.0
2022/05/29 13:55:48.421    8.852055339    7.742210122   389.3975   5  32   1.6992   1.8070   4.7994   0.4216  -1.4545   0.7199   0.00    0.0
2022/05/29 13:55:49.421    8.851999923    7.742205904   391.4594   5  32   1.7210   1.8663   4.3838   0.7000  -1.3777   0.5938   0.00    0.0
2022/05/29 13:55:50.421    8.851965765    7.742157375   408.7861   5  33   1.6402   1.8079   4.8100   0.4885  -1.4638   0.6427   0.00    0.0
2022/05/29 13:55:51.421    8.851937636    7.742161045   408.2883   5  33   1.6848   1.8180   4.7898   0.5834  -1.4610   0.5233   0.00    0.0
2022/05/29 13:55:52.421    8.851946686    7.742183505   416.0986   5  31   1.7496   1.8757   4.8981   0.6192  -1.6138   0.3609   0.00    0.0
2022/05/29 13:55:53.421    8.851976670    7.742194906   407.4030   5  31   1.7519   1.8655   4.8866   0.6803  -1.5934  -0.0876   0.00    0.0
2022/05/29 13:55:54.421    8.851969745    7.742184208   405.9840   5  30   1.7972   1.8756   4.8983   0.6201  -1.6139   0.3561   0.00    0.0
2022/05/29 13:55:55.421    8.851989063    7.742183459   401.5563   5  31   1.7495   1.8756   4.8984   0.6189  -1.6139   0.3597   0.00    0.0
2022/05/29 13:55:56.421    8.852020042    7.742248974   391.1880   5  33   1.6847   1.8179   4.7902   0.5831  -1.4609   0.5212   0.00    0.0
2022/05/29 13:55:57.421    8.852029308    7.742230782   395.6331   5  31   1.7495   1.8756   4.8986   0.6188  -1.6139   0.3589   0.00    0.0
2022/05/29 13:55:58.421    8.852028776    7.742244514   402.4513   5  31   1.7495   1.8756   4.8987   0.6187  -1.6140   0.3585   0.00    0.0
2022/05/29 13:55:59.421    8.852014348    7.742203170   408.2842   5  33   1.6846   1.8179   4.7904   0.5828  -1.4608   0.5200   0.00    0.0
2022/05/29 13:56:00.421    8.851976278    7.742192132   404.4705   5  31   1.7494   1.8756   4.8990   0.6185  -1.6140   0.3578   0.00    0.0
2022/05/29 13:56:01.421    8.851945438    7.742185250   409.5579   5  30   1.8189   1.8806   4.9819   0.5607  -1.6518   0.7605   0.00    0.0
2022/05/29 13:56:02.421    8.852006212    7.742165123   407.3029   5  32   1.7293   1.8274   4.3317   0.5202  -1.2799   0.8559   0.00    0.0
2022/05/29 13:56:03.421    8.852002864    7.742190054   404.8503   5  31   1.8714   1.7944   4.3540   0.3362  -1.2194   1.1304   0.00    0.0
2022/05/29 13:56:04.421    8.852012570    7.742211901   406.7091   5  32   1.7292   1.8274   4.3321   0.5199  -1.2800   0.8558   0.00    0.0
2022/05/29 13:56:05.421    8.852038833    7.742223273   394.5012   5  31   1.8027   1.8312   4.4051   0.4587  -1.3160   1.0672   0.00    0.0
2022/05/29 13:56:06.421    8.852009382    7.742223936   409.0208   5  32   1.7291   1.8274   4.3325   0.5196  -1.2801   0.8558   0.00    0.0
2022/05/29 13:56:07.421    8.852004463    7.742202467   396.6595   5  32   1.7290   1.8274   4.3327   0.5194  -1.2802   0.8558   0.00    0.0
2022/05/29 13:56:08.421    8.851990534    7.742188059   396.4375   5  32   1.7290   1.8274   4.3329   0.5193  -1.2803   0.8558   0.00    0.0
2022/05/29 13:56:09.421    8.852018050    7.742208989   389.2299   5  33   1.7110   1.7904   4.2802   0.4224  -1.1799   0.9489   0.00    0.0
2022/05/29 13:56:10.421    8.851981779    7.742160776   393.3933   5  31   1.7818   1.8592   4.4093   0.6455  -1.1665   1.0408   0.00    0.0
2022/05/29 13:56:11.421    8.852025331    7.742189845   395.9237   5  31   1.8024   1.8312   4.4062   0.4576  -1.3165   1.0670   0.00    0.0
2022/05/29 13:56:12.421    8.852088479    7.742225219   402.5701   5  30   1.8187   1.8806   4.9826   0.5596  -1.6520   0.7575   0.00    0.0
2022/05/29 13:56:13.421    8.852006260    7.742157852   400.7594   5  32   1.7617   1.8201   4.3628   0.5617  -1.0571   1.1196   0.00    0.0
2022/05/29 13:56:14.421    8.851988245    7.742187154   387.8568   5  29   1.8874   1.9186   5.0247   0.7105  -1.5758   0.9487   0.00    0.0
2022/05/29 13:56:15.421    8.852017499    7.742199080   408.6341   5  32   1.7287   1.8274   4.3344   0.5182  -1.2808   0.8557   0.00    0.0
2022/05/29 13:56:16.421    8.852011353    7.742210095   395.5706   5  29   1.9536   1.9287   4.9858   0.8517  -1.5949  -0.3778   0.00    0.0
2022/05/29 13:56:17.421    8.852044825    7.742223447   399.6227   5  32   1.7802   1.8214   4.8498   0.6363  -1.4898  -0.4110   0.00    0.0
2022/05/29 13:56:18.421    8.852032939    7.742179530   400.6623   5  31   1.8086   1.8275   4.3375   0.5266  -1.2820   0.8085   0.00    0.0
2022/05/29 13:56:19.421    8.851984764    7.742169177   398.2241   5  30   1.8824   1.8607   4.4108   0.6782  -1.1678   1.0351   0.00    0.0
2022/05/29 13:56:20.421    8.851961938    7.742166730   390.1115   5  30   1.8824   1.8607   4.4110   0.6781  -1.1678   1.0351   0.00    0.0
2022/05/29 13:56:21.421    8.852026500    7.742192475   403.4297   5  31   1.8085   1.8275   4.3381   0.5261  -1.2822   0.8088   0.00    0.0
2022/05/29 13:56:22.421    8.852015818    7.742196593   403.3252   5  30   1.8918   1.8312   4.4090   0.4602  -1.3175   1.0445   0.00    0.0
2022/05/29 13:56:23.421    8.852051189    7.742249479   394.9089   5  30   1.8918   1.8312   4.4092   0.4599  -1.3176   1.0446   0.00    0.0
2022/05/29 13:56:24.421    8.852012891    7.742229099   399.2801   5  31   1.8084   1.8275   4.3387   0.5255  -1.2824   0.8092   0.00    0.0
2022/05/29 13:56:25.421    8.852016926    7.742194196   401.5879   5  30   1.8917   1.8312   4.4095   0.4594  -1.3177   1.0448   0.00    0.0
2022/05/29 13:56:26.421    8.852016142    7.742207472   407.0622   5  30   1.8916   1.8312   4.4097   0.4592  -1.3178   1.0448   0.00    0.0
2022/05/29 13:56:27.421    8.852011366    7.742182064   413.3085   5  32   1.7686   1.7791   4.3586   0.2395  -1.2030   1.1687   0.00    0.0
2022/05/29 13:56:28.421    8.852101273    7.742150422   422.7552   5  31   1.8082   1.8275   4.3395   0.5247  -1.2826   0.8097   0.00    0.0
2022/05/29 13:56:29.421    8.851935996    7.742126621   406.9016   5  29   1.9789   1.8626   4.4977   0.6390  -1.1985   1.2671   0.00    0.0
2022/05/29 13:56:30.421    8.851971071    7.742177979   408.0900   5  29   1.9789   1.8626   4.4978   0.6388  -1.1986   1.2671   0.00    0.0
2022/05/29 13:56:31.421    8.851995887    7.742166987   397.4028   5  28   2.0461   1.9307   5.0636   0.8200  -1.6182   0.6288   0.00    0.0
2022/05/29 13:56:32.421    8.852043946    7.742185062   396.4405   5  30   1.8592   1.8807   4.9685   0.6833  -1.6492  -0.6250   0.00    0.0
2022/05/29 13:56:33.421    8.852005008    7.742185379   385.5683   5  28   2.0461   1.9307   5.0634   0.8198  -1.6181   0.6285   0.00    0.0
2022/05/29 13:56:34.421    8.852046593    7.742230885   396.8009   5  28   2.0461   1.9307   5.0634   0.8198  -1.6181   0.6284   0.00    0.0
2022/05/29 13:56:35.421    8.851962558    7.742150550   393.0217   5  29   1.9787   1.8627   4.4985   0.6381  -1.1990   1.2672   0.00    0.0
2022/05/29 13:56:36.421    8.851975891    7.742152811   388.9833   5  29   1.9786   1.8627   4.4987   0.6379  -1.1990   1.2672   0.00    0.0
2022/05/29 13:56:37.421    8.851990881    7.742148105   381.9663   5  29   1.9786   1.8627   4.4988   0.6378  -1.1991   1.2672   0.00    0.0
2022/05/29 13:56:38.421    8.851978079    7.742161161   394.6722   5  29   1.9375   1.8849   5.0387   0.6296  -1.6810   0.2603   0.00    0.0
2022/05/29 13:56:39.421    8.851965036    7.742153712   398.2600   5  27   2.1045   1.9630   5.0669   0.9197  -1.6394   0.5452   0.00    0.0
2022/05/29 13:56:40.421    8.852007878    7.742166030   402.6903   5  29   1.9536   1.9289   4.9853   0.8504  -1.5947  -0.3791   0.00    0.0
2022/05/29 13:56:41.421    8.851977965    7.742173525   399.5461   5  27   2.1046   1.9630   5.0667   0.9196  -1.6393   0.5453   0.00    0.0
2022/05/29 13:56:42.421    8.851983502    7.742147518   396.4116   5  28   2.0064   1.9619   4.9913   0.9417  -1.6219  -0.5056   0.00    0.0
2022/05/29 13:56:43.421    8.851991242    7.742185208   416.3410   5  29   1.9375   1.8848   5.0386   0.6289  -1.6808   0.2602   0.00    0.0
2022/05/29 13:56:44.421    8.851957073    7.742187106   392.9830   5  27   2.1046   1.9630   5.0664   0.9194  -1.6391   0.5454   0.00    0.0
2022/05/29 13:56:45.421    8.851936552    7.742211343   402.7956   5  28   2.0462   1.9309   5.0627   0.8191  -1.6180   0.6268   0.00    0.0
2022/05/29 13:56:46.421    8.851911533    7.742192521   408.3554   5  27   2.1047   1.9630   5.0663   0.9193  -1.6389   0.5454   0.00    0.0
2022/05/29 13:56:47.421    8.852055100    7.742201802   415.9148   5  29   1.9041   1.8360   4.8738   0.5865  -1.5130  -0.0973   0.00    0.0
2022/05/29 13:56:48.421    8.851970961    7.742172147   409.4287   5  29   1.9114   1.8775   4.8983   0.7340  -1.4437   0.5741   0.00    0.0
2022/05/29 13:56:49.421    8.852004871    7.742195341   420.8456   5  30   1.8408   1.8151   4.8693   0.4577  -1.4938   0.3026   0.00    0.0
2022/05/29 13:56:50.421    8.851955297    7.742177981   414.8548   5  28   2.0065   1.9619   4.9910   0.9412  -1.6214  -0.5044   0.00    0.0
2022/05/29 13:56:51.421    8.852068526    7.742237612   406.7986   5  29   1.9165   1.8805   4.9696   0.6866  -1.6491  -0.6622   0.00    0.0
2022/05/29 13:56:52.421    8.852022796    7.742219265   418.5211   5  31   1.8072   1.8275   4.3442   0.5202  -1.2841   0.8126   0.00    0.0
2022/05/29 13:56:53.421    8.852031876    7.742165998   432.0762   5  30   1.8596   1.8275   4.3446   0.5154  -1.2843   0.8239   0.00    0.0
2022/05/29 13:56:54.421    8.852025718    7.742185029   432.0448   5  29   1.9012   1.9066   4.9762   0.7672  -1.6747  -0.7062   0.00    0.0
2022/05/29 13:56:55.421    8.851978748    7.742172821   425.1202   5  30   1.8595   1.8275   4.3449   0.5151  -1.2845   0.8239   0.00    0.0
2022/05/29 13:56:56.421    8.852031443    7.742190629   431.8188   5  30   1.8595   1.8275   4.3451   0.5149  -1.2845   0.8239   0.00    0.0
2022/05/29 13:56:57.421    8.851951114    7.742161800   422.6010   5  31   1.8070   1.8275   4.3451   0.5192  -1.2844   0.8133   0.00    0.0
2022/05/29 13:56:58.421    8.851994030    7.742133483   429.2221   5  28   2.0317   1.8824   4.4671   0.8419  -1.1477   1.1643   0.00    0.0
2022/05/29 13:56:59.421    8.852004681    7.742214107   415.9062   5  28   1.9840   1.8274   4.4284   0.4538  -1.3026   1.1377   0.00    0.0
2022/05/29 13:57:00.421    8.852031295    7.742235174   394.7987   5  31   1.7856   1.7889   4.2959   0.5015  -1.1672   0.8975   0.00    0.0
2022/05/29 13:57:01.421    8.852010112    7.742217851   387.4527   5  32   1.7341   1.7712   4.2960   0.3801  -1.1644   0.9037   0.00    0.0
2022/05/29 13:57:02.421    8.852033546    7.742178385   403.4109   5  32   1.7199   1.8100   4.3565   0.5201  -1.2749   0.7547   0.00    0.0
2022/05/29 13:57:03.421    8.852025200    7.742170033   394.6741   5  32   1.7199   1.8100   4.3567   0.5200  -1.2749   0.7548   0.00    0.0
2022/05/29 13:57:04.421    8.852006229    7.742161701   400.9745   5  32   1.7198   1.8100   4.3569   0.5198  -1.2750   0.7548   0.00    0.0
2022/05/29 13:57:05.421    8.852040966    7.742176711   399.7305   5  31   1.7966   1.8659   4.4064   0.7111  -1.3870   0.4775   0.00    0.0
2022/05/29 13:57:06.421    8.852000400    7.742161710   405.8509   5  33   1.6959   1.7644   4.2875   0.3931  -1.1455   0.8896   0.00    0.0
2022/05/29 13:57:07.421    8.852033326    7.742194790   409.8539   5  31   1.7965   1.8659   4.4068   0.7108  -1.3871   0.4775   0.00    0.0
2022/05/29 13:57:08.421    8.852010651    7.742192557   405.0660   5  31   1.7965   1.8659   4.4070   0.7107  -1.3872   0.4775   0.00    0.0
2022/05/29 13:57:09.421    8.852047409    7.742199958   412.9295   5  31   1.7964   1.8659   4.4072   0.7105  -1.3872   0.4774   0.00    0.0
2022/05/29 13:57:10.421    8.852046457    7.742181731   409.3033   5  30   1.8515   1.8669   4.4575   0.6905  -1.4021   0.7258   0.00    0.0
2022/05/29 13:57:11.421    8.851983194    7.742159371   415.5158   5  31   1.7480   1.8662   4.4056   0.6731  -1.3869   0.6189   0.00    0.0
2022/05/29 13:57:12.421    8.852042952    7.742182175   407.6978   5  30   1.8000   1.8675   4.4589   0.6506  -1.4040   0.8232   0.00    0.0
2022/05/29 13:57:13.421    8.852029943    7.742172260   413.5173   5  31   1.7774   1.8184   4.3874   0.5498  -1.2777   0.9505   0.00    0.0
2022/05/29 13:57:14.421    8.852045388    7.742197433   404.9423   5  31   1.7773   1.8184   4.3876   0.5496  -1.2777   0.9502   0.00    0.0
2022/05/29 13:57:15.421    8.852038461    7.742199132   399.0119   5  32   1.7666   1.7812   4.3345   0.4804  -1.1762   1.0174   0.00    0.0
2022/05/29 13:57:16.421    8.852065442    7.742225539   385.6015   5  31   1.7772   1.8184   4.3879   0.5494  -1.2778   0.9498   0.00    0.0
2022/05/29 13:57:17.421    8.852094653    7.742210960   392.9319   5  31   1.7771   1.8184   4.3880   0.5492  -1.2778   0.9495   0.00    0.0
2022/05/29 13:57:18.421    8.852037194    7.742183504   397.8525   5  32   1.7318   1.8184   4.3878   0.5509  -1.2778   0.9368   0.00    0.0
2022/05/29 13:57:19.421    8.851996073    7.742167155   394.6557   5  32   1.7317   1.8184   4.3879   0.5508  -1.2778   0.9367   0.00    0.0
2022/05/29 13:57:20.421    8.852032577    7.742143756   400.1243   5  31   1.8405   1.7943   4.3666   0.3434  -1.2236   1.1417   0.00    0.0
2022/05/29 13:57:21.421    8.851976868    7.742148697   408.9643   5  30   1.8170   1.8804   4.9867   0.5525  -1.6530   0.7380   0.00    0.0
2022/05/29 13:57:22.421    8.852033583    7.742157597   397.0871   5  31   1.7514   1.8669   4.9549   0.6434  -1.6142   0.5215   0.00    0.0
2022/05/29 13:57:23.421    8.852031507    7.742149505   406.4236   5  32   1.7292   1.8190   4.8581   0.5452  -1.4820   0.7361   0.00    0.0
2022/05/29 13:57:24.421    8.852036797    7.742140266   403.6290   5  32   1.7292   1.8189   4.8581   0.5452  -1.4819   0.7357   0.00    0.0
2022/05/29 13:57:25.421    8.852039458    7.742150071   403.1702   5  32   1.7314   1.8184   4.3888   0.5499  -1.2780   0.9359   0.00    0.0
2022/05/29 13:57:26.421    8.852016300    7.742154937   400.8762   5  32   1.7314   1.8184   4.3889   0.5498  -1.2781   0.9357   0.00    0.0
2022/05/29 13:57:27.421    8.852010992    7.742181629   407.1471   5  33   1.7139   1.7807   4.3360   0.4602  -1.1760   1.0209   0.00    0.0
2022/05/29 13:57:28.421    8.852009776    7.742169376   399.8428   5  30   1.7984   1.8668   4.9551   0.6467  -1.6142   0.5034   0.00    0.0
2022/05/29 13:57:29.421    8.852064317    7.742175477   407.5824   5  31   1.7512   1.8668   4.9550   0.6429  -1.6141   0.5176   0.00    0.0
2022/05/29 13:57:30.421    8.852001915    7.742160537   399.1853   5  32   1.7911   1.7807   4.3368   0.4617  -1.1762   1.0044   0.00    0.0
2022/05/29 13:57:31.421    8.851996843    7.742183406   407.4924   5  32   1.7311   1.8183   4.3897   0.5491  -1.2783   0.9350   0.00    0.0
2022/05/29 13:57:32.421    8.851952449    7.742169800   399.6607   5  31   1.8114   1.8185   4.3908   0.5592  -1.2791   0.9074   0.00    0.0
2022/05/29 13:57:33.421    8.852034545    7.742180060   406.1475   5  32   1.7341   1.8179   4.8003   0.5991  -1.4628   0.3857   0.00    0.0
2022/05/29 13:57:34.421    8.852006135    7.742161291   403.1490   5  32   1.7056   1.8647   4.8946   0.6692  -1.5928  -0.2024   0.00    0.0
2022/05/29 13:57:35.421    8.851948899    7.742116810   420.5243   5  31   1.7838   1.8198   4.8607   0.5685  -1.4848   0.6831   0.00    0.0
2022/05/29 13:57:36.421    8.851970070    7.742134461   413.0691   5  32   1.7056   1.8647   4.8948   0.6690  -1.5928  -0.2045   0.00    0.0
2022/05/29 13:57:37.421    8.851958753    7.742113406   412.6770   5  32   1.7055   1.8647   4.8948   0.6690  -1.5928  -0.2055   0.00    0.0
2022/05/29 13:57:38.421    8.852048731    7.742207188   389.8842   5  32   1.7055   1.8647   4.8949   0.6689  -1.5928  -0.2066   0.00    0.0
2022/05/29 13:57:39.421    8.852025950    7.742237949   391.3977   5  31   1.7510   1.8667   4.9552   0.6422  -1.6139   0.5121   0.00    0.0
2022/05/29 13:57:40.421    8.852029222    7.742197647   398.5575   5  30   1.7934   1.9303   5.0900   0.7764  -1.7822  -0.4358   0.00    0.0
2022/05/29 13:57:41.421    8.852045489    7.742197383   400.2004   5  31   1.7509   1.8667   4.9552   0.6420  -1.6139   0.5110   0.00    0.0
2022/05/29 13:57:42.421    8.852051590    7.742194909   391.6425   5  33   1.6828   1.8166   4.7968   0.5750  -1.4582   0.4752   0.00    0.0
2022/05/29 13:57:43.421    8.852001270    7.742167108   410.0446   5  32   1.7288   1.8187   4.8582   0.5436  -1.4812   0.7282   0.00    0.0
2022/05/29 13:57:44.421    8.852073073    7.742216035   391.1040   5  32   1.7054   1.8646   4.8953   0.6685  -1.5927  -0.2128   0.00    0.0
2022/05/29 13:57:45.421    8.852060471    7.742225706   406.8996   5  32   1.7054   1.8646   4.8954   0.6684  -1.5927  -0.2138   0.00    0.0
2022/05/29 13:57:46.421    8.852074604    7.742203448   390.9758   5  33   1.6827   1.8165   4.7971   0.5747  -1.4581   0.4734   0.00    0.0
2022/05/29 13:57:47.421    8.852070005    7.742197734   400.4057   5  32   1.7053   1.8646   4.8955   0.6682  -1.5927  -0.2158   0.00    0.0
2022/05/29 13:57:48.421    8.852044016    7.742203433   389.4864   5  34   1.6224   1.7674   4.7335   0.3778  -1.3412   0.7556   0.00    0.0
2022/05/29 13:57:49.421    8.852008198    7.742191384   402.2287   5  34   1.6224   1.7674   4.7335   0.3777  -1.3412   0.7554   0.00    0.0
2022/05/29 13:57:50.421    8.852068507    7.742229973   386.7083   5  33   1.6827   1.8165   4.7973   0.5744  -1.4579   0.4715   0.00    0.0
2022/05/29 13:57:51.421    8.852022743    7.742193856   395.7917   5  34   1.6224   1.7673   4.7336   0.3775  -1.3411   0.7549   0.00    0.0
2022/05/29 13:57:52.421    8.852011428    7.742204837   393.6837   5  33   1.6826   1.8165   4.7974   0.5742  -1.4579   0.4706   0.00    0.0
2022/05/29 13:57:53.421    8.851997802    7.742180280   402.4658   5  33   1.6826   1.8164   4.7974   0.5741  -1.4579   0.4702   0.00    0.0
2022/05/29 13:57:54.421    8.851982836    7.742187515   402.2579   5  33   1.6793   1.7680   4.7843   0.3464  -1.3541   0.9326   0.00    0.0
2022/05/29 13:57:55.421    8.851986496    7.742189816   401.2614   5  33   1.6826   1.8164   4.7975   0.5740  -1.4578   0.4692   0.00    0.0
2022/05/29 13:57:56.421    8.851935356    7.742165303   410.8389   5  34   1.6223   1.7673   4.7337   0.3770  -1.3408   0.7536   0.00    0.0
2022/05/29 13:57:57.421    8.851949292    7.742143583   417.0245   5  31   1.8283   1.8298   4.8586   0.5569  -1.5047  -0.1984   0.00    0.0
2022/05/29 13:57:58.421    8.851949344    7.742163005   408.2853   5  32   1.7246   1.8274   4.8129   0.5032  -1.4838   0.6033   0.00    0.0
2022/05/29 13:57:59.421    8.851957367    7.742132261   409.2930   5  32   1.7796   1.8195   4.8469   0.6254  -1.4827  -0.4251   0.00    0.0
2022/05/29 13:58:00.421    8.851975793    7.742176694   397.0339   5  32   1.7688   1.7688   4.8156   0.3875  -1.3649   0.7493   0.00    0.0
2022/05/29 13:58:01.421    8.851937033    7.742178687   408.3835   5  32   1.7285   1.8185   4.8581   0.5422  -1.4805   0.7210   0.00    0.0
2022/05/29 13:58:02.421    8.851984057    7.742207439   396.1785   5  32   1.7285   1.8185   4.8581   0.5421  -1.4805   0.7206   0.00    0.0
2022/05/29 13:58:03.421    8.852005597    7.742200740   402.3168   5  32   1.7688   1.7687   4.8153   0.3870  -1.3646   0.7487   0.00    0.0
2022/05/29 13:58:04.421    8.852029484    7.742207973   394.7187   5  32   1.7285   1.8185   4.8581   0.5420  -1.4804   0.7198   0.00    0.0
2022/05/29 13:58:05.421    8.852022206    7.742186100   402.9925   5  33   1.6791   1.7679   4.7841   0.3451  -1.3534   0.9293   0.00    0.0
2022/05/29 13:58:06.421    8.852041268    7.742203665   398.3367   5  32   1.7002   1.7983   4.8527   0.4548  -1.4490   0.8038   0.00    0.0
2022/05/29 13:58:07.421    8.852044890    7.742229744   391.8751   5  33   1.6791   1.7678   4.7840   0.3449  -1.3533   0.9287   0.00    0.0
2022/05/29 13:58:08.421    8.852021109    7.742186105   397.0755   5  32   1.7284   1.8184   4.8581   0.5416  -1.4802   0.7181   0.00    0.0
2022/05/29 13:58:09.421    8.852072031    7.742214704   385.2944   5  32   1.7284   1.8184   4.8581   0.5416  -1.4802   0.7177   0.00    0.0
2022/05/29 13:58:10.421    8.852052584    7.742193246   387.4472   5  33   1.6791   1.7678   4.7840   0.3445  -1.3531   0.9278   0.00    0.0
2022/05/29 13:58:11.421    8.852073309    7.742191479   389.6074   5  33   1.6791   1.7678   4.7839   0.3444  -1.3530   0.9275   0.00    0.0
2022/05/29 13:58:12.421    8.852063788    7.742182334   390.9828   5  32   1.7283   1.8184   4.8581   0.5413  -1.4801   0.7165   0.00    0.0
2022/05/29 13:58:13.421    8.852066374    7.742202161   392.1569   5  34   1.6222   1.7670   4.7342   0.3751  -1.3397   0.7490   0.00    0.0
2022/05/29 13:58:14.421    8.852055095    7.742167952   398.4257   5  34   1.6221   1.7670   4.7342   0.3750  -1.3397   0.7488   0.00    0.0
2022/05/29 13:58:15.421    8.852050237    7.742221134   390.0804   5  33   1.7119   1.7804   4.3422   0.4528  -1.1770   1.0143   0.00    0.0
2022/05/29 13:58:16.421    8.852008750    7.742140528   394.8355   5  34   1.6688   1.7392   4.3057   0.2443  -1.0821   1.1151   0.00    0.0
2022/05/29 13:58:17.421    8.852012174    7.742175361   395.2056   5  30   1.8320   1.8666   5.1078   0.6311  -1.6206   0.9544   0.00    0.0
2022/05/29 13:58:18.421    8.852003196    7.742169188   415.8369   5  32   1.7994   1.7804   4.4797   0.4540  -1.1758   1.2799   0.00    0.0
2022/05/29 13:58:19.421    8.851961023    7.742178959   408.8198   5  32   1.7597   1.7680   4.9489   0.3156  -1.3687   1.2345   0.00    0.0
2022/05/29 13:58:20.421    8.851982038    7.742150530   409.9401   5  33   1.7534   1.7392   4.4500   0.2282  -1.0890   1.3589   0.00    0.0
2022/05/29 13:58:21.421    8.851987654    7.742143035   412.5801   5  34   1.6828   1.7387   4.3868   0.2718  -1.0736   1.2157   0.00    0.0
2022/05/29 13:58:22.421    8.851970533    7.742157904   416.5243   5  33   1.6909   1.7671   4.8809   0.3549  -1.3521   1.0602   0.00    0.0
2022/05/29 13:58:23.421    8.851990880    7.742159901   426.4547   5  35   1.6100   1.7386   4.2597   0.2790  -1.0693   0.9820   0.00    0.0
2022/05/29 13:58:24.421    8.852052822    7.742250922   395.3060   5  33   1.6821   1.8161   4.7989   0.5718  -1.4569   0.4553   0.00    0.0
2022/05/29 13:58:25.421    8.852046524    7.742238671   391.2837   5  33   1.6908   1.7670   4.8810   0.3545  -1.3520   1.0596   0.00    0.0
2022/05/29 13:58:26.421    8.851965595    7.742165409   423.3545   5  35   1.6100   1.7386   4.2601   0.2784  -1.0693   0.9817   0.00    0.0
2022/05/29 13:58:27.421    8.851939548    7.742173331   406.0674   5  33   1.6537   1.7915   4.7388   0.4849  -1.3611   0.7002   0.00    0.0
2022/05/29 13:58:28.421    8.851882479    7.742152530   413.6641   5  33   1.6789   1.7675   4.7835   0.3424  -1.3518   0.9224   0.00    0.0
2022/05/29 13:58:29.421    8.851959455    7.742184072   400.7520   5  31   1.7873   1.7953   4.7898   0.5234  -1.3775   0.8375   0.00    0.0
2022/05/29 13:58:30.421    8.851904074    7.742146703   392.6666   5  34   1.6683   1.7391   4.3073   0.2407  -1.0821   1.1134   0.00    0.0
2022/05/29 13:58:31.421    8.851996019    7.742199433   366.4473   5  34   1.6393   1.7604   4.2615   0.4032  -1.0789   0.9695   0.00    0.0
2022/05/29 13:58:32.421    8.851990957    7.742199246   386.4585   5  35   1.6098   1.7385   4.2610   0.2771  -1.0693   0.9812   0.00    0.0
2022/05/29 13:58:33.421    8.851956054    7.742187499   391.0246   5  33   1.6947   1.7705   4.4346   0.3749  -1.1688   1.1603   0.00    0.0
