% program   : RTKPOST ver.demo5 b34g
% inp file  : C:\Users\Abdullateef\Documents\PHD\Research on Precision Agriculture Navigation Technology\nav data\sensorlogSlim\gnss_log_2022_05_29_14_51_17.22o
% inp file  : C:\Users\Abdullateef\Documents\PHD\Research on Precision Agriculture Navigation Technology\nav data\sensorlogSlim\BRDM00DLR_S_20221490000_01D_MN.rnx\BRDM00DLR_S_20221490000_01D_MN.rnx
% obs start : 2022/05/29 13:51:35.4 GPST (week2212  49895.4s)
% obs end   : 2022/05/29 14:52:19.4 GPST (week2212  53539.4s)
% pos mode  : Single
% elev mask : 15.0 deg
% ionos opt : Broadcast
% tropo opt : Saastamoinen
% ephemeris : Broadcast
% navi sys  : GPS GLONASS Galileo BDS
%
% (lat/lon/height=WGS84/ellipsoidal,Q=1:fix,2:float,3:sbas,4:dgps,5:single,6:ppp,ns=# of satellites)
%  GPST                  latitude(deg) longitude(deg)  height(m)   Q  ns   sdn(m)   sde(m)   sdu(m)  sdne(m)  sdeu(m)  sdun(m) age(s)  ratio
2022/05/29 13:51:35.421    8.851941745    7.742150559   397.3231   5  28   1.7285   1.9636   5.3182   0.2979  -1.5855   1.2951   0.00    0.0
2022/05/29 13:51:36.421    8.851950843    7.742154352   400.9393   5  30   1.7216   1.8677   4.8238   0.1905  -1.1016   1.3342   0.00    0.0
2022/05/29 13:51:37.421    8.851923544    7.742137384   406.8583   5  28   1.7284   1.9636   5.3185   0.2974  -1.5856   1.2946   0.00    0.0
2022/05/29 13:51:38.421    8.851941544    7.742136353   406.2884   5  28   1.7283   1.9636   5.3187   0.2971  -1.5856   1.2944   0.00    0.0
2022/05/29 13:51:39.421    8.851938194    7.742117686   400.0027   5  28   1.7290   2.0248   4.9576   0.3566  -0.9557   1.3053   0.00    0.0
2022/05/29 13:51:40.421    8.851951700    7.742155742   398.0045   5  29   1.6836   1.9630   5.3096   0.3273  -1.5808   1.2452   0.00    0.0
2022/05/29 13:51:41.421    8.851997476    7.742133040   400.3546   5  30   1.6836   1.9023   4.8776   0.3283  -1.2177   1.2436   0.00    0.0
2022/05/29 13:51:42.421    8.851955715    7.742180074   392.5269   5  30   1.6835   1.9023   4.8779   0.3280  -1.2178   1.2435   0.00    0.0
2022/05/29 13:51:43.421    8.851965724    7.742155178   387.5915   5  30   1.6835   1.9023   4.8781   0.3276  -1.2178   1.2434   0.00    0.0
2022/05/29 13:51:44.421    8.851961637    7.742160394   396.5021   5  30   1.6834   1.9023   4.8784   0.3273  -1.2179   1.2434   0.00    0.0
2022/05/29 13:51:45.421    8.851974587    7.742184239   397.9196   5  28   1.7299   1.9851   5.0273   0.3697  -1.4707   1.2494   0.00    0.0
2022/05/29 13:51:46.421    8.851976292    7.742172519   392.7935   5  30   1.6833   1.9023   4.8788   0.3266  -1.2180   1.2432   0.00    0.0
2022/05/29 13:51:47.421    8.852008104    7.742184369   411.9427   5  30   1.6833   1.9023   4.8791   0.3263  -1.2181   1.2431   0.00    0.0
2022/05/29 13:51:48.421    8.852025344    7.742168833   386.5855   5  28   1.7278   1.9636   5.3203   0.2942  -1.5860   1.2920   0.00    0.0
2022/05/29 13:51:49.421    8.851957587    7.742138809   395.7834   5  29   1.6832   1.9630   5.3114   0.3248  -1.5812   1.2439   0.00    0.0
2022/05/29 13:51:50.421    8.851976443    7.742207117   416.4314   5  28   1.7735   2.0556   4.8995   0.5632  -1.1033   1.2263   0.00    0.0
2022/05/29 13:51:51.421    8.851966758    7.742159758   417.1660   5  29   1.7513   2.0162   4.8824   0.6549  -1.1757   1.2723   0.00    0.0
2022/05/29 13:51:52.421    8.852067459    7.742177798   414.4777   5  28   1.8003   2.0161   4.8915   0.6529  -1.1764   1.3196   0.00    0.0
2022/05/29 13:51:53.421    8.852049591    7.742191275   408.7640   5  28   1.8002   2.0161   4.8917   0.6527  -1.1764   1.3195   0.00    0.0
2022/05/29 13:51:54.421    8.852041045    7.742189901   413.6194   5  28   1.8117   1.9028   4.8890   0.3088  -1.2235   1.2888   0.00    0.0
2022/05/29 13:51:55.421    8.852015141    7.742167863   415.8593   5  29   1.7811   1.9024   5.1110   0.2996  -1.2344   1.5583   0.00    0.0
2022/05/29 13:51:56.421    8.852044577    7.742182828   414.2866   5  27   1.7948   2.0107   5.4298   0.0472  -1.2778   1.6650   0.00    0.0
2022/05/29 13:51:57.421    8.852038355    7.742169490   409.4230   5  29   1.7705   1.8807   5.3256   0.1719  -0.9414   1.6395   0.00    0.0
2022/05/29 13:51:58.421    8.852009709    7.742135731   398.8367   5  28   1.7919   1.9902   5.1999  -0.1637  -1.4428   1.6176   0.00    0.0
2022/05/29 13:51:59.421    8.852048887    7.742181555   409.9978   5  29   1.7809   1.9024   5.1122   0.2977  -1.2349   1.5581   0.00    0.0
2022/05/29 13:52:00.421    8.852019389    7.742169232   416.9061   5  28   1.7918   1.9902   5.2005  -0.1655  -1.4430   1.6175   0.00    0.0
2022/05/29 13:52:01.421    8.852010498    7.742167864   416.1321   5  28   1.8708   1.9025   5.1145   0.3096  -1.2344   1.5826   0.00    0.0
2022/05/29 13:52:02.421    8.852004947    7.742174877   400.4561   5  27   1.8830   1.9902   5.2036  -0.1735  -1.4434   1.6463   0.00    0.0
2022/05/29 13:52:03.421    8.851975798    7.742175575   389.0121   5  28   1.8707   1.9025   5.1151   0.3086  -1.2346   1.5827   0.00    0.0
2022/05/29 13:52:04.421    8.852081164    7.742160414   408.0680   5  28   1.7916   1.9902   5.2016  -0.1690  -1.4434   1.6174   0.00    0.0
2022/05/29 13:52:05.421    8.852001517    7.742168955   409.8959   5  28   1.8706   1.9025   5.1157   0.3076  -1.2349   1.5828   0.00    0.0
2022/05/29 13:52:06.421    8.852033889    7.742165224   427.7255   5  27   1.8876   1.9859   5.1801  -0.1483  -1.4138   1.6515   0.00    0.0
2022/05/29 13:52:07.421    8.852097501    7.742193848   432.5011   5  29   1.7805   1.9024   5.1144   0.2941  -1.2358   1.5578   0.00    0.0
2022/05/29 13:52:08.421    8.852039483    7.742188467   410.7318   5  27   1.8300   1.9883   5.1829   0.3042  -1.3085   1.4475   0.00    0.0
2022/05/29 13:52:09.421    8.852033652    7.742193921   404.8923   5  29   1.7803   1.9024   5.1150   0.2932  -1.2361   1.5577   0.00    0.0
2022/05/29 13:52:10.421    8.851996615    7.742148582   403.3720   5  28   1.7876   1.9514   4.9454   0.4952  -1.3505   1.1399   0.00    0.0
2022/05/29 13:52:11.421    8.851953184    7.742108655   409.5094   5  29   1.7844   1.8991   5.0934   0.3057  -1.2066   1.5626   0.00    0.0
2022/05/29 13:52:12.421    8.852012900    7.742164321   398.4830   5  27   1.9004   1.9512   5.3393   0.4417  -1.3740   1.7339   0.00    0.0
2022/05/29 13:52:13.421    8.851990782    7.742180326   401.8584   5  28   1.8032   1.9511   5.1715   0.4577  -1.3622   1.4862   0.00    0.0
2022/05/29 13:52:14.421    8.851997102    7.742175571   401.2241   5  28   1.8307   1.9085   4.9044   0.1745  -1.2467   1.3261   0.00    0.0
2022/05/29 13:52:15.421    8.851953750    7.742178955   396.1875   5  26   1.8983   2.0494   5.3880   0.5048  -1.6722   1.4867   0.00    0.0
2022/05/29 13:52:16.421    8.852012497    7.742156356   411.4245   5  27   1.7894   2.0425   5.0025   0.4387  -1.5078   1.1671   0.00    0.0
2022/05/29 13:52:17.421    8.851946858    7.742184919   390.7393   5  28   1.8030   1.9510   5.1729   0.4563  -1.3629   1.4859   0.00    0.0
2022/05/29 13:52:18.421    8.852020282    7.742146554   407.3475   5  28   1.7798   1.9877   5.3111   0.2826  -1.5325   1.5602   0.00    0.0
2022/05/29 13:52:19.421    8.852067394    7.742170287   408.7891   5  27   1.8787   1.9566   5.2052   0.3589  -1.3942   1.5844   0.00    0.0
2022/05/29 13:52:20.421    8.852025980    7.742174279   399.6542   5  26   1.8980   2.0494   5.3901   0.5024  -1.6731   1.4873   0.00    0.0
2022/05/29 13:52:21.421    8.852034717    7.742167673   415.5617   5  26   1.8118   2.2070   5.5903   0.2725  -2.0050   1.5613   0.00    0.0
2022/05/29 13:52:22.421    8.852069342    7.742207868   409.0119   5  27   1.8028   2.0487   5.3905   0.4706  -1.6745   1.4734   0.00    0.0
2022/05/29 13:52:23.421    8.852006649    7.742180690   396.8791   5  25   1.9076   2.2072   5.5921   0.3051  -2.0046   1.5808   0.00    0.0
2022/05/29 13:52:24.421    8.851968772    7.742186786   402.2405   5  25   1.9864   2.0560   5.4289   0.3916  -1.7049   1.6079   0.00    0.0
2022/05/29 13:52:25.421    8.852047722    7.742201426   389.1469   5  28   1.7474   1.9945   4.9578  -0.2073  -1.4022   1.3501   0.00    0.0
2022/05/29 13:52:26.421    8.852001000    7.742194536   405.2876   5  28   1.7619   1.9847   5.0296   0.3960  -1.4697   1.1975   0.00    0.0
2022/05/29 13:52:27.421    8.851956412    7.742136843   409.8725   5  27   1.9569   1.9091   5.1586  -0.0661  -1.2761   1.6919   0.00    0.0
2022/05/29 13:52:28.421    8.852019111    7.742194969   415.3124   5  29   1.7595   1.9022   4.8887   0.3235  -1.2205   1.2419   0.00    0.0
2022/05/29 13:52:29.421    8.851971128    7.742183225   409.0836   5  28   1.8303   1.9085   4.9085   0.1617  -1.2481   1.3278   0.00    0.0
2022/05/29 13:52:30.421    8.851971434    7.742171982   416.9488   5  27   1.7640   2.1130   5.1277   0.3028  -1.6973   1.2338   0.00    0.0
2022/05/29 13:52:31.421    8.852013540    7.742121565   430.3811   5  27   1.9576   1.9098   5.0673  -0.1506  -1.2827   1.6238   0.00    0.0
2022/05/29 13:52:32.421    8.851977850    7.742187681   413.3553   5  28   1.7626   1.9862   4.9375   0.2061  -1.3719   1.2712   0.00    0.0
2022/05/29 13:52:33.421    8.852013153    7.742210020   390.0188   5  28   1.7626   1.9862   4.9378   0.2054  -1.3720   1.2712   0.00    0.0
2022/05/29 13:52:34.421    8.851973973    7.742150071   404.6867   5  28   1.7616   1.9847   5.0317   0.3926  -1.4702   1.1983   0.00    0.0
2022/05/29 13:52:35.421    8.852006207    7.742180941   386.4006   5  26   1.9734   2.0002   5.2578  -0.4002  -1.4932   1.7673   0.00    0.0
2022/05/29 13:52:36.421    8.852005717    7.742156514   392.9315   5  30   1.6811   1.9022   4.8905   0.3094  -1.2210   1.2395   0.00    0.0
2022/05/29 13:52:37.421    8.852010014    7.742165789   397.6731   5  28   1.7932   1.9372   5.1107   0.5068  -0.9854   1.5339   0.00    0.0
2022/05/29 13:52:38.421    8.852056117    7.742142997   395.6296   5  28   1.9085   1.8747   5.1152  -0.2934  -1.1694   1.7483   0.00    0.0
2022/05/29 13:52:39.421    8.852051645    7.742163875   399.8153   5  29   1.8256   1.8674   5.0762   0.0729  -1.1240   1.6446   0.00    0.0
2022/05/29 13:52:40.421    8.851993622    7.742134468   414.8297   5  29   1.8256   1.8674   5.0765   0.0711  -1.1241   1.6445   0.00    0.0
2022/05/29 13:52:41.421    8.852008147    7.742172819   404.4150   5  26   2.0275   1.9101   5.1834  -0.2025  -1.2889   1.7636   0.00    0.0
2022/05/29 13:52:42.421    8.852002064    7.742132869   408.4524   5  27   1.9270   1.9375   5.4264   0.5249  -0.9596   1.9071   0.00    0.0
2022/05/29 13:52:43.421    8.851951646    7.742130143   394.6711   5  26   2.1788   1.9068   5.4746   0.4254  -0.8394   2.1939   0.00    0.0
2022/05/29 13:52:44.421    8.851976056    7.742189555   401.2453   5  28   1.8308   1.9030   5.1394   0.2372  -1.2473   1.6090   0.00    0.0
2022/05/29 13:52:45.421    8.851941686    7.742159779   400.9953   5  27   2.0603   1.9027   5.4047   0.5192  -0.7714   2.0477   0.00    0.0
2022/05/29 13:52:46.421    8.852040201    7.742157210   409.4624   5  29   1.8417   1.8746   5.1067  -0.2874  -1.1687   1.7001   0.00    0.0
2022/05/29 13:52:47.421    8.852037747    7.742187834   407.6415   5  27   2.0005   1.9362   5.4068   0.5966  -0.8888   1.9424   0.00    0.0
2022/05/29 13:52:48.421    8.852007324    7.742199691   403.0228   5  26   2.1785   1.9069   5.4758   0.4234  -0.8404   2.1938   0.00    0.0
2022/05/29 13:52:49.421    8.852174323    7.742197258   420.4865   5  30   1.7667   1.8674   5.0707   0.0486  -1.1250   1.6036   0.00    0.0
2022/05/29 13:52:50.421    8.852025553    7.742149517   405.0656   5  28   1.9202   1.9015   5.3727   0.4656  -0.7982   1.9358   0.00    0.0
2022/05/29 13:52:51.421    8.852065402    7.742181588   395.8678   5  28   1.9201   1.9015   5.3728   0.4653  -0.7983   1.9355   0.00    0.0
2022/05/29 13:52:52.421    8.852003559    7.742194706   383.3782   5  27   1.9938   1.9393   5.4284   0.5844  -0.9328   1.9362   0.00    0.0
2022/05/29 13:52:53.421    8.851978928    7.742160572   397.0316   5  27   2.0596   1.9027   5.4061   0.5168  -0.7726   2.0468   0.00    0.0
2022/05/29 13:52:54.421    8.851978417    7.742144583   401.1219   5  28   1.9226   1.8673   5.0844  -0.0536  -1.1261   1.6829   0.00    0.0
2022/05/29 13:52:55.421    8.851997278    7.742194164   402.1691   5  29   1.8010   1.8671   4.8397   0.1329  -1.1045   1.3353   0.00    0.0
2022/05/29 13:52:56.421    8.852062379    7.742176581   411.5560   5  30   1.7664   1.8673   5.0725   0.0252  -1.1256   1.6033   0.00    0.0
2022/05/29 13:52:57.421    8.851967227    7.742127223   403.9015   5  28   1.9224   1.8673   5.0852  -0.0614  -1.1264   1.6827   0.00    0.0
2022/05/29 13:52:58.421    8.851987775    7.742172915   410.3065   5  28   1.8787   1.8741   4.8636  -0.2647  -1.1390   1.4271   0.00    0.0
2022/05/29 13:52:59.421    8.851992308    7.742134055   409.8521   5  29   1.8008   1.8671   4.8405   0.1292  -1.1047   1.3350   0.00    0.0
2022/05/29 13:53:00.421    8.852014715    7.742165665   408.5162   5  30   1.7173   1.8670   4.8402   0.1377  -1.1045   1.3208   0.00    0.0
2022/05/29 13:53:01.421    8.852000984    7.742163537   422.9524   5  29   1.8008   1.8670   4.8409   0.1273  -1.1047   1.3349   0.00    0.0
2022/05/29 13:53:02.421    8.852046470    7.742163384   411.1500   5  30   1.7172   1.8670   4.8406   0.1362  -1.1046   1.3205   0.00    0.0
2022/05/29 13:53:03.421    8.852004205    7.742174088   405.9490   5  30   1.7172   1.8670   4.8408   0.1354  -1.1047   1.3203   0.00    0.0
2022/05/29 13:53:04.421    8.851992000    7.742185975   409.3580   5  28   1.8084   1.9026   4.9035   0.2773  -1.2270   1.2849   0.00    0.0
2022/05/29 13:53:05.421    8.852026187    7.742140092   400.3446   5  28   1.8293   1.9030   5.1443   0.2248  -1.2496   1.6063   0.00    0.0
2022/05/29 13:53:06.421    8.852010239    7.742185701   397.7765   5  28   1.9219   1.8673   5.0874  -0.0804  -1.1273   1.6823   0.00    0.0
2022/05/29 13:53:07.421    8.852009680    7.742145769   403.9826   5  29   1.8005   1.8670   4.8421   0.1215  -1.1049   1.3344   0.00    0.0
2022/05/29 13:53:08.421    8.851970868    7.742127381   425.4557   5  30   1.7169   1.8670   4.8418   0.1316  -1.1048   1.3195   0.00    0.0
2022/05/29 13:53:09.421    8.852010870    7.742170730   422.3770   5  29   1.8004   1.8670   4.8425   0.1195  -1.1050   1.3343   0.00    0.0
2022/05/29 13:53:10.421    8.851998278    7.742164202   412.5207   5  29   1.7838   1.9013   5.0587   0.4372  -0.8330   1.5650   0.00    0.0
2022/05/29 13:53:11.421    8.852016416    7.742158945   424.0552   5  31   1.6677   1.8670   4.8401   0.1241  -1.1051   1.2963   0.00    0.0
2022/05/29 13:53:12.421    8.852010386    7.742166168   436.6791   5  28   1.8475   1.9391   5.1128   0.5544  -0.9718   1.5415   0.00    0.0
2022/05/29 13:53:13.421    8.852002238    7.742162919   404.4193   5  29   1.8233   1.8672   5.0838  -0.0571  -1.1270   1.6398   0.00    0.0
2022/05/29 13:53:14.421    8.851983415    7.742156841   399.2644   5  30   1.7166   1.8670   4.8429   0.1269  -1.1050   1.3185   0.00    0.0
2022/05/29 13:53:15.421    8.851970542    7.742146586   398.7883   5  29   1.8231   1.8672   5.0843  -0.0613  -1.1272   1.6395   0.00    0.0
2022/05/29 13:53:16.421    8.852015362    7.742173793   410.9578   5  30   1.6794   1.9021   4.8997   0.2951  -1.2233   1.2363   0.00    0.0
2022/05/29 13:53:17.421    8.851978606    7.742162303   408.5792   5  31   1.6675   1.8669   4.8414   0.1192  -1.1053   1.2958   0.00    0.0
2022/05/29 13:53:18.421    8.851953335    7.742191305   397.6410   5  30   1.7653   1.8672   5.0781  -0.0691  -1.1276   1.6021   0.00    0.0
2022/05/29 13:53:19.421    8.851974228    7.742159684   415.6586   5  31   1.6674   1.8669   4.8418   0.1175  -1.1054   1.2956   0.00    0.0
2022/05/29 13:53:20.421    8.851971207    7.742173701   391.5070   5  29   1.7763   1.9024   5.1349   0.2588  -1.2442   1.5543   0.00    0.0
2022/05/29 13:53:21.421    8.851974649    7.742168462   403.4131   5  29   1.7419   1.9376   5.1055   0.5069  -0.9844   1.4799   0.00    0.0
2022/05/29 13:53:22.421    8.851958919    7.742171152   401.7054   5  29   1.7762   1.9024   5.1355   0.2578  -1.2444   1.5542   0.00    0.0
2022/05/29 13:53:23.421    8.851938431    7.742146273   408.5975   5  30   1.7289   1.9013   5.0549   0.4215  -0.8370   1.5301   0.00    0.0
2022/05/29 13:53:24.421    8.852033773    7.742168001   419.8415   5  30   1.6791   1.9021   4.9016   0.2921  -1.2238   1.2357   0.00    0.0
2022/05/29 13:53:25.421    8.852067823    7.742212668   410.3497   5  31   1.6672   1.8669   4.8431   0.1123  -1.1056   1.2951   0.00    0.0
2022/05/29 13:53:26.421    8.852031211    7.742173665   397.6900   5  29   1.7760   1.9024   5.1366   0.2557  -1.2449   1.5539   0.00    0.0
2022/05/29 13:53:27.421    8.852024550    7.742143836   408.0126   5  29   1.7759   1.9024   5.1368   0.2552  -1.2450   1.5539   0.00    0.0
2022/05/29 13:53:28.421    8.852064525    7.742181759   406.8295   5  28   1.8630   1.9379   5.4104   0.5221  -0.9611   1.8358   0.00    0.0
2022/05/29 13:53:29.421    8.852033562    7.742207851   414.3600   5  29   1.7758   1.9024   5.1374   0.2541  -1.2452   1.5538   0.00    0.0
2022/05/29 13:53:30.421    8.852048039    7.742196251   430.2327   5  30   1.7647   1.8672   5.0811  -0.0878  -1.1286   1.6013   0.00    0.0
2022/05/29 13:53:31.421    8.852006829    7.742184825   423.3694   5  29   1.7757   1.9024   5.1379   0.2531  -1.2455   1.5537   0.00    0.0
2022/05/29 13:53:32.421    8.852017062    7.742159421   431.1999   5  30   1.6787   1.9021   4.9034   0.2892  -1.2243   1.2350   0.00    0.0
2022/05/29 13:53:33.421    8.851979026    7.742168671   422.9275   5  30   1.6787   1.9021   4.9036   0.2888  -1.2243   1.2349   0.00    0.0
2022/05/29 13:53:34.421    8.852010837    7.742173856   435.9823   5  30   1.6786   1.9021   4.9038   0.2884  -1.2244   1.2348   0.00    0.0
2022/05/29 13:53:35.421    8.851942578    7.742171975   414.9615   5  30   1.7283   1.9013   5.0565   0.4187  -0.8374   1.5284   0.00    0.0
2022/05/29 13:53:36.421    8.851960972    7.742118602   408.4233   5  29   1.7410   1.9378   5.1077   0.5039  -0.9854   1.4778   0.00    0.0
2022/05/29 13:53:37.421    8.851968843    7.742162736   418.1001   5  29   1.7409   1.9378   5.1079   0.5037  -0.9854   1.4777   0.00    0.0
2022/05/29 13:53:38.421    8.851975985    7.742125434   413.2748   5  29   1.7409   1.9378   5.1080   0.5035  -0.9855   1.4775   0.00    0.0
2022/05/29 13:53:39.421    8.852049268    7.742214158   404.9282   5  28   1.7658   1.9879   5.1629   0.6201  -1.1418   1.4002   0.00    0.0
2022/05/29 13:53:40.421    8.851982628    7.742201131   401.7291   5  28   1.8620   1.9380   5.4126   0.5191  -0.9629   1.8343   0.00    0.0
2022/05/29 13:53:41.421    8.851994661    7.742162161   400.2830   5  28   1.8619   1.9380   5.4128   0.5188  -0.9630   1.8342   0.00    0.0
2022/05/29 13:53:42.421    8.852058108    7.742183363   395.0067   5  28   1.8618   1.9380   5.4129   0.5186  -0.9632   1.8341   0.00    0.0
2022/05/29 13:53:43.421    8.852046348    7.742187153   398.6214   5  29   1.7406   1.9379   5.1088   0.5024  -0.9858   1.4768   0.00    0.0
2022/05/29 13:53:44.421    8.852009152    7.742187316   407.2240   5  28   1.8617   1.9380   5.4133   0.5181  -0.9635   1.8338   0.00    0.0
2022/05/29 13:53:45.421    8.852022678    7.742132218   416.5632   5  28   1.8616   1.9380   5.4135   0.5178  -0.9636   1.8337   0.00    0.0
2022/05/29 13:53:46.421    8.852071166    7.742153038   423.5263   5  28   1.8615   1.9381   5.4136   0.5175  -0.9637   1.8335   0.00    0.0
2022/05/29 13:53:47.421    8.852033720    7.742164269   425.7435   5  30   1.6781   1.9021   4.9068   0.2835  -1.2251   1.2337   0.00    0.0
2022/05/29 13:53:48.421    8.852001537    7.742137225   422.6145   5  30   1.6780   1.9021   4.9070   0.2832  -1.2252   1.2336   0.00    0.0
2022/05/29 13:53:49.421    8.852010659    7.742175195   435.7060   5  29   1.7567   1.9021   4.9074   0.2896  -1.2251   1.2437   0.00    0.0
2022/05/29 13:53:50.421    8.852086134    7.742191493   431.4992   5  29   1.7006   1.9494   4.9742   0.4448  -1.3595   1.1388   0.00    0.0
2022/05/29 13:53:51.421    8.852023051    7.742189607   401.4093   5  28   1.8457   1.9395   5.1197   0.5460  -0.9739   1.5403   0.00    0.0
2022/05/29 13:53:52.421    8.852056059    7.742186061   432.4381   5  30   1.6779   1.9021   4.9079   0.2816  -1.2254   1.2333   0.00    0.0
2022/05/29 13:53:53.421    8.851996989    7.742186414   406.9152   5  29   1.7565   1.9021   4.9084   0.2879  -1.2253   1.2438   0.00    0.0
2022/05/29 13:53:54.421    8.851940526    7.742175841   399.2026   5  28   1.8455   1.9395   5.1202   0.5453  -0.9741   1.5402   0.00    0.0
2022/05/29 13:53:55.421    8.852037075    7.742146465   406.2271   5  29   1.7565   1.9021   4.9088   0.2870  -1.2254   1.2438   0.00    0.0
2022/05/29 13:53:56.421    8.851984722    7.742151606   417.9816   5  29   1.7564   1.9021   4.9091   0.2865  -1.2255   1.2438   0.00    0.0
2022/05/29 13:53:57.421    8.852085097    7.742187200   408.2483   5  30   1.6776   1.9021   4.9090   0.2797  -1.2257   1.2328   0.00    0.0
2022/05/29 13:53:58.421    8.852021297    7.742150675   436.4237   5  30   1.6776   1.9021   4.9092   0.2793  -1.2257   1.2327   0.00    0.0
2022/05/29 13:53:59.421    8.852063564    7.742167349   419.2853   5  29   1.7397   1.9381   5.1111   0.4991  -0.9869   1.4745   0.00    0.0
2022/05/29 13:54:00.421    8.852059987    7.742150174   410.5376   5  29   1.7001   1.9493   4.9770   0.4420  -1.3604   1.1375   0.00    0.0
2022/05/29 13:54:01.421    8.851996885    7.742196745   386.5805   5  29   1.7563   1.9021   4.9102   0.2843  -1.2258   1.2439   0.00    0.0
2022/05/29 13:54:02.421    8.852030610    7.742196785   387.4881   5  29   1.7562   1.9021   4.9104   0.2838  -1.2258   1.2439   0.00    0.0
2022/05/29 13:54:03.421    8.852012626    7.742197068   392.9187   5  29   1.7562   1.9021   4.9107   0.2834  -1.2259   1.2439   0.00    0.0
2022/05/29 13:54:04.421    8.852010710    7.742224771   377.9215   5  28   1.8057   1.9026   4.9159   0.2475  -1.2300   1.2810   0.00    0.0
2022/05/29 13:54:05.421    8.851964254    7.742177255   399.3057   5  29   1.7561   1.9021   4.9111   0.2825  -1.2260   1.2440   0.00    0.0
2022/05/29 13:54:06.421    8.851970878    7.742167695   393.9005   5  28   1.8056   1.9026   4.9164   0.2464  -1.2301   1.2809   0.00    0.0
2022/05/29 13:54:07.421    8.852006491    7.742178565   409.3826   5  28   1.8055   1.9026   4.9166   0.2459  -1.2301   1.2808   0.00    0.0
2022/05/29 13:54:08.421    8.851945390    7.742162530   402.8577   5  29   1.7560   1.9021   4.9118   0.2811  -1.2261   1.2440   0.00    0.0
2022/05/29 13:54:09.421    8.852010624    7.742203754   406.0450   5  28   1.8054   1.9026   4.9170   0.2448  -1.2302   1.2807   0.00    0.0
2022/05/29 13:54:10.421    8.851975721    7.742184575   399.9796   5  28   1.8652   1.9024   5.1526   0.2348  -1.2496   1.5893   0.00    0.0
2022/05/29 13:54:11.421    8.851932692    7.742171985   409.5716   5  28   1.8651   1.9024   5.1529   0.2341  -1.2498   1.5893   0.00    0.0
2022/05/29 13:54:12.421    8.851988713    7.742197326   405.7934   5  28   1.8651   1.9024   5.1532   0.2334  -1.2499   1.5894   0.00    0.0
2022/05/29 13:54:13.421    8.851989147    7.742170843   384.9552   5  28   1.8650   1.9024   5.1535   0.2328  -1.2500   1.5894   0.00    0.0
2022/05/29 13:54:14.421    8.851925763    7.742153466   390.8601   5  28   1.8650   1.9024   5.1538   0.2321  -1.2501   1.5895   0.00    0.0
2022/05/29 13:54:15.421    8.851973197    7.742154472   412.6620   5  28   1.8650   1.9024   5.1541   0.2314  -1.2502   1.5895   0.00    0.0
2022/05/29 13:54:16.421    8.852013466    7.742155224   419.6751   5  28   1.8649   1.9024   5.1544   0.2307  -1.2503   1.5895   0.00    0.0
2022/05/29 13:54:17.421    8.852016429    7.742138263   422.8818   5  29   1.7557   1.9021   4.9138   0.2770  -1.2266   1.2442   0.00    0.0
2022/05/29 13:54:18.421    8.852022504    7.742142194   424.2312   5  28   1.8648   1.9024   5.1549   0.2294  -1.2506   1.5896   0.00    0.0
2022/05/29 13:54:19.421    8.851983690    7.742147728   427.5380   5  29   1.7557   1.9021   4.9143   0.2761  -1.2268   1.2442   0.00    0.0
2022/05/29 13:54:20.421    8.851991535    7.742150406   439.2275   5  29   1.7556   1.9021   4.9145   0.2756  -1.2268   1.2442   0.00    0.0
2022/05/29 13:54:21.421    8.852017272    7.742185064   429.7560   5  29   1.7556   1.9021   4.9148   0.2752  -1.2269   1.2442   0.00    0.0
2022/05/29 13:54:22.421    8.851983397    7.742168393   417.9735   5  29   1.7556   1.9021   4.9150   0.2747  -1.2269   1.2442   0.00    0.0
2022/05/29 13:54:23.421    8.851963093    7.742140272   411.1111   5  28   1.8442   1.9399   5.1253   0.5390  -0.9757   1.5391   0.00    0.0
2022/05/29 13:54:24.421    8.851981007    7.742177378   415.6486   5  28   1.8442   1.9399   5.1255   0.5388  -0.9758   1.5390   0.00    0.0
2022/05/29 13:54:25.421    8.852022483    7.742183862   408.0227   5  28   1.8441   1.9399   5.1256   0.5386  -0.9759   1.5390   0.00    0.0
2022/05/29 13:54:26.421    8.851988598    7.742140951   390.6547   5  28   1.8441   1.9399   5.1258   0.5383  -0.9759   1.5390   0.00    0.0
2022/05/29 13:54:27.421    8.851973514    7.742142372   384.6305   5  27   1.9480   1.9400   5.2880   0.5502  -0.9619   1.7843   0.00    0.0
2022/05/29 13:54:28.421    8.852148221    7.742212720   393.7174   5  29   1.7380   1.9385   5.1152   0.4932  -0.9888   1.4703   0.00    0.0
2022/05/29 13:54:29.421    8.852011375    7.742177218   403.1464   5  27   1.9478   1.9400   5.2882   0.5498  -0.9621   1.7841   0.00    0.0
2022/05/29 13:54:30.421    8.851996635    7.742174414   399.7271   5  27   1.9478   1.9401   5.2883   0.5495  -0.9622   1.7840   0.00    0.0
2022/05/29 13:54:31.421    8.852002869    7.742192792   422.9609   5  27   1.9477   1.9401   5.2884   0.5493  -0.9623   1.7839   0.00    0.0
2022/05/29 13:54:32.421    8.852056279    7.742158612   424.3983   5  29   1.7552   1.9021   4.9173   0.2700  -1.2275   1.2443   0.00    0.0
2022/05/29 13:54:33.421    8.852016106    7.742198928   426.0604   5  28   1.8369   1.9024   5.0348   0.2340  -1.2420   1.4608   0.00    0.0
2022/05/29 13:54:34.421    8.851989486    7.742150096   429.2538   5  27   1.8999   1.9401   5.1365   0.5285  -0.9793   1.5842   0.00    0.0
2022/05/29 13:54:35.421    8.851983935    7.742188926   413.7015   5  29   1.7551   1.9021   4.9179   0.2686  -1.2277   1.2444   0.00    0.0
2022/05/29 13:54:36.421    8.852020225    7.742181613   423.6193   5  29   1.7551   1.9021   4.9182   0.2682  -1.2277   1.2444   0.00    0.0
2022/05/29 13:54:37.421    8.852022537    7.742129329   433.3997   5  28   1.8367   1.9024   5.0355   0.2316  -1.2423   1.4606   0.00    0.0
2022/05/29 13:54:38.421    8.852020472    7.742179510   429.0432   5  28   1.8041   1.9026   4.9229   0.2290  -1.2316   1.2786   0.00    0.0
2022/05/29 13:54:39.421    8.852057294    7.742189951   422.0393   5  27   1.8931   1.9030   5.0439   0.1763  -1.2479   1.5047   0.00    0.0
2022/05/29 13:54:40.421    8.852057040    7.742198420   413.2670   5  29   1.7549   1.9021   4.9191   0.2663  -1.2279   1.2444   0.00    0.0
2022/05/29 13:54:41.421    8.852028152    7.742184927   420.1035   5  28   1.8434   1.9401   5.1284   0.5350  -0.9768   1.5384   0.00    0.0
2022/05/29 13:54:42.421    8.852005862    7.742165380   426.1872   5  29   1.7549   1.9021   4.9195   0.2653  -1.2281   1.2445   0.00    0.0
2022/05/29 13:54:43.421    8.852038404    7.742172428   452.4268   5  29   1.7548   1.9021   4.9197   0.2648  -1.2281   1.2445   0.00    0.0
2022/05/29 13:54:44.421    8.852033655    7.742129001   450.0427   5  29   1.7548   1.9021   4.9200   0.2643  -1.2282   1.2445   0.00    0.0
2022/05/29 13:54:45.421    8.852028695    7.742144461   444.5322   5  29   1.7548   1.9021   4.9202   0.2639  -1.2282   1.2445   0.00    0.0
2022/05/29 13:54:46.421    8.852038280    7.742123675   433.8657   5  28   1.8432   1.9401   5.1292   0.5339  -0.9771   1.5381   0.00    0.0
2022/05/29 13:54:47.421    8.851995436    7.742111085   438.6481   5  29   1.7547   1.9021   4.9207   0.2629  -1.2283   1.2445   0.00    0.0
2022/05/29 13:54:48.421    8.851985368    7.742102622   437.3535   5  28   1.8431   1.9402   5.1296   0.5335  -0.9772   1.5381   0.00    0.0
2022/05/29 13:54:49.421    8.852026267    7.742151274   415.3213   5  28   1.8430   1.9402   5.1298   0.5333  -0.9772   1.5380   0.00    0.0
2022/05/29 13:54:50.421    8.852025748    7.742155570   421.2734   5  29   1.7546   1.9021   4.9213   0.2614  -1.2285   1.2446   0.00    0.0
2022/05/29 13:54:51.421    8.852061187    7.742194128   401.9570   5  27   1.8729   1.9905   5.1860   0.6575  -1.1370   1.4531   0.00    0.0
2022/05/29 13:54:52.421    8.852063572    7.742187406   399.1396   5  27   1.8895   2.0092   5.7162   0.7081  -1.5070   1.1461   0.00    0.0
2022/05/29 13:54:53.421    8.852054826    7.742188562   421.9492   5  27   1.8302   1.9919   5.2096   0.5502  -1.1819   1.4858   0.00    0.0
2022/05/29 13:54:54.421    8.852045057    7.742187899   405.2327   5  28   1.7610   1.9878   5.1782   0.6051  -1.1506   1.3862   0.00    0.0
2022/05/29 13:54:55.421    8.852010203    7.742189216   390.1176   5  28   1.7609   1.9878   5.1784   0.6049  -1.1508   1.3860   0.00    0.0
2022/05/29 13:54:56.421    8.851986604    7.742156241   400.9305   5  27   1.8300   1.9919   5.2103   0.5494  -1.1823   1.4855   0.00    0.0
2022/05/29 13:54:57.421    8.852040654    7.742184237   392.3505   5  27   1.7805   2.0635   5.8257   0.7153  -1.6739   1.1025   0.00    0.0
2022/05/29 13:54:58.421    8.851985107    7.742124276   409.9900   5  29   1.7363   1.9389   5.1193   0.4869  -0.9908   1.4658   0.00    0.0
2022/05/29 13:54:59.421    8.851998765    7.742164902   410.1130   5  28   1.7606   1.9878   5.1792   0.6041  -1.1512   1.3853   0.00    0.0
2022/05/29 13:55:00.421    8.851994023    7.742123784   409.3156   5  29   1.7362   1.9389   5.1196   0.4865  -0.9909   1.4655   0.00    0.0
2022/05/29 13:55:01.421    8.851994079    7.742153966   404.6791   5  26   1.9356   2.0839   5.8538   0.8558  -1.7230   0.8825   0.00    0.0
2022/05/29 13:55:02.421    8.851965491    7.742120369   400.9673   5  28   1.7115   2.0155   5.7166   0.5423  -1.8167   0.8120   0.00    0.0
2022/05/29 13:55:03.421    8.852015658    7.742191819   418.7740   5  28   1.7114   2.0155   5.7168   0.5422  -1.8167   0.8116   0.00    0.0
2022/05/29 13:55:04.421    8.851980290    7.742202107   410.4867   5  28   1.7114   2.0155   5.7170   0.5420  -1.8167   0.8112   0.00    0.0
2022/05/29 13:55:05.421    8.851988242    7.742211474   422.9590   5  27   1.7730   2.0218   5.7396   0.4687  -1.8389   0.9446   0.00    0.0
2022/05/29 13:55:06.421    8.851962042    7.742167826   410.4193   5  28   1.7114   2.0154   5.7173   0.5417  -1.8168   0.8103   0.00    0.0
2022/05/29 13:55:07.421    8.852016625    7.742179916   409.3692   5  27   1.7729   2.0217   5.7400   0.4682  -1.8390   0.9440   0.00    0.0
2022/05/29 13:55:08.421    8.852035356    7.742189375   405.2586   5  27   1.7729   2.0217   5.7403   0.4680  -1.8391   0.9438   0.00    0.0
2022/05/29 13:55:09.421    8.852015133    7.742224141   397.7091   5  29   1.6880   1.9448   5.5479   0.3797  -1.6029   1.0215   0.00    0.0
2022/05/29 13:55:10.421    8.852049660    7.742222784   408.0529   5  28   1.7113   2.0154   5.7180   0.5410  -1.8169   0.8085   0.00    0.0
2022/05/29 13:55:11.421    8.852109052    7.742206624   405.7575   5  29   1.7313   1.9141   5.4888  -0.1690  -1.5126   1.2357   0.00    0.0
2022/05/29 13:55:12.421    8.852036193    7.742162538   399.2074   5  29   1.6838   1.9528   5.5751   0.3749  -1.6333   1.0199   0.00    0.0
2022/05/29 13:55:13.421    8.852051954    7.742141534   416.1877   5  29   1.6879   1.9447   5.5484   0.3789  -1.6028   1.0201   0.00    0.0
2022/05/29 13:55:14.421    8.852055053    7.742207313   393.4205   5  28   1.7111   2.0153   5.7188   0.5404  -1.8170   0.8067   0.00    0.0
2022/05/29 13:55:15.421    8.852044197    7.742217954   403.0058   5  29   1.6879   1.9446   5.5486   0.3785  -1.6028   1.0194   0.00    0.0
2022/05/29 13:55:16.421    8.852016696    7.742190553   398.3902   5  29   1.6837   1.9528   5.5754   0.3741  -1.6332   1.0188   0.00    0.0
2022/05/29 13:55:17.421    8.851996186    7.742159084   415.6707   5  29   1.6879   1.9446   5.5489   0.3781  -1.6027   1.0188   0.00    0.0
2022/05/29 13:55:18.421    8.851959747    7.742133888   419.6720   5  29   1.6837   1.9528   5.5755   0.3736  -1.6332   1.0182   0.00    0.0
2022/05/29 13:55:19.421    8.851979853    7.742212628   409.4349   5  29   1.6878   1.9445   5.5492   0.3777  -1.6027   1.0181   0.00    0.0
2022/05/29 13:55:20.421    8.851972784    7.742182838   402.7084   5  28   1.7448   1.9601   5.6013   0.2489  -1.6606   1.1317   0.00    0.0
2022/05/29 13:55:21.421    8.851950751    7.742172956   394.0117   5  28   1.7533   1.9888   5.6741   0.5836  -1.4404   1.2637   0.00    0.0
2022/05/29 13:55:22.421    8.851947713    7.742151361   393.0782   5  28   1.7109   2.0151   5.7202   0.5391  -1.8172   0.8032   0.00    0.0
2022/05/29 13:55:23.421    8.851953117    7.742181110   384.9405   5  28   1.7493   1.9515   5.5749   0.2559  -1.6299   1.1303   0.00    0.0
2022/05/29 13:55:24.421    8.851931620    7.742198293   391.5187   5  28   1.7109   2.0151   5.7205   0.5388  -1.8172   0.8023   0.00    0.0
2022/05/29 13:55:25.421    8.851915276    7.742128979   403.2035   5  29   1.6835   1.9527   5.5760   0.3722  -1.6330   1.0162   0.00    0.0
2022/05/29 13:55:26.421    8.852012979    7.742245263   395.5157   5  28   1.7493   1.9515   5.5754   0.2548  -1.6300   1.1296   0.00    0.0
2022/05/29 13:55:27.421    8.851983140    7.742164942   417.3748   5  28   1.7446   1.9600   5.6021   0.2464  -1.6606   1.1305   0.00    0.0
2022/05/29 13:55:28.421    8.851995030    7.742217694   396.4567   5  28   1.7108   2.0150   5.7212   0.5381  -1.8173   0.8005   0.00    0.0
2022/05/29 13:55:29.421    8.851984410    7.742180449   398.7232   5  27   1.7723   2.0214   5.7448   0.4634  -1.8402   0.9381   0.00    0.0
2022/05/29 13:55:30.421    8.852009718    7.742194993   397.8723   5  27   1.7723   2.0214   5.7450   0.4632  -1.8402   0.9379   0.00    0.0
2022/05/29 13:55:31.421    8.852032857    7.742218631   399.0111   5  29   1.6876   1.9442   5.5507   0.3751  -1.6025   1.0139   0.00    0.0
2022/05/29 13:55:32.421    8.852044040    7.742189299   391.5520   5  27   1.7722   2.0214   5.7455   0.4628  -1.8403   0.9373   0.00    0.0
2022/05/29 13:55:33.421    8.852086669    7.742228480   395.3880   5  28   1.7491   1.9513   5.5765   0.2524  -1.6301   1.1280   0.00    0.0
2022/05/29 13:55:34.421    8.852047550    7.742192044   390.1538   5  27   1.7722   2.0213   5.7459   0.4624  -1.8404   0.9368   0.00    0.0
2022/05/29 13:55:35.421    8.852064308    7.742227300   393.3032   5  29   1.6875   1.9441   5.5511   0.3743  -1.6025   1.0125   0.00    0.0
2022/05/29 13:55:36.421    8.851975244    7.742185724   399.9186   5  26   1.8094   2.0253   5.7571   0.4082  -1.8527   1.0027   0.00    0.0
2022/05/29 13:55:37.421    8.852070999    7.742215643   390.2574   5  26   1.8094   2.0253   5.7573   0.4080  -1.8528   1.0023   0.00    0.0
2022/05/29 13:55:38.421    8.852072163    7.742235316   412.2372   5  28   1.7490   1.9512   5.5773   0.2506  -1.6301   1.1268   0.00    0.0
2022/05/29 13:55:39.421    8.852075723    7.742224546   413.0386   5  28   1.7105   2.0148   5.7231   0.5364  -1.8175   0.7955   0.00    0.0
2022/05/29 13:55:40.421    8.852097337    7.742243074   392.6496   5  28   1.7490   1.9512   5.5777   0.2499  -1.6302   1.1264   0.00    0.0
2022/05/29 13:55:41.421    8.852091505    7.742251625   400.2285   5  29   1.6874   1.9440   5.5519   0.3730  -1.6024   1.0104   0.00    0.0
2022/05/29 13:55:42.421    8.852097480    7.742211605   402.3135   5  27   1.7719   2.0212   5.7476   0.4606  -1.8408   0.9346   0.00    0.0
2022/05/29 13:55:43.421    8.852065536    7.742233493   383.4356   5  27   1.8016   2.0052   5.6777   0.6134  -1.7752   0.6719   0.00    0.0
2022/05/29 13:55:44.421    8.852034677    7.742216812   397.7700   5  27   1.7430   2.0181   5.7326   0.4974  -1.8278   0.8572   0.00    0.0
2022/05/29 13:55:45.421    8.852050506    7.742247240   396.8602   5  26   1.8261   2.0984   5.9027   0.7486  -2.0370  -0.1784   0.00    0.0
2022/05/29 13:55:46.421    8.852047080    7.742210126   406.2843   5  26   1.8091   2.0252   5.7588   0.4059  -1.8530   0.9989   0.00    0.0
2022/05/29 13:55:47.421    8.852042841    7.742255237   406.0693   5  27   1.7910   2.0962   5.8974   0.7709  -2.0310  -0.3557   0.00    0.0
2022/05/29 13:55:48.421    8.852061536    7.742211679   391.3207   5  28   1.7488   1.9510   5.5790   0.2470  -1.6302   1.1245   0.00    0.0
2022/05/29 13:55:49.421    8.852001386    7.742209313   392.9379   5  28   1.7611   2.0039   5.0816   0.6273  -1.5114   0.9201   0.00    0.0
2022/05/29 13:55:50.421    8.851966400    7.742152855   411.7091   5  29   1.6828   1.9526   5.5778   0.3670  -1.6324   1.0089   0.00    0.0
2022/05/29 13:55:51.421    8.851934046    7.742154098   411.1086   5  29   1.7290   1.9569   5.5674   0.4940  -1.6319   0.8808   0.00    0.0
2022/05/29 13:55:52.421    8.851940717    7.742181700   419.4416   5  27   1.7956   2.0285   5.7504   0.5290  -1.8521   0.8477   0.00    0.0
2022/05/29 13:55:53.421    8.851971084    7.742200134   409.8991   5  27   1.7973   2.0151   5.7078   0.6093  -1.8076   0.6669   0.00    0.0
2022/05/29 13:55:54.421    8.851968286    7.742182846   410.1274   5  26   1.8472   2.0286   5.7511   0.5211  -1.8525   0.8627   0.00    0.0
2022/05/29 13:55:55.421    8.851990473    7.742186154   405.6663   5  27   1.7955   2.0285   5.7510   0.5285  -1.8522   0.8468   0.00    0.0
2022/05/29 13:55:56.421    8.852022727    7.742256380   390.3295   5  29   1.7289   1.9569   5.5678   0.4932  -1.6318   0.8789   0.00    0.0
2022/05/29 13:55:57.421    8.852035503    7.742233423   399.8125   5  27   1.7955   2.0285   5.7513   0.5282  -1.8524   0.8462   0.00    0.0
2022/05/29 13:55:58.421    8.852038468    7.742246116   410.1311   5  27   1.7954   2.0285   5.7515   0.5280  -1.8524   0.8459   0.00    0.0
2022/05/29 13:55:59.421    8.852021795    7.742202924   415.0467   5  29   1.7288   1.9569   5.5681   0.4928  -1.6318   0.8777   0.00    0.0
2022/05/29 13:56:00.421    8.851981388    7.742180813   406.5219   5  27   1.7954   2.0285   5.7518   0.5277  -1.8525   0.8454   0.00    0.0
2022/05/29 13:56:01.421    8.851951301    7.742173125   414.7614   5  26   1.8799   2.0369   5.9647   0.4187  -1.9297   1.2626   0.00    0.0
2022/05/29 13:56:02.421    8.852016266    7.742154434   414.1400   5  28   1.7780   1.9593   5.0315   0.3837  -1.4026   1.1865   0.00    0.0
2022/05/29 13:56:03.421    8.852007091    7.742186170   408.9019   5  27   1.9649   1.9213   5.1408  -0.1903  -1.3437   1.5960   0.00    0.0
2022/05/29 13:56:04.421    8.852012845    7.742214244   409.9300   5  28   1.7779   1.9593   5.0320   0.3831  -1.4029   1.1864   0.00    0.0
2022/05/29 13:56:05.421    8.852041035    7.742228484   398.2475   5  27   1.8690   1.9642   5.2053   0.2578  -1.4673   1.4747   0.00    0.0
2022/05/29 13:56:06.421    8.852009657    7.742225852   412.4010   5  28   1.7778   1.9593   5.0326   0.3824  -1.4031   1.1862   0.00    0.0
2022/05/29 13:56:07.421    8.852007653    7.742204421   400.2005   5  28   1.7777   1.9593   5.0329   0.3821  -1.4032   1.1862   0.00    0.0
2022/05/29 13:56:08.421    8.851994910    7.742196148   401.9108   5  28   1.7777   1.9594   5.0332   0.3817  -1.4034   1.1861   0.00    0.0
2022/05/29 13:56:09.421    8.852023631    7.742216556   395.8820   5  29   1.7627   1.9164   4.9609   0.2272  -1.2737   1.2659   0.00    0.0
2022/05/29 13:56:10.421    8.851984766    7.742166473   398.1388   5  27   1.8490   1.9994   5.2192   0.5897  -1.1923   1.4520   0.00    0.0
2022/05/29 13:56:11.421    8.852032799    7.742186278   400.2717   5  27   1.8687   1.9643   5.2068   0.2546  -1.4681   1.4742   0.00    0.0
2022/05/29 13:56:12.421    8.852106331    7.742220132   414.7160   5  26   1.8795   2.0370   5.9656   0.4162  -1.9302   1.2594   0.00    0.0
2022/05/29 13:56:13.421    8.852016290    7.742150630   406.9046   5  28   1.8323   1.9545   5.1572   0.4931  -1.0407   1.5185   0.00    0.0
2022/05/29 13:56:14.421    8.851995384    7.742188346   392.5034   5  25   1.9763   2.0826   6.1080   0.6618  -1.7770   1.5445   0.00    0.0
2022/05/29 13:56:15.421    8.852026936    7.742195207   416.4658   5  28   1.7773   1.9594   5.0352   0.3794  -1.4042   1.1857   0.00    0.0
2022/05/29 13:56:16.421    8.852019897    7.742209289   400.3347   5  25   2.0590   2.0995   5.8796   0.8780  -1.7550   0.9374   0.00    0.0
2022/05/29 13:56:17.421    8.852058111    7.742219308   407.2788   5  28   1.8436   1.9621   5.6091   0.5777  -1.6608   0.5758   0.00    0.0
2022/05/29 13:56:18.421    8.852047005    7.742172100   409.4907   5  27   1.8745   1.9595   5.0372   0.3907  -1.4040   1.2115   0.00    0.0
2022/05/29 13:56:19.421    8.851993322    7.742164992   403.3983   5  26   1.9809   2.0020   5.2354   0.6442  -1.1777   1.5431   0.00    0.0
2022/05/29 13:56:20.421    8.851960182    7.742159850   389.8422   5  26   1.9808   2.0020   5.2357   0.6440  -1.1778   1.5431   0.00    0.0
2022/05/29 13:56:21.421    8.852032056    7.742193392   409.8111   5  27   1.8744   1.9595   5.0381   0.3895  -1.4044   1.2117   0.00    0.0
2022/05/29 13:56:22.421    8.852021041    7.742197224   408.4652   5  26   1.9808   1.9645   5.2152   0.2500  -1.4696   1.5267   0.00    0.0
2022/05/29 13:56:23.421    8.852060795    7.742254137   401.0030   5  26   1.9807   1.9645   5.2155   0.2493  -1.4697   1.5268   0.00    0.0
2022/05/29 13:56:24.421    8.852017120    7.742230834   403.0235   5  27   1.8742   1.9596   5.0390   0.3883  -1.4048   1.2119   0.00    0.0
2022/05/29 13:56:25.421    8.852020394    7.742192812   405.3084   5  26   1.9806   1.9645   5.2160   0.2479  -1.4700   1.5268   0.00    0.0
2022/05/29 13:56:26.421    8.852026142    7.742206562   412.5149   5  26   1.9806   1.9645   5.2163   0.2472  -1.4702   1.5269   0.00    0.0
2022/05/29 13:56:27.421    8.852028023    7.742174846   423.3584   5  28   1.8420   1.9111   5.1139  -0.2832  -1.3065   1.5742   0.00    0.0
2022/05/29 13:56:28.421    8.852127177    7.742133873   441.1454   5  27   1.8741   1.9596   5.0402   0.3868  -1.4053   1.2122   0.00    0.0
2022/05/29 13:56:29.421    8.851948995    7.742106612   411.5311   5  25   2.1176   2.0036   5.4736   0.5960  -1.2291   1.8903   0.00    0.0
2022/05/29 13:56:30.421    8.851980761    7.742166371   414.0678   5  25   2.1175   2.0036   5.4738   0.5957  -1.2293   1.8902   0.00    0.0
2022/05/29 13:56:31.421    8.852005616    7.742159010   402.3063   5  24   2.1852   2.1020   6.1135   0.8352  -1.8003   1.4502   0.00    0.0
2022/05/29 13:56:32.421    8.852046447    7.742180423   400.4137   5  26   1.9262   2.0362   5.8031   0.6284  -1.8882   0.4346   0.00    0.0
2022/05/29 13:56:33.421    8.852002932    7.742186573   384.7358   5  24   2.1851   2.1020   6.1133   0.8349  -1.8003   1.4499   0.00    0.0
2022/05/29 13:56:34.421    8.852052689    7.742240119   404.2866   5  24   2.1851   2.1020   6.1132   0.8348  -1.8003   1.4497   0.00    0.0
2022/05/29 13:56:35.421    8.851963466    7.742145797   393.8102   5  25   2.1171   2.0037   5.4747   0.5943  -1.2302   1.8900   0.00    0.0
2022/05/29 13:56:36.421    8.851980574    7.742156961   390.2578   5  25   2.1171   2.0038   5.4749   0.5940  -1.2304   1.8899   0.00    0.0
2022/05/29 13:56:37.421    8.851987008    7.742145017   380.3901   5  25   2.1170   2.0038   5.4751   0.5937  -1.2306   1.8899   0.00    0.0
2022/05/29 13:56:38.421    8.851969693    7.742159152   394.8304   5  25   2.0220   2.0433   5.9973   0.5361  -1.9557   1.0585   0.00    0.0
2022/05/29 13:56:39.421    8.851949542    7.742148696   397.8052   5  23   2.2547   2.1420   6.1133   0.9616  -1.8097   1.4331   0.00    0.0
2022/05/29 13:56:40.421    8.852014776    7.742161851   411.1575   5  25   2.0587   2.0999   5.8797   0.8753  -1.7550   0.9356   0.00    0.0
2022/05/29 13:56:41.421    8.851982990    7.742161589   403.8368   5  23   2.2547   2.1420   6.1130   0.9614  -1.8095   1.4330   0.00    0.0
2022/05/29 13:56:42.421    8.851991848    7.742139108   402.2322   5  24   2.1198   2.1409   5.8829   0.9882  -1.7778   0.8817   0.00    0.0
2022/05/29 13:56:43.421    8.852017382    7.742181137   434.7278   5  25   2.0219   2.0433   5.9972   0.5347  -1.9556   1.0583   0.00    0.0
2022/05/29 13:56:44.421    8.851967055    7.742198259   397.5634   5  23   2.2547   2.1420   6.1127   0.9610  -1.8093   1.4329   0.00    0.0
2022/05/29 13:56:45.421    8.851961949    7.742222053   415.1537   5  24   2.1849   2.1022   6.1121   0.8334  -1.8003   1.4481   0.00    0.0
2022/05/29 13:56:46.421    8.851923553    7.742190737   416.8646   5  23   2.2547   2.1420   6.1125   0.9607  -1.8092   1.4329   0.00    0.0
2022/05/29 13:56:47.421    8.852076705    7.742203961   430.3089   5  25   1.9820   1.9861   5.6388   0.5016  -1.6918   0.9177   0.00    0.0
2022/05/29 13:56:48.421    8.851982096    7.742173325   417.6981   5  25   2.0202   2.0437   5.7408   0.7521  -1.5297   1.2663   0.00    0.0
2022/05/29 13:56:49.421    8.852020308    7.742197863   434.0291   5  26   1.9136   1.9628   5.6367   0.3079  -1.6778   0.9600   0.00    0.0
2022/05/29 13:56:50.421    8.851956534    7.742172095   423.5805   5  24   2.1198   2.1409   5.8828   0.9872  -1.7772   0.8824   0.00    0.0
2022/05/29 13:56:51.421    8.852078691    7.742243357   416.4531   5  25   1.9899   2.0360   5.8044   0.6241  -1.8878   0.4069   0.00    0.0
2022/05/29 13:56:52.421    8.852031132    7.742233651   430.3393   5  27   1.8730   1.9598   5.0474   0.3771  -1.4083   1.2140   0.00    0.0
2022/05/29 13:56:53.421    8.852043026    7.742165957   445.2302   5  26   1.9313   1.9602   5.0494   0.3540  -1.4100   1.2394   0.00    0.0
2022/05/29 13:56:54.421    8.852037868    7.742181096   448.3154   5  25   1.9710   2.0665   5.8116   0.7332  -1.9149   0.2609   0.00    0.0
2022/05/29 13:56:55.421    8.851987262    7.742177322   435.0744   5  26   1.9312   1.9602   5.0500   0.3532  -1.4103   1.2393   0.00    0.0
2022/05/29 13:56:56.421    8.852042716    7.742192534   442.7075   5  26   1.9311   1.9602   5.0503   0.3527  -1.4104   1.2393   0.00    0.0
2022/05/29 13:56:57.421    8.851955728    7.742167657   431.0929   5  27   1.8727   1.9599   5.0489   0.3751  -1.4089   1.2144   0.00    0.0
2022/05/29 13:56:58.421    8.852017684    7.742134868   444.3710   5  24   2.1615   2.0277   5.3661   0.8475  -1.0947   1.7497   0.00    0.0
2022/05/29 13:56:59.421    8.852017025    7.742215223   422.9147   5  24   2.0933   1.9677   5.2295   0.2335  -1.4349   1.6719   0.00    0.0
2022/05/29 13:57:00.421    8.852043768    7.742240533   401.2456   5  27   1.8523   1.9218   4.9523   0.3693  -1.2321   1.2766   0.00    0.0
2022/05/29 13:57:01.421    8.852022329    7.742218904   393.8815   5  28   1.7976   1.9029   4.9522   0.1258  -1.2383   1.2666   0.00    0.0
2022/05/29 13:57:02.421    8.852045458    7.742176375   411.0859   5  28   1.7753   1.9471   5.0287   0.3985  -1.3762   1.1343   0.00    0.0
2022/05/29 13:57:03.421    8.852031183    7.742155953   396.4738   5  28   1.7753   1.9471   5.0290   0.3981  -1.3763   1.1342   0.00    0.0
2022/05/29 13:57:04.421    8.852015744    7.742165391   408.3480   5  28   1.7753   1.9471   5.0293   0.3977  -1.3764   1.1342   0.00    0.0
2022/05/29 13:57:05.421    8.852049825    7.742180913   407.7914   5  27   1.8515   2.0041   5.1058   0.6384  -1.5205   0.9076   0.00    0.0
2022/05/29 13:57:06.421    8.852006558    7.742159181   410.6908   5  29   1.7551   1.8941   4.9385   0.1939  -1.2101   1.2411   0.00    0.0
2022/05/29 13:57:07.421    8.852040337    7.742187912   416.3843   5  27   1.8514   2.0040   5.1064   0.6379  -1.5207   0.9075   0.00    0.0
2022/05/29 13:57:08.421    8.852013103    7.742195604   409.4908   5  27   1.8514   2.0040   5.1067   0.6377  -1.5208   0.9074   0.00    0.0
2022/05/29 13:57:09.421    8.852059570    7.742200657   423.7799   5  27   1.8513   2.0040   5.1071   0.6374  -1.5209   0.9073   0.00    0.0
2022/05/29 13:57:10.421    8.852055841    7.742175131   415.8326   5  26   1.9167   2.0054   5.2270   0.6072  -1.5482   1.1727   0.00    0.0
2022/05/29 13:57:11.421    8.851983248    7.742165431   419.3644   5  27   1.7907   2.0056   5.1130   0.5808  -1.5290   0.9452   0.00    0.0
2022/05/29 13:57:12.421    8.852046938    7.742185399   414.3653   5  26   1.8510   2.0074   5.2348   0.5451  -1.5601   1.1911   0.00    0.0
2022/05/29 13:57:13.421    8.852031614    7.742177463   419.5484   5  27   1.8324   1.9496   5.1336   0.4146  -1.3942   1.2984   0.00    0.0
2022/05/29 13:57:14.421    8.852057577    7.742195733   414.2300   5  27   1.8323   1.9496   5.1338   0.4143  -1.3943   1.2981   0.00    0.0
2022/05/29 13:57:15.421    8.852049933    7.742200455   406.5345   5  28   1.8243   1.9060   5.0587   0.3188  -1.2591   1.3540   0.00    0.0
2022/05/29 13:57:16.421    8.852070195    7.742228317   387.1185   5  27   1.8322   1.9496   5.1341   0.4137  -1.3944   1.2975   0.00    0.0
2022/05/29 13:57:17.421    8.852104696    7.742216404   399.6100   5  27   1.8321   1.9496   5.1342   0.4135  -1.3945   1.2972   0.00    0.0
2022/05/29 13:57:18.421    8.852043860    7.742199098   405.9957   5  28   1.7827   1.9494   5.1326   0.4274  -1.3932   1.2749   0.00    0.0
2022/05/29 13:57:19.421    8.851996584    7.742171367   396.7838   5  28   1.7826   1.9494   5.1328   0.4271  -1.3933   1.2747   0.00    0.0
2022/05/29 13:57:20.421    8.852035631    7.742145450   403.8128   5  27   1.9147   1.9217   5.1508  -0.2057  -1.3502   1.5465   0.00    0.0
2022/05/29 13:57:21.421    8.851983953    7.742144071   417.0120   5  26   1.8767   2.0374   5.9703   0.4007  -1.9330   1.2388   0.00    0.0
2022/05/29 13:57:22.421    8.852042802    7.742160622   405.0451   5  27   1.7990   2.0183   5.8631   0.5561  -1.8500   0.9655   0.00    0.0
2022/05/29 13:57:23.421    8.852038310    7.742151252   414.2765   5  28   1.7802   1.9591   5.7194   0.4279  -1.6723   1.1252   0.00    0.0
2022/05/29 13:57:24.421    8.852041627    7.742140732   411.0225   5  28   1.7801   1.9591   5.7194   0.4278  -1.6723   1.1248   0.00    0.0
2022/05/29 13:57:25.421    8.852044527    7.742146948   408.3193   5  28   1.7822   1.9494   5.1338   0.4254  -1.3938   1.2735   0.00    0.0
2022/05/29 13:57:26.421    8.852021202    7.742159111   406.3281   5  28   1.7822   1.9495   5.1340   0.4251  -1.3939   1.2733   0.00    0.0
2022/05/29 13:57:27.421    8.852017807    7.742180222   413.8338   5  29   1.7679   1.9059   5.0604   0.2973  -1.2601   1.3474   0.00    0.0
2022/05/29 13:57:28.421    8.852017234    7.742169648   405.6951   5  26   1.8498   2.0183   5.8631   0.5520  -1.8500   0.9669   0.00    0.0
2022/05/29 13:57:29.421    8.852071192    7.742167583   413.7921   5  27   1.7988   2.0182   5.8630   0.5551  -1.8499   0.9620   0.00    0.0
2022/05/29 13:57:30.421    8.852005220    7.742158438   400.1185   5  28   1.8637   1.9059   5.0656   0.2970  -1.2601   1.3944   0.00    0.0
2022/05/29 13:57:31.421    8.851999580    7.742180028   411.1036   5  28   1.7819   1.9495   5.1348   0.4237  -1.3943   1.2723   0.00    0.0
2022/05/29 13:57:32.421    8.851954423    7.742163937   402.3996   5  27   1.8805   1.9496   5.1382   0.4368  -1.3932   1.3146   0.00    0.0
2022/05/29 13:57:33.421    8.852041406    7.742179462   415.7166   5  28   1.7807   1.9567   5.5786   0.5031  -1.6331   0.7849   0.00    0.0
2022/05/29 13:57:34.421    8.852015504    7.742148052   412.8982   5  28   1.7469   2.0148   5.7180   0.5980  -1.8083   0.6050   0.00    0.0
2022/05/29 13:57:35.421    8.851953981    7.742093991   429.1532   5  27   1.8380   1.9596   5.7206   0.4519  -1.6739   1.0911   0.00    0.0
2022/05/29 13:57:36.421    8.851968903    7.742124649   419.1489   5  28   1.7468   2.0148   5.7181   0.5977  -1.8083   0.6039   0.00    0.0
2022/05/29 13:57:37.421    8.851960350    7.742107179   421.9755   5  28   1.7468   2.0148   5.7182   0.5976  -1.8083   0.6033   0.00    0.0
2022/05/29 13:57:38.421    8.852049799    7.742208862   389.8898   5  28   1.7468   2.0148   5.7183   0.5975  -1.8083   0.6027   0.00    0.0
2022/05/29 13:57:39.421    8.852027020    7.742247676   394.5040   5  27   1.7984   2.0182   5.8628   0.5537  -1.8498   0.9571   0.00    0.0
2022/05/29 13:57:40.421    8.852030144    7.742200139   401.8546   5  26   1.8373   2.0982   6.0666   0.7227  -2.0776   0.5735   0.00    0.0
2022/05/29 13:57:41.421    8.852051124    7.742199745   405.6111   5  27   1.7983   2.0182   5.8628   0.5535  -1.8497   0.9561   0.00    0.0
2022/05/29 13:57:42.421    8.852055820    7.742201386   393.7313   5  29   1.7263   1.9559   5.5754   0.4772  -1.6294   0.8358   0.00    0.0
2022/05/29 13:57:43.421    8.852006078    7.742161389   415.5143   5  28   1.7795   1.9589   5.7185   0.4246  -1.6715   1.1167   0.00    0.0
2022/05/29 13:57:44.421    8.852081121    7.742217194   396.0463   5  28   1.7466   2.0148   5.7188   0.5967  -1.8083   0.5992   0.00    0.0
2022/05/29 13:57:45.421    8.852070906    7.742223789   415.6941   5  28   1.7466   2.0148   5.7189   0.5965  -1.8083   0.5986   0.00    0.0
2022/05/29 13:57:46.421    8.852085375    7.742190976   392.7183   5  29   1.7262   1.9558   5.5756   0.4766  -1.6292   0.8341   0.00    0.0
2022/05/29 13:57:47.421    8.852077428    7.742195611   407.7257   5  28   1.7465   2.0148   5.7191   0.5963  -1.8083   0.5974   0.00    0.0
2022/05/29 13:57:48.421    8.852045166    7.742201948   387.9999   5  30   1.6670   1.9045   5.4679   0.1652  -1.4725   1.0879   0.00    0.0
2022/05/29 13:57:49.421    8.852008714    7.742193978   404.1308   5  30   1.6669   1.9044   5.4679   0.1648  -1.4724   1.0876   0.00    0.0
2022/05/29 13:57:50.421    8.852073715    7.742234439   388.9316   5  29   1.7261   1.9558   5.5759   0.4760  -1.6291   0.8324   0.00    0.0
2022/05/29 13:57:51.421    8.852026657    7.742196074   398.6731   5  30   1.6669   1.9044   5.4679   0.1639  -1.4723   1.0871   0.00    0.0
2022/05/29 13:57:52.421    8.852009782    7.742212447   391.9153   5  29   1.7261   1.9558   5.5760   0.4757  -1.6290   0.8316   0.00    0.0
2022/05/29 13:57:53.421    8.851997976    7.742173924   405.6760   5  29   1.7261   1.9558   5.5760   0.4755  -1.6290   0.8312   0.00    0.0
2022/05/29 13:57:54.421    8.851983233    7.742185894   404.8561   5  29   1.7340   1.9053   5.5853  -0.0482  -1.4952   1.3130   0.00    0.0
2022/05/29 13:57:55.421    8.851985407    7.742189907   401.5303   5  29   1.7260   1.9557   5.5761   0.4752  -1.6290   0.8303   0.00    0.0
2022/05/29 13:57:56.421    8.851934811    7.742162897   415.6370   5  30   1.6668   1.9044   5.4680   0.1618  -1.4719   1.0856   0.00    0.0
2022/05/29 13:57:57.421    8.851948375    7.742142503   423.2644   5  27   1.8971   1.9732   5.6514   0.4578  -1.7001   0.7919   0.00    0.0
2022/05/29 13:57:58.421    8.851946628    7.742158470   409.9073   5  28   1.7729   1.9697   5.6259   0.3612  -1.6816   0.9946   0.00    0.0
2022/05/29 13:57:59.421    8.851960282    7.742128823   415.2857   5  28   1.8424   1.9602   5.6072   0.5577  -1.6526   0.5549   0.00    0.0
2022/05/29 13:58:00.421    8.851974978    7.742175996   396.8538   5  28   1.8422   1.9066   5.5961   0.2028  -1.5031   1.2235   0.00    0.0
2022/05/29 13:58:01.421    8.851937506    7.742170962   411.4945   5  28   1.7790   1.9588   5.7176   0.4215  -1.6707   1.1089   0.00    0.0
2022/05/29 13:58:02.421    8.851989851    7.742209853   400.8747   5  28   1.7789   1.9587   5.7176   0.4214  -1.6707   1.1085   0.00    0.0
2022/05/29 13:58:03.421    8.852011823    7.742207656   405.8246   5  28   1.8422   1.9065   5.5957   0.2013  -1.5028   1.2229   0.00    0.0
2022/05/29 13:58:04.421    8.852038290    7.742208496   399.5948   5  28   1.7789   1.9587   5.7175   0.4210  -1.6706   1.1076   0.00    0.0
2022/05/29 13:58:05.421    8.852033655    7.742188044   410.9010   5  29   1.7337   1.9052   5.5843  -0.0619  -1.4943   1.3092   0.00    0.0
2022/05/29 13:58:06.421    8.852052400    7.742210395   406.6563   5  28   1.7514   1.9414   5.6797   0.2981  -1.6186   1.2063   0.00    0.0
2022/05/29 13:58:07.421    8.852052270    7.742246356   398.4397   5  29   1.7337   1.9052   5.5841  -0.0641  -1.4941   1.3084   0.00    0.0
2022/05/29 13:58:08.421    8.852026880    7.742197455   402.9369   5  28   1.7787   1.9587   5.7173   0.4204  -1.6704   1.1058   0.00    0.0
2022/05/29 13:58:09.421    8.852078510    7.742227870   387.1480   5  28   1.7787   1.9587   5.7172   0.4202  -1.6703   1.1054   0.00    0.0
2022/05/29 13:58:10.421    8.852058546    7.742207617   391.8499   5  29   1.7336   1.9051   5.5839  -0.0673  -1.4939   1.3074   0.00    0.0
2022/05/29 13:58:11.421    8.852080913    7.742209764   396.5099   5  29   1.7336   1.9051   5.5838  -0.0683  -1.4938   1.3070   0.00    0.0
2022/05/29 13:58:12.421    8.852071891    7.742189189   397.3955   5  28   1.7786   1.9586   5.7170   0.4197  -1.6702   1.1041   0.00    0.0
2022/05/29 13:58:13.421    8.852072237    7.742205709   395.2785   5  30   1.6665   1.9041   5.4682   0.1542  -1.4707   1.0805   0.00    0.0
2022/05/29 13:58:14.421    8.852062327    7.742165428   403.2552   5  30   1.6665   1.9041   5.4682   0.1538  -1.4706   1.0802   0.00    0.0
2022/05/29 13:58:15.421    8.852053581    7.742227336   392.6912   5  29   1.7653   1.9059   5.0671   0.2792  -1.2627   1.3378   0.00    0.0
2022/05/29 13:58:16.421    8.852010616    7.742146085   396.8354   5  30   1.7265   1.8662   5.0018  -0.2541  -1.1316   1.4448   0.00    0.0
2022/05/29 13:58:17.421    8.852016105    7.742172476   396.3292   5  26   1.9019   2.0212   6.2045   0.4810  -1.9095   1.4650   0.00    0.0
2022/05/29 13:58:18.421    8.852011691    7.742168555   422.5798   5  28   1.8802   1.9067   5.3501   0.2075  -1.2983   1.7027   0.00    0.0
2022/05/29 13:58:19.421    8.851965627    7.742178308   415.1075   5  28   1.8430   1.9078   5.9336  -0.2650  -1.5609   1.7202   0.00    0.0
2022/05/29 13:58:20.421    8.851993346    7.742148902   417.5617   5  29   1.8408   1.8672   5.2942  -0.3237  -1.1779   1.7870   0.00    0.0
2022/05/29 13:58:21.421    8.851998370    7.742138199   419.3984   5  30   1.7506   1.8665   5.1471  -0.2766  -1.1513   1.5772   0.00    0.0
2022/05/29 13:58:22.421    8.851976936    7.742150130   422.5422   5  29   1.7549   1.9063   5.7648  -0.1698  -1.5269   1.4718   0.00    0.0
2022/05/29 13:58:23.421    8.851999480    7.742143620   431.4781   5  31   1.6567   1.8657   4.9001  -0.2136  -1.1129   1.2631   0.00    0.0
2022/05/29 13:58:24.421    8.852055295    7.742251748   397.7457   5  29   1.7254   1.9555   5.5776   0.4708  -1.6280   0.8178   0.00    0.0
2022/05/29 13:58:25.421    8.852053334    7.742242575   394.8559   5  29   1.7548   1.9063   5.7648  -0.1713  -1.5268   1.4710   0.00    0.0
2022/05/29 13:58:26.421    8.851970747    7.742155645   428.6883   5  31   1.6566   1.8657   4.9006  -0.2149  -1.1129   1.2627   0.00    0.0
2022/05/29 13:58:27.421    8.851938860    7.742179784   409.3975   5  29   1.6980   1.9322   5.4720   0.3595  -1.4920   1.0455   0.00    0.0
2022/05/29 13:58:28.421    8.851877937    7.742145515   414.2710   5  29   1.7331   1.9049   5.5822  -0.0837  -1.4924   1.3010   0.00    0.0
2022/05/29 13:58:29.421    8.851958047    7.742183788   401.1093   5  27   1.8460   1.9354   5.5858   0.4024  -1.5132   1.2517   0.00    0.0
2022/05/29 13:58:30.421    8.851899982    7.742149132   390.7021   5  30   1.7259   1.8662   5.0033  -0.2596  -1.1319   1.4423   0.00    0.0
2022/05/29 13:58:31.421    8.851988564    7.742203791   357.4787   5  30   1.6860   1.8901   4.9016   0.2189  -1.1181   1.2574   0.00    0.0
2022/05/29 13:58:32.421    8.851983278    7.742207543   382.7700   5  31   1.6564   1.8657   4.9016  -0.2176  -1.1130   1.2619   0.00    0.0
2022/05/29 13:58:33.421    8.851950243    7.742195168   388.4310   5  29   1.7589   1.9035   5.2135  -0.1157  -1.2771   1.5296   0.00    0.0
