% program   : RTKPOST ver.demo5 b34g
% inp file  : C:\Users\Abdullateef\Python_programs\GNSS programs\Smartphone GNSS Data Processing\Data\gnss_log_2022_05_29_14_51_17.22o
% inp file  : C:\Users\Abdullateef\Documents\PHD\Research on Precision Agriculture Navigation Technology\nav data\sensorlogSlim\ABFC00NGA_R_20221491400_01H_1S_MO.22D\ABFC00NGA_R_20221491400_01H_1S_MO.22D
% inp file  : C:\Users\Abdullateef\Documents\PHD\Research on Precision Agriculture Navigation Technology\nav data\sensorlogSlim\BRDM00DLR_S_20221490000_01D_MN.rnx\BRDM00DLR_S_20221490000_01D_MN.rnx
% obs start : 2022/05/29 13:51:35.4 GPST (week2212  49895.4s)
% obs end   : 2022/05/29 14:52:19.4 GPST (week2212  53539.4s)
% pos mode  : Static
% freqs     : L1+L2/E5b+L5
% solution  : Combined-No Phase Reset
% elev mask : 15.0 deg
% dynamics  : on
% tidecorr  : off
% ionos opt : Broadcast
% tropo opt : Saastamoinen
% ephemeris : Broadcast
% navi sys  : GPS GLONASS Galileo BDS
% amb res   : Fix and Hold
% amb glo   : Fix and Hold
% val thres : 3.0
% antenna1  :                       ( 0.0000  0.0000  0.0000)
% antenna2  :                       ( 0.0000  0.0000  0.0000)
% ref pos   :  9.027665666    7.486341687   532.6449
%
% (lat/lon/height=WGS84/ellipsoidal,Q=1:fix,2:float,3:sbas,4:dgps,5:single,6:ppp,ns=# of satellites)
%  GPST                  latitude(deg) longitude(deg)  height(m)   Q  ns   sdn(m)   sde(m)   sdu(m)  sdne(m)  sdeu(m)  sdun(m) age(s)  ratio
2022/05/29 13:59:30.421    8.851981881    7.742169630   400.6860   4   0   0.0160   0.0179   0.0528   0.0042  -0.0141   0.0141 -29.58    0.0
2022/05/29 13:59:31.421    8.851981878    7.742169623   400.6884   4   0   0.0160   0.0179   0.0528   0.0042  -0.0141   0.0141 -28.58    0.0
2022/05/29 13:59:32.421    8.851981885    7.742169625   400.6856   4   0   0.0160   0.0179   0.0528   0.0042  -0.0141   0.0141 -27.58    0.0
2022/05/29 13:59:33.421    8.851981882    7.742169626   400.6880   4   0   0.0160   0.0179   0.0528   0.0042  -0.0141   0.0141 -26.58    0.0
2022/05/29 13:59:34.421    8.851981886    7.742169628   400.6872   4   0   0.0160   0.0179   0.0528   0.0042  -0.0141   0.0141 -25.58    0.0
2022/05/29 13:59:35.421    8.851981882    7.742169624   400.6884   4   0   0.0160   0.0179   0.0528   0.0042  -0.0141   0.0141 -24.58    0.0
2022/05/29 13:59:36.421    8.851981883    7.742169632   400.6837   4   0   0.0160   0.0179   0.0528   0.0042  -0.0141   0.0141 -23.58    0.0
2022/05/29 13:59:37.421    8.851981880    7.742169618   400.6880   4   0   0.0160   0.0179   0.0528   0.0042  -0.0141   0.0141 -22.58    0.0
2022/05/29 13:59:38.421    8.851981869    7.742169627   400.6846   4   0   0.0160   0.0179   0.0528   0.0042  -0.0141   0.0141 -21.58    0.0
2022/05/29 13:59:39.421    8.851981871    7.742169616   400.6855   4   0   0.0160   0.0179   0.0528   0.0042  -0.0141   0.0141 -20.58    0.0
2022/05/29 13:59:40.421    8.851981881    7.742169635   400.6808   4   0   0.0160   0.0179   0.0528   0.0042  -0.0141   0.0141 -19.58    0.0
2022/05/29 13:59:41.421    8.851981875    7.742169623   400.6860   4   0   0.0160   0.0179   0.0528   0.0042  -0.0141   0.0141 -18.58    0.0
2022/05/29 13:59:42.421    8.851981870    7.742169628   400.6835   4   0   0.0160   0.0179   0.0528   0.0042  -0.0141   0.0141 -17.58    0.0
2022/05/29 13:59:43.421    8.851981880    7.742169644   400.6791   4   0   0.0160   0.0179   0.0528   0.0042  -0.0141   0.0141 -16.58    0.0
2022/05/29 13:59:44.421    8.851981870    7.742169640   400.6763   4   0   0.0160   0.0179   0.0528   0.0042  -0.0141   0.0141 -15.58    0.0
2022/05/29 13:59:45.421    8.851981867    7.742169635   400.6787   4   0   0.0160   0.0179   0.0528   0.0042  -0.0141   0.0141 -14.58    0.0
2022/05/29 13:59:46.421    8.851981865    7.742169640   400.6769   4   0   0.0160   0.0179   0.0528   0.0042  -0.0141   0.0141 -13.58    0.0
2022/05/29 13:59:47.421    8.851981871    7.742169637   400.6808   4   0   0.0160   0.0179   0.0528   0.0042  -0.0141   0.0141 -12.58    0.0
2022/05/29 13:59:48.421    8.851981868    7.742169638   400.6789   4   0   0.0160   0.0179   0.0528   0.0042  -0.0141   0.0141 -11.58    0.0
2022/05/29 13:59:49.421    8.851981867    7.742169640   400.6779   4   0   0.0160   0.0179   0.0528   0.0042  -0.0141   0.0141 -10.58    0.0
2022/05/29 13:59:50.421    8.851981876    7.742169646   400.6760   4   0   0.0160   0.0179   0.0528   0.0042  -0.0141   0.0141  -9.58    0.0
2022/05/29 13:59:51.421    8.851981871    7.742169659   400.6747   4   0   0.0160   0.0179   0.0528   0.0042  -0.0141   0.0141  -8.58    0.0
2022/05/29 13:59:52.421    8.851981878    7.742169653   400.6760   4   0   0.0160   0.0179   0.0528   0.0042  -0.0141   0.0141  -7.58    0.0
2022/05/29 13:59:53.421    8.851981870    7.742169641   400.6784   4   0   0.0160   0.0179   0.0528   0.0042  -0.0141   0.0141  -6.58    0.0
2022/05/29 13:59:54.421    8.851981873    7.742169638   400.6760   4   0   0.0160   0.0179   0.0528   0.0042  -0.0141   0.0141  -5.58    0.0
2022/05/29 13:59:55.421    8.851981866    7.742169636   400.6805   4   0   0.0160   0.0179   0.0528   0.0042  -0.0141   0.0141  -4.58    0.0
2022/05/29 13:59:56.421    8.851981867    7.742169633   400.6816   4   0   0.0160   0.0179   0.0528   0.0042  -0.0141   0.0141  -3.58    0.0
2022/05/29 13:59:57.421    8.851981868    7.742169642   400.6793   4   0   0.0160   0.0179   0.0528   0.0042  -0.0141   0.0141  -2.58    0.0
2022/05/29 13:59:58.421    8.851981878    7.742169651   400.6743   4   0   0.0160   0.0179   0.0528   0.0042  -0.0141   0.0141  -1.58    0.0
2022/05/29 13:59:59.421    8.851981875    7.742169643   400.6768   4   0   0.0160   0.0179   0.0528   0.0042  -0.0141   0.0141  -0.58    0.0
2022/05/29 14:00:00.421    8.851981879    7.742169639   400.6772   4   0   0.0160   0.0179   0.0528   0.0042  -0.0141   0.0141   0.42    0.0
2022/05/29 14:00:01.421    8.851981874    7.742169636   400.6766   4   0   0.0160   0.0179   0.0528   0.0042  -0.0141   0.0141   0.42    0.0
2022/05/29 14:00:02.421    8.851981872    7.742169647   400.6738   4   0   0.0160   0.0179   0.0528   0.0042  -0.0141   0.0141   0.42    0.0
2022/05/29 14:00:03.421    8.851981870    7.742169641   400.6758   4   0   0.0160   0.0179   0.0528   0.0042  -0.0141   0.0141   0.42    0.0
2022/05/29 14:00:04.421    8.851981871    7.742169647   400.6751   4   0   0.0160   0.0179   0.0528   0.0042  -0.0141   0.0141   0.42    0.0
2022/05/29 14:00:05.421    8.851981869    7.742169641   400.6763   4   0   0.0160   0.0179   0.0528   0.0042  -0.0141   0.0141   0.42    0.0
2022/05/29 14:00:06.421    8.851981867    7.742169644   400.6735   4   0   0.0160   0.0179   0.0528   0.0042  -0.0141   0.0141   0.42    0.0
2022/05/29 14:00:07.421    8.851981864    7.742169636   400.6778   4   0   0.0160   0.0179   0.0528   0.0042  -0.0141   0.0141   0.42    0.0
2022/05/29 14:00:08.421    8.851981860    7.742169632   400.6781   4   0   0.0160   0.0179   0.0528   0.0042  -0.0141   0.0141   0.42    0.0
2022/05/29 14:00:09.421    8.851981861    7.742169638   400.6736   4   0   0.0160   0.0179   0.0528   0.0042  -0.0141   0.0141   0.42    0.0
2022/05/29 14:00:10.421    8.851981872    7.742169649   400.6725   4   0   0.0160   0.0179   0.0528   0.0042  -0.0141   0.0141   0.42    0.0
2022/05/29 14:00:11.421    8.851981867    7.742169650   400.6668   4   0   0.0160   0.0179   0.0528   0.0042  -0.0141   0.0141   0.42    0.0
2022/05/29 14:00:12.421    8.851981869    7.742169642   400.6711   4   0   0.0160   0.0179   0.0528   0.0042  -0.0141   0.0141   0.42    0.0
2022/05/29 14:00:13.421    8.851981872    7.742169643   400.6681   4   0   0.0160   0.0179   0.0528   0.0042  -0.0141   0.0141   0.42    0.0
2022/05/29 14:00:14.421    8.851981872    7.742169639   400.6764   4   0   0.0160   0.0179   0.0528   0.0042  -0.0141   0.0141   0.42    0.0
2022/05/29 14:00:15.421    8.851981866    7.742169648   400.6678   4   0   0.0160   0.0179   0.0528   0.0042  -0.0141   0.0141   0.42    0.0
2022/05/29 14:00:16.421    8.851981861    7.742169645   400.6675   4   0   0.0160   0.0179   0.0528   0.0042  -0.0141   0.0141   0.42    0.0
2022/05/29 14:00:17.421    8.851981861    7.742169652   400.6647   4   0   0.0160   0.0179   0.0528   0.0042  -0.0141   0.0141   0.42    0.0
2022/05/29 14:00:18.421    8.851981861    7.742169654   400.6644   4   0   0.0160   0.0179   0.0528   0.0042  -0.0141   0.0141   0.42    0.0
2022/05/29 14:00:19.421    8.851981858    7.742169652   400.6629   4   0   0.0160   0.0179   0.0528   0.0042  -0.0141   0.0141   0.42    0.0
2022/05/29 14:00:20.421    8.851981850    7.742169640   400.6684   4   0   0.0160   0.0179   0.0528   0.0042  -0.0141   0.0141   0.42    0.0
2022/05/29 14:00:21.421    8.851981847    7.742169632   400.6661   4   0   0.0160   0.0179   0.0528   0.0042  -0.0141   0.0141   0.42    0.0
2022/05/29 14:00:22.421    8.851981839    7.742169635   400.6612   4   0   0.0160   0.0179   0.0528   0.0042  -0.0141   0.0141   0.42    0.0
2022/05/29 14:00:23.421    8.851981838    7.742169637   400.6631   4   0   0.0160   0.0179   0.0528   0.0042  -0.0141   0.0141   0.42    0.0
2022/05/29 14:00:24.421    8.851981826    7.742169642   400.6608   4   0   0.0160   0.0179   0.0528   0.0042  -0.0141   0.0141   0.42    0.0
2022/05/29 14:00:25.421    8.851981836    7.742169654   400.6576   4   0   0.0160   0.0179   0.0528   0.0042  -0.0141   0.0141   0.42    0.0
2022/05/29 14:00:26.421    8.851981838    7.742169656   400.6546   4   0   0.0160   0.0179   0.0528   0.0042  -0.0141   0.0141   0.42    0.0
2022/05/29 14:00:27.421    8.851981837    7.742169644   400.6589   4   0   0.0160   0.0179   0.0528   0.0042  -0.0141   0.0141   0.42    0.0
2022/05/29 14:00:28.421    8.851981828    7.742169635   400.6608   4   0   0.0160   0.0179   0.0528   0.0042  -0.0141   0.0141   0.42    0.0
2022/05/29 14:00:29.421    8.851981836    7.742169653   400.6561   4   0   0.0160   0.0179   0.0528   0.0042  -0.0141   0.0141   0.42    0.0
2022/05/29 14:00:30.421    8.851981834    7.742169650   400.6602   4   0   0.0160   0.0179   0.0528   0.0042  -0.0141   0.0141   0.42    0.0
2022/05/29 14:00:31.421    8.851981849    7.742169659   400.6552   4   0   0.0160   0.0179   0.0528   0.0042  -0.0141   0.0141   0.42    0.0
2022/05/29 14:00:32.421    8.851981841    7.742169655   400.6515   4   0   0.0160   0.0179   0.0528   0.0042  -0.0141   0.0141   0.42    0.0
2022/05/29 14:00:33.421    8.851981840    7.742169650   400.6535   4   0   0.0160   0.0179   0.0528   0.0042  -0.0141   0.0141   0.42    0.0
2022/05/29 14:00:34.421    8.851981840    7.742169655   400.6503   4   0   0.0160   0.0179   0.0528   0.0042  -0.0141   0.0141   0.42    0.0
2022/05/29 14:00:35.421    8.851981840    7.742169660   400.6519   4   0   0.0160   0.0179   0.0528   0.0042  -0.0141   0.0141   0.42    0.0
2022/05/29 14:00:36.421    8.851981840    7.742169655   400.6522   4   0   0.0160   0.0179   0.0528   0.0042  -0.0141   0.0141   0.42    0.0
2022/05/29 14:00:37.421    8.851981843    7.742169660   400.6528   4   0   0.0160   0.0179   0.0528   0.0042  -0.0141   0.0141   0.42    0.0
2022/05/29 14:00:38.421    8.851981844    7.742169655   400.6507   4   0   0.0160   0.0179   0.0528   0.0042  -0.0141   0.0141   0.42    0.0
2022/05/29 14:00:39.421    8.851981846    7.742169665   400.6504   4   0   0.0160   0.0179   0.0528   0.0042  -0.0141   0.0141   0.42    0.0
2022/05/29 14:00:40.421    8.851981846    7.742169664   400.6483   4   0   0.0160   0.0179   0.0528   0.0042  -0.0141   0.0141   0.42    0.0
2022/05/29 14:00:41.421    8.851981851    7.742169670   400.6468   4   0   0.0160   0.0179   0.0528   0.0042  -0.0141   0.0141   0.42    0.0
2022/05/29 14:00:42.421    8.851981836    7.742169659   400.6516   4   0   0.0160   0.0179   0.0528   0.0042  -0.0141   0.0141   0.42    0.0
2022/05/29 14:00:43.421    8.851981844    7.742169664   400.6493   4   0   0.0160   0.0179   0.0528   0.0042  -0.0141   0.0141   0.42    0.0
2022/05/29 14:00:44.421    8.851981848    7.742169662   400.6505   4   0   0.0160   0.0179   0.0528   0.0042  -0.0141   0.0141   0.42    0.0
2022/05/29 14:00:45.421    8.851981848    7.742169664   400.6528   4   0   0.0160   0.0179   0.0528   0.0042  -0.0141   0.0141   0.42    0.0
2022/05/29 14:00:46.421    8.851981845    7.742169666   400.6512   4   0   0.0160   0.0179   0.0528   0.0042  -0.0141   0.0141   0.42    0.0
2022/05/29 14:00:47.421    8.851981850    7.742169664   400.6488   4   0   0.0160   0.0179   0.0528   0.0042  -0.0141   0.0141   0.42    0.0
2022/05/29 14:00:48.421    8.851981840    7.742169663   400.6499   4   0   0.0160   0.0179   0.0528   0.0042  -0.0141   0.0141   0.42    0.0
2022/05/29 14:00:49.421    8.851981842    7.742169664   400.6489   4   0   0.0160   0.0179   0.0528   0.0042  -0.0141   0.0141   0.42    0.0
2022/05/29 14:00:50.421    8.851981842    7.742169680   400.6425   4   0   0.0160   0.0179   0.0528   0.0042  -0.0141   0.0141   0.42    0.0
2022/05/29 14:00:51.421    8.851981842    7.742169674   400.6434   4   0   0.0160   0.0179   0.0528   0.0042  -0.0141   0.0141   0.42    0.0
2022/05/29 14:00:52.421    8.851981840    7.742169679   400.6426   4   0   0.0160   0.0179   0.0528   0.0042  -0.0141   0.0141   0.42    0.0
2022/05/29 14:00:53.421    8.851981844    7.742169686   400.6410   4   0   0.0160   0.0179   0.0528   0.0042  -0.0141   0.0141   0.42    0.0
2022/05/29 14:00:54.421    8.851981838    7.742169682   400.6371   4   0   0.0160   0.0179   0.0528   0.0042  -0.0141   0.0141   0.42    0.0
2022/05/29 14:00:55.421    8.851981836    7.742169678   400.6463   4   0   0.0160   0.0179   0.0528   0.0042  -0.0141   0.0141   0.42    0.0
2022/05/29 14:00:56.421    8.851981822    7.742169671   400.6416   4   0   0.0160   0.0179   0.0528   0.0042  -0.0141   0.0141   0.42    0.0
2022/05/29 14:00:57.421    8.851981842    7.742169688   400.6406   4   0   0.0160   0.0179   0.0528   0.0042  -0.0141   0.0141   0.42    0.0
2022/05/29 14:00:58.421    8.851981834    7.742169678   400.6421   4   0   0.0160   0.0179   0.0528   0.0042  -0.0141   0.0141   0.42    0.0
2022/05/29 14:00:59.421    8.851981839    7.742169684   400.6401   4   0   0.0160   0.0179   0.0528   0.0042  -0.0141   0.0141   0.42    0.0
2022/05/29 14:01:00.421    8.851981836    7.742169680   400.6390   4   0   0.0160   0.0179   0.0528   0.0042  -0.0141   0.0141   0.42    0.0
2022/05/29 14:01:01.421    8.851981841    7.742169689   400.6362   4   0   0.0160   0.0179   0.0528   0.0042  -0.0141   0.0141   0.42    0.0
2022/05/29 14:01:02.421    8.851981839    7.742169687   400.6374   4   0   0.0160   0.0179   0.0528   0.0042  -0.0141   0.0141   0.42    0.0
2022/05/29 14:01:03.421    8.851981848    7.742169698   400.6369   4   0   0.0160   0.0179   0.0528   0.0042  -0.0141   0.0141   0.42    0.0
2022/05/29 14:01:04.421    8.851981843    7.742169682   400.6391   4   0   0.0160   0.0179   0.0528   0.0042  -0.0141   0.0141   0.42    0.0
2022/05/29 14:01:05.421    8.851981848    7.742169690   400.6365   4   0   0.0160   0.0179   0.0528   0.0042  -0.0141   0.0141   0.42    0.0
2022/05/29 14:01:06.421    8.851981845    7.742169686   400.6369   4   0   0.0160   0.0179   0.0528   0.0042  -0.0141   0.0141   0.42    0.0
2022/05/29 14:01:07.421    8.851981851    7.742169688   400.6360   4   0   0.0160   0.0179   0.0528   0.0042  -0.0141   0.0141   0.42    0.0
2022/05/29 14:01:08.421    8.851981841    7.742169693   400.6345   4   0   0.0160   0.0179   0.0528   0.0042  -0.0141   0.0141   0.42    0.0
2022/05/29 14:01:09.421    8.851981844    7.742169683   400.6375   4   0   0.0160   0.0179   0.0528   0.0042  -0.0141   0.0141   0.42    0.0
2022/05/29 14:01:10.421    8.851981840    7.742169683   400.6356   4   0   0.0160   0.0179   0.0528   0.0042  -0.0141   0.0141   0.42    0.0
2022/05/29 14:01:11.421    8.851981843    7.742169686   400.6370   4   0   0.0160   0.0179   0.0528   0.0042  -0.0141   0.0141   0.42    0.0
2022/05/29 14:01:12.421    8.851981839    7.742169691   400.6350   4   0   0.0160   0.0179   0.0528   0.0042  -0.0141   0.0141   0.42    0.0
2022/05/29 14:01:13.421    8.851981846    7.742169690   400.6376   4   0   0.0160   0.0179   0.0528   0.0042  -0.0141   0.0141   0.42    0.0
2022/05/29 14:01:14.421    8.851981850    7.742169692   400.6341   4   0   0.0160   0.0179   0.0528   0.0042  -0.0141   0.0141   0.42    0.0
2022/05/29 14:01:15.421    8.851981850    7.742169690   400.6366   4   0   0.0160   0.0179   0.0528   0.0042  -0.0141   0.0141   0.42    0.0
2022/05/29 14:01:16.421    8.851981849    7.742169692   400.6366   4   0   0.0160   0.0179   0.0528   0.0042  -0.0141   0.0141   0.42    0.0
2022/05/29 14:01:17.421    8.851981848    7.742169691   400.6359   4   0   0.0160   0.0179   0.0528   0.0042  -0.0141   0.0141   0.42    0.0
2022/05/29 14:01:18.421    8.851981849    7.742169694   400.6343   4   0   0.0160   0.0179   0.0528   0.0042  -0.0141   0.0141   0.42    0.0
2022/05/29 14:01:19.421    8.851981846    7.742169692   400.6343   4   0   0.0160   0.0179   0.0528   0.0042  -0.0141   0.0141   0.42    0.0
2022/05/29 14:01:20.421    8.851981848    7.742169693   400.6366   4   0   0.0160   0.0179   0.0528   0.0042  -0.0141   0.0141   0.42    0.0
2022/05/29 14:01:21.421    8.851981851    7.742169693   400.6362   4   0   0.0160   0.0179   0.0528   0.0042  -0.0141   0.0141   0.42    0.0
2022/05/29 14:01:22.421    8.851981850    7.742169697   400.6361   4   0   0.0160   0.0179   0.0528   0.0042  -0.0141   0.0141   0.42    0.0
2022/05/29 14:01:23.421    8.851981849    7.742169704   400.6331   4   0   0.0160   0.0179   0.0528   0.0042  -0.0141   0.0141   0.42    0.0
2022/05/29 14:01:24.421    8.851981846    7.742169697   400.6318   4   0   0.0160   0.0179   0.0528   0.0042  -0.0141   0.0141   0.42    0.0
2022/05/29 14:01:25.421    8.851981846    7.742169696   400.6354   4   0   0.0160   0.0179   0.0528   0.0042  -0.0141   0.0141   0.42    0.0
2022/05/29 14:01:26.421    8.851981844    7.742169704   400.6304   4   0   0.0160   0.0179   0.0528   0.0042  -0.0141   0.0141   0.42    0.0
2022/05/29 14:01:27.421    8.851981846    7.742169697   400.6355   4   0   0.0160   0.0179   0.0528   0.0042  -0.0141   0.0141   0.42    0.0
2022/05/29 14:01:28.421    8.851981847    7.742169704   400.6309   4   0   0.0160   0.0179   0.0528   0.0042  -0.0141   0.0141   0.42    0.0
2022/05/29 14:01:29.421    8.851981846    7.742169704   400.6304   4   0   0.0160   0.0179   0.0528   0.0042  -0.0141   0.0141   0.42    0.0
2022/05/29 14:01:30.421    8.851981848    7.742169705   400.6302   4   0   0.0160   0.0179   0.0528   0.0042  -0.0141   0.0141   0.42    0.0
2022/05/29 14:01:31.421    8.851981846    7.742169705   400.6304   4   0   0.0160   0.0179   0.0528   0.0042  -0.0141   0.0141   0.42    0.0
2022/05/29 14:01:32.421    8.851981839    7.742169698   400.6342   4   0   0.0160   0.0179   0.0528   0.0042  -0.0141   0.0141   0.42    0.0
2022/05/29 14:01:33.421    8.851981843    7.742169706   400.6318   4   0   0.0160   0.0179   0.0528   0.0042  -0.0141   0.0141   0.42    0.0
2022/05/29 14:01:34.421    8.851981844    7.742169710   400.6284   4   0   0.0160   0.0179   0.0528   0.0042  -0.0141   0.0141   0.42    0.0
2022/05/29 14:01:35.421    8.851981844    7.742169706   400.6286   4   0   0.0160   0.0179   0.0528   0.0042  -0.0141   0.0141   0.42    0.0
2022/05/29 14:01:36.421    8.851981835    7.742169709   400.6256   4   0   0.0160   0.0179   0.0528   0.0042  -0.0141   0.0141   0.42    0.0
2022/05/29 14:01:37.421    8.851981836    7.742169709   400.6264   4   0   0.0160   0.0179   0.0528   0.0042  -0.0141   0.0141   0.42    0.0
2022/05/29 14:01:38.421    8.851981845    7.742169705   400.6286   4   0   0.0160   0.0179   0.0528   0.0042  -0.0141   0.0141   0.42    0.0
2022/05/29 14:01:39.421    8.851981839    7.742169720   400.6265   4   0   0.0160   0.0179   0.0528   0.0042  -0.0141   0.0141   0.42    0.0
2022/05/29 14:01:40.421    8.851981843    7.742169707   400.6312   4   0   0.0160   0.0179   0.0528   0.0042  -0.0141   0.0141   0.42    0.0
2022/05/29 14:01:41.421    8.851981848    7.742169723   400.6243   4   0   0.0160   0.0179   0.0528   0.0042  -0.0141   0.0141   0.42    0.0
2022/05/29 14:01:42.421    8.851981847    7.742169711   400.6269   4   0   0.0160   0.0179   0.0528   0.0042  -0.0141   0.0141   0.42    0.0
2022/05/29 14:01:43.421    8.851981848    7.742169725   400.6279   4   0   0.0160   0.0179   0.0528   0.0042  -0.0141   0.0141   0.42    0.0
2022/05/29 14:01:44.421    8.851981846    7.742169710   400.6264   4   0   0.0160   0.0179   0.0528   0.0042  -0.0141   0.0141   0.42    0.0
2022/05/29 14:01:45.421    8.851981847    7.742169708   400.6261   4   0   0.0160   0.0179   0.0528   0.0042  -0.0141   0.0141   0.42    0.0
2022/05/29 14:01:46.421    8.851981843    7.742169711   400.6264   4   0   0.0160   0.0179   0.0528   0.0042  -0.0141   0.0141   0.42    0.0
2022/05/29 14:01:47.421    8.851981845    7.742169730   400.6224   4   0   0.0160   0.0179   0.0528   0.0042  -0.0141   0.0141   0.42    0.0
2022/05/29 14:01:48.421    8.851981849    7.742169723   400.6243   4   0   0.0160   0.0179   0.0528   0.0042  -0.0141   0.0141   0.42    0.0
2022/05/29 14:01:49.421    8.851981851    7.742169725   400.6228   4   0   0.0160   0.0179   0.0528   0.0042  -0.0141   0.0141   0.42    0.0
2022/05/29 14:01:50.421    8.851981848    7.742169724   400.6237   4   0   0.0160   0.0179   0.0528   0.0042  -0.0141   0.0141   0.42    0.0
2022/05/29 14:01:51.421    8.851981851    7.742169728   400.6245   4   0   0.0160   0.0179   0.0528   0.0042  -0.0141   0.0141   0.42    0.0
2022/05/29 14:01:52.421    8.851981851    7.742169731   400.6239   4   0   0.0160   0.0179   0.0528   0.0042  -0.0141   0.0141   0.42    0.0
2022/05/29 14:01:53.421    8.851981846    7.742169733   400.6205   4   0   0.0160   0.0179   0.0528   0.0042  -0.0141   0.0141   0.42    0.0
2022/05/29 14:01:54.421    8.851981855    7.742169734   400.6193   4   0   0.0160   0.0179   0.0528   0.0042  -0.0141   0.0141   0.42    0.0
2022/05/29 14:01:55.421    8.851981852    7.742169736   400.6164   4   0   0.0160   0.0179   0.0528   0.0042  -0.0141   0.0141   0.42    0.0
2022/05/29 14:01:56.421    8.851981856    7.742169737   400.6181   4   0   0.0160   0.0179   0.0528   0.0042  -0.0141   0.0141   0.42    0.0
2022/05/29 14:01:57.421    8.851981856    7.742169735   400.6181   4   0   0.0160   0.0179   0.0528   0.0042  -0.0141   0.0141   0.42    0.0
2022/05/29 14:01:58.421    8.851981849    7.742169734   400.6203   4   0   0.0160   0.0179   0.0528   0.0042  -0.0141   0.0141   0.42    0.0
2022/05/29 14:01:59.421    8.851981849    7.742169726   400.6224   4   0   0.0160   0.0179   0.0528   0.0042  -0.0141   0.0141   0.42    0.0
2022/05/29 14:02:00.421    8.851981856    7.742169729   400.6211   4   0   0.0160   0.0179   0.0528   0.0042  -0.0141   0.0141   0.42    0.0
2022/05/29 14:02:01.421    8.851981851    7.742169724   400.6198   4   0   0.0160   0.0179   0.0528   0.0042  -0.0141   0.0141   0.42    0.0
2022/05/29 14:02:02.421    8.851981853    7.742169732   400.6145   4   0   0.0160   0.0179   0.0528   0.0042  -0.0141   0.0141   0.42    0.0
2022/05/29 14:02:03.421    8.851981855    7.742169730   400.6185   4   0   0.0160   0.0179   0.0528   0.0042  -0.0141   0.0141   0.42    0.0
2022/05/29 14:02:04.421    8.851981850    7.742169734   400.6180   4   0   0.0160   0.0179   0.0528   0.0042  -0.0141   0.0141   0.42    0.0
2022/05/29 14:02:05.421    8.851981853    7.742169738   400.6200   4   0   0.0160   0.0179   0.0528   0.0042  -0.0141   0.0141   0.42    0.0
2022/05/29 14:02:06.421    8.851981852    7.742169741   400.6178   4   0   0.0160   0.0179   0.0528   0.0042  -0.0141   0.0141   0.42    0.0
2022/05/29 14:02:07.421    8.851981851    7.742169738   400.6177   4   0   0.0160   0.0179   0.0528   0.0042  -0.0141   0.0141   0.42    0.0
2022/05/29 14:02:08.421    8.851981859    7.742169744   400.6151   4   0   0.0160   0.0179   0.0528   0.0042  -0.0141   0.0141   0.42    0.0
2022/05/29 14:02:09.421    8.851981853    7.742169735   400.6184   4   0   0.0160   0.0179   0.0528   0.0042  -0.0141   0.0141   0.42    0.0
2022/05/29 14:02:10.421    8.851981860    7.742169735   400.6162   4   0   0.0160   0.0179   0.0528   0.0042  -0.0141   0.0141   0.42    0.0
2022/05/29 14:02:11.421    8.851981856    7.742169739   400.6178   4   0   0.0160   0.0179   0.0528   0.0042  -0.0141   0.0141   0.42    0.0
2022/05/29 14:02:12.421    8.851981859    7.742169733   400.6172   4   0   0.0160   0.0179   0.0528   0.0042  -0.0141   0.0141   0.42    0.0
2022/05/29 14:02:13.421    8.851981859    7.742169738   400.6195   4   0   0.0160   0.0179   0.0528   0.0042  -0.0141   0.0141   0.42    0.0
2022/05/29 14:02:14.421    8.851981856    7.742169742   400.6181   4   0   0.0160   0.0179   0.0528   0.0042  -0.0141   0.0141   0.42    0.0
2022/05/29 14:02:15.421    8.851981855    7.742169736   400.6168   4   0   0.0160   0.0179   0.0528   0.0042  -0.0141   0.0141   0.42    0.0
2022/05/29 14:02:16.421    8.851981862    7.742169732   400.6192   4   0   0.0160   0.0179   0.0528   0.0042  -0.0141   0.0141   0.42    0.0
2022/05/29 14:02:17.421    8.851981864    7.742169735   400.6167   4   0   0.0160   0.0179   0.0528   0.0042  -0.0141   0.0141   0.42    0.0
2022/05/29 14:02:18.421    8.851981870    7.742169735   400.6166   4   0   0.0160   0.0179   0.0528   0.0042  -0.0141   0.0141   0.42    0.0
2022/05/29 14:02:19.421    8.851981874    7.742169735   400.6148   4   0   0.0160   0.0179   0.0528   0.0042  -0.0141   0.0141   0.42    0.0
2022/05/29 14:02:20.421    8.851981863    7.742169728   400.6135   4   0   0.0160   0.0179   0.0528   0.0042  -0.0141   0.0141   0.42    0.0
2022/05/29 14:02:21.421    8.851981869    7.742169737   400.6122   4   0   0.0160   0.0179   0.0528   0.0042  -0.0141   0.0141   0.42    0.0
2022/05/29 14:02:22.421    8.851981868    7.742169738   400.6162   4   0   0.0160   0.0179   0.0528   0.0042  -0.0141   0.0141   0.42    0.0
2022/05/29 14:02:23.421    8.851981865    7.742169737   400.6161   4   0   0.0160   0.0179   0.0528   0.0042  -0.0141   0.0141   0.42    0.0
2022/05/29 14:02:24.421    8.851981865    7.742169740   400.6147   4   0   0.0160   0.0179   0.0528   0.0042  -0.0141   0.0141   0.42    0.0
2022/05/29 14:02:25.421    8.851981874    7.742169744   400.6128   4   0   0.0160   0.0179   0.0528   0.0042  -0.0141   0.0141   0.42    0.0
2022/05/29 14:02:26.421    8.851981862    7.742169738   400.6149   4   0   0.0160   0.0179   0.0528   0.0042  -0.0141   0.0141   0.42    0.0
2022/05/29 14:02:27.421    8.851981862    7.742169738   400.6151   4   0   0.0160   0.0179   0.0528   0.0042  -0.0141   0.0141   0.42    0.0
2022/05/29 14:02:28.421    8.851981860    7.742169733   400.6152   4   0   0.0160   0.0179   0.0528   0.0042  -0.0141   0.0141   0.42    0.0
2022/05/29 14:02:29.421    8.851981860    7.742169738   400.6174   4   0   0.0160   0.0179   0.0528   0.0042  -0.0141   0.0141   0.42    0.0
2022/05/29 14:02:30.421    8.851981864    7.742169733   400.6164   4   0   0.0160   0.0179   0.0528   0.0042  -0.0141   0.0141   0.42    0.0
2022/05/29 14:02:31.421    8.851981860    7.742169735   400.6155   4   0   0.0160   0.0179   0.0528   0.0042  -0.0141   0.0141   0.42    0.0
2022/05/29 14:02:32.421    8.851981862    7.742169737   400.6164   4   0   0.0160   0.0179   0.0528   0.0042  -0.0141   0.0141   0.42    0.0
2022/05/29 14:02:33.421    8.851981865    7.742169744   400.6120   4   0   0.0160   0.0179   0.0528   0.0042  -0.0141   0.0141   0.42    0.0
2022/05/29 14:02:34.421    8.851981856    7.742169740   400.6128   4   0   0.0160   0.0179   0.0528   0.0042  -0.0141   0.0141   0.42    0.0
2022/05/29 14:02:35.421    8.851981857    7.742169736   400.6119   4   0   0.0160   0.0179   0.0528   0.0042  -0.0141   0.0141   0.42    0.0
2022/05/29 14:02:36.421    8.851981866    7.742169742   400.6131   4   0   0.0160   0.0179   0.0528   0.0042  -0.0141   0.0141   0.42    0.0
2022/05/29 14:02:37.421    8.851981867    7.742169740   400.6120   4   0   0.0160   0.0179   0.0528   0.0042  -0.0141   0.0141   0.42    0.0
2022/05/29 14:02:38.421    8.851981866    7.742169734   400.6156   4   0   0.0160   0.0179   0.0528   0.0042  -0.0141   0.0141   0.42    0.0
2022/05/29 14:02:39.421    8.851981865    7.742169735   400.6139   4   0   0.0160   0.0179   0.0528   0.0042  -0.0141   0.0141   0.42    0.0
2022/05/29 14:02:40.421    8.851981862    7.742169736   400.6145   4   0   0.0160   0.0179   0.0528   0.0042  -0.0141   0.0141   0.42    0.0
2022/05/29 14:02:41.421    8.851981862    7.742169731   400.6156   4   0   0.0160   0.0179   0.0528   0.0042  -0.0141   0.0141   0.42    0.0
2022/05/29 14:02:42.421    8.851981865    7.742169739   400.6166   4   0   0.0160   0.0179   0.0528   0.0042  -0.0141   0.0141   0.42    0.0
2022/05/29 14:02:43.421    8.851981865    7.742169731   400.6169   4   0   0.0160   0.0179   0.0528   0.0042  -0.0141   0.0141   0.42    0.0
2022/05/29 14:02:44.421    8.851981861    7.742169731   400.6169   4   0   0.0160   0.0179   0.0528   0.0042  -0.0141   0.0141   0.42    0.0
2022/05/29 14:02:45.421    8.851981869    7.742169733   400.6156   4   0   0.0160   0.0179   0.0528   0.0042  -0.0141   0.0141   0.42    0.0
2022/05/29 14:02:46.421    8.851981867    7.742169748   400.6141   4   0   0.0160   0.0179   0.0528   0.0042  -0.0141   0.0141   0.42    0.0
2022/05/29 14:02:47.421    8.851981866    7.742169739   400.6172   4   0   0.0160   0.0179   0.0528   0.0042  -0.0141   0.0141   0.42    0.0
2022/05/29 14:02:48.421    8.851981865    7.742169743   400.6163   4   0   0.0160   0.0179   0.0528   0.0042  -0.0141   0.0141   0.42    0.0
2022/05/29 14:02:49.421    8.851981873    7.742169737   400.6186   4   0   0.0160   0.0179   0.0528   0.0042  -0.0141   0.0141   0.42    0.0
2022/05/29 14:02:50.421    8.851981865    7.742169737   400.6171   4   0   0.0160   0.0179   0.0528   0.0042  -0.0141   0.0141   0.42    0.0
2022/05/29 14:02:51.421    8.851981867    7.742169739   400.6167   4   0   0.0160   0.0179   0.0528   0.0042  -0.0141   0.0141   0.42    0.0
2022/05/29 14:02:52.421    8.851981858    7.742169739   400.6160   4   0   0.0160   0.0179   0.0528   0.0042  -0.0141   0.0141   0.42    0.0
2022/05/29 14:02:53.421    8.851981865    7.742169739   400.6163   4   0   0.0160   0.0179   0.0528   0.0042  -0.0141   0.0141   0.42    0.0
2022/05/29 14:02:54.421    8.851981864    7.742169741   400.6170   4   0   0.0160   0.0179   0.0528   0.0042  -0.0141   0.0141   0.42    0.0
2022/05/29 14:02:55.421    8.851981866    7.742169741   400.6162   4   0   0.0160   0.0179   0.0528   0.0042  -0.0141   0.0141   0.42    0.0
2022/05/29 14:02:56.421    8.851981866    7.742169739   400.6163   4   0   0.0160   0.0179   0.0528   0.0042  -0.0141   0.0141   0.42    0.0
2022/05/29 14:02:57.421    8.851981864    7.742169742   400.6163   4   0   0.0160   0.0179   0.0528   0.0042  -0.0141   0.0141   0.42    0.0
2022/05/29 14:02:58.421    8.851981861    7.742169739   400.6153   4   0   0.0160   0.0179   0.0528   0.0042  -0.0141   0.0141   0.42    0.0
2022/05/29 14:02:59.421    8.851981863    7.742169736   400.6164   4   0   0.0160   0.0179   0.0528   0.0042  -0.0141   0.0141   0.42    0.0
2022/05/29 14:03:00.421    8.851981877    7.742169742   400.6151   4   0   0.0160   0.0179   0.0528   0.0042  -0.0141   0.0141   0.42    0.0
2022/05/29 14:03:01.421    8.851981860    7.742169738   400.6126   4   0   0.0160   0.0179   0.0528   0.0042  -0.0141   0.0141   0.42    0.0
2022/05/29 14:03:02.421    8.851981859    7.742169733   400.6210   4   0   0.0160   0.0179   0.0528   0.0042  -0.0141   0.0141   0.42    0.0
2022/05/29 14:03:03.421    8.851981866    7.742169739   400.6150   4   0   0.0160   0.0179   0.0528   0.0042  -0.0141   0.0141   0.42    0.0
2022/05/29 14:03:04.421    8.851981870    7.742169745   400.6122   4   0   0.0160   0.0179   0.0528   0.0042  -0.0141   0.0141   0.42    0.0
2022/05/29 14:03:05.421    8.851981875    7.742169738   400.6156   4   0   0.0160   0.0179   0.0528   0.0042  -0.0141   0.0141   0.42    0.0
2022/05/29 14:03:06.421    8.851981864    7.742169730   400.6176   4   0   0.0160   0.0179   0.0528   0.0042  -0.0141   0.0141   0.42    0.0
2022/05/29 14:03:07.421    8.851981871    7.742169742   400.6136   4   0   0.0160   0.0179   0.0528   0.0042  -0.0141   0.0141   0.42    0.0
2022/05/29 14:03:08.421    8.851981863    7.742169735   400.6166   4   0   0.0160   0.0179   0.0528   0.0042  -0.0141   0.0141   0.42    0.0
2022/05/29 14:03:09.421    8.851981874    7.742169741   400.6145   4   0   0.0160   0.0179   0.0528   0.0042  -0.0141   0.0141   0.42    0.0
2022/05/29 14:03:10.421    8.851981862    7.742169746   400.6096   4   0   0.0160   0.0179   0.0528   0.0042  -0.0141   0.0141   0.42    0.0
2022/05/29 14:03:11.421    8.851981856    7.742169738   400.6133   4   0   0.0160   0.0179   0.0528   0.0042  -0.0141   0.0141   0.42    0.0
2022/05/29 14:03:12.421    8.851981863    7.742169742   400.6116   4   0   0.0160   0.0179   0.0528   0.0042  -0.0141   0.0141   0.42    0.0
2022/05/29 14:03:13.421    8.851981854    7.742169731   400.6150   4   0   0.0160   0.0179   0.0528   0.0042  -0.0141   0.0141   0.42    0.0
2022/05/29 14:03:14.421    8.851981867    7.742169744   400.6117   4   0   0.0160   0.0179   0.0528   0.0042  -0.0141   0.0141   0.42    0.0
2022/05/29 14:03:15.421    8.851981861    7.742169741   400.6134   4   0   0.0160   0.0179   0.0528   0.0042  -0.0141   0.0141   0.42    0.0
2022/05/29 14:03:16.421    8.851981862    7.742169747   400.6136   4   0   0.0160   0.0179   0.0528   0.0042  -0.0141   0.0141   0.42    0.0
2022/05/29 14:03:17.421    8.851981857    7.742169739   400.6137   4   0   0.0160   0.0179   0.0528   0.0042  -0.0141   0.0141   0.42    0.0
2022/05/29 14:03:18.421    8.851981856    7.742169743   400.6129   4   0   0.0160   0.0179   0.0528   0.0042  -0.0141   0.0141   0.42    0.0
2022/05/29 14:03:19.421    8.851981864    7.742169750   400.6129   4   0   0.0160   0.0179   0.0528   0.0042  -0.0141   0.0141   0.42    0.0
2022/05/29 14:03:20.421    8.851981862    7.742169738   400.6140   4   0   0.0160   0.0179   0.0528   0.0042  -0.0141   0.0141   0.42    0.0
2022/05/29 14:03:21.421    8.851981865    7.742169744   400.6137   4   0   0.0160   0.0179   0.0528   0.0042  -0.0141   0.0141   0.42    0.0
2022/05/29 14:03:22.421    8.851981863    7.742169734   400.6118   4   0   0.0160   0.0179   0.0528   0.0042  -0.0141   0.0141   0.42    0.0
2022/05/29 14:03:23.421    8.851981867    7.742169731   400.6147   4   0   0.0160   0.0179   0.0528   0.0042  -0.0141   0.0141   0.42    0.0
2022/05/29 14:03:24.421    8.851981860    7.742169734   400.6145   4   0   0.0160   0.0179   0.0528   0.0042  -0.0141   0.0141   0.42    0.0
2022/05/29 14:03:25.421    8.851981874    7.742169739   400.6127   4   0   0.0160   0.0179   0.0528   0.0042  -0.0141   0.0141   0.42    0.0
2022/05/29 14:03:26.421    8.851981868    7.742169742   400.6097   4   0   0.0160   0.0179   0.0528   0.0042  -0.0141   0.0141   0.42    0.0
2022/05/29 14:03:27.421    8.851981871    7.742169754   400.6100   4   0   0.0160   0.0179   0.0528   0.0042  -0.0141   0.0141   0.42    0.0
2022/05/29 14:03:28.421    8.851981872    7.742169757   400.6074   4   0   0.0160   0.0179   0.0528   0.0042  -0.0141   0.0141   0.42    0.0
2022/05/29 14:03:29.421    8.851981871    7.742169744   400.6126   4   0   0.0160   0.0179   0.0528   0.0042  -0.0141   0.0141   0.42    0.0
2022/05/29 14:03:30.421    8.851981862    7.742169746   400.6095   4   0   0.0160   0.0179   0.0528   0.0042  -0.0141   0.0141   0.42    0.0
2022/05/29 14:03:31.421    8.851981865    7.742169746   400.6099   4   0   0.0160   0.0179   0.0528   0.0042  -0.0141   0.0141   0.42    0.0
2022/05/29 14:03:32.421    8.851981877    7.742169754   400.6096   4   0   0.0160   0.0179   0.0528   0.0042  -0.0141   0.0141   0.42    0.0
2022/05/29 14:03:33.421    8.851981879    7.742169758   400.6091   4   0   0.0160   0.0179   0.0528   0.0042  -0.0141   0.0141   0.42    0.0
2022/05/29 14:03:34.421    8.851981877    7.742169757   400.6074   4   0   0.0160   0.0179   0.0528   0.0042  -0.0141   0.0141   0.42    0.0
2022/05/29 14:03:35.421    8.851981871    7.742169757   400.6067   4   0   0.0160   0.0179   0.0528   0.0042  -0.0141   0.0141   0.42    0.0
2022/05/29 14:03:36.421    8.851981875    7.742169755   400.6098   4   0   0.0160   0.0179   0.0528   0.0042  -0.0141   0.0141   0.42    0.0
2022/05/29 14:03:37.421    8.851981876    7.742169754   400.6089   4   0   0.0160   0.0179   0.0528   0.0042  -0.0141   0.0141   0.42    0.0
2022/05/29 14:03:38.421    8.851981873    7.742169754   400.6068   4   0   0.0160   0.0179   0.0528   0.0042  -0.0141   0.0141   0.42    0.0
2022/05/29 14:03:39.421    8.851981874    7.742169753   400.6088   4   0   0.0160   0.0179   0.0528   0.0042  -0.0141   0.0141   0.42    0.0
2022/05/29 14:03:40.421    8.851981880    7.742169760   400.6095   4   0   0.0160   0.0179   0.0528   0.0042  -0.0141   0.0141   0.42    0.0
2022/05/29 14:03:41.421    8.851981878    7.742169762   400.6085   4   0   0.0160   0.0179   0.0528   0.0042  -0.0141   0.0141   0.42    0.0
2022/05/29 14:03:42.421    8.851981882    7.742169765   400.6079   4   0   0.0160   0.0179   0.0528   0.0042  -0.0141   0.0141   0.42    0.0
2022/05/29 14:03:43.421    8.851981883    7.742169762   400.6072   4   0   0.0160   0.0179   0.0528   0.0042  -0.0141   0.0141   0.42    0.0
2022/05/29 14:03:44.421    8.851981880    7.742169767   400.6071   4   0   0.0160   0.0179   0.0528   0.0042  -0.0141   0.0141   0.42    0.0
2022/05/29 14:03:45.421    8.851981884    7.742169759   400.6084   4   0   0.0160   0.0179   0.0528   0.0042  -0.0141   0.0141   0.42    0.0
2022/05/29 14:03:46.421    8.851981887    7.742169765   400.6083   4   0   0.0160   0.0179   0.0528   0.0042  -0.0141   0.0141   0.42    0.0
2022/05/29 14:03:47.421    8.851981875    7.742169764   400.6053   4   0   0.0160   0.0179   0.0528   0.0042  -0.0141   0.0141   0.42    0.0
2022/05/29 14:03:48.421    8.851981897    7.742169772   400.6060   4   0   0.0160   0.0179   0.0528   0.0042  -0.0141   0.0141   0.42    0.0
2022/05/29 14:03:49.421    8.851981891    7.742169766   400.6068   4   0   0.0160   0.0179   0.0528   0.0042  -0.0141   0.0141   0.42    0.0
2022/05/29 14:03:50.421    8.851981895    7.742169766   400.6088   4   0   0.0160   0.0179   0.0528   0.0042  -0.0141   0.0141   0.42    0.0
2022/05/29 14:03:51.421    8.851981894    7.742169772   400.6035   4   0   0.0160   0.0179   0.0528   0.0042  -0.0141   0.0141   0.42    0.0
2022/05/29 14:03:52.421    8.851981898    7.742169778   400.6030   4   0   0.0160   0.0179   0.0528   0.0042  -0.0141   0.0141   0.42    0.0
2022/05/29 14:03:53.421    8.851981893    7.742169769   400.6075   4   0   0.0160   0.0179   0.0528   0.0042  -0.0141   0.0141   0.42    0.0
2022/05/29 14:03:54.421    8.851981902    7.742169778   400.6038   4   0   0.0160   0.0179   0.0528   0.0042  -0.0141   0.0141   0.42    0.0
2022/05/29 14:03:55.421    8.851981895    7.742169779   400.6036   4   0   0.0160   0.0179   0.0528   0.0042  -0.0141   0.0141   0.42    0.0
2022/05/29 14:03:56.421    8.851981893    7.742169770   400.6047   4   0   0.0160   0.0179   0.0528   0.0042  -0.0141   0.0141   0.42    0.0
2022/05/29 14:03:57.421    8.851981900    7.742169777   400.6045   4   0   0.0160   0.0179   0.0528   0.0042  -0.0141   0.0141   0.42    0.0
2022/05/29 14:03:58.421    8.851981895    7.742169772   400.6042   4   0   0.0160   0.0179   0.0528   0.0042  -0.0141   0.0141   0.42    0.0
2022/05/29 14:03:59.421    8.851981902    7.742169771   400.6048   4   0   0.0160   0.0179   0.0528   0.0042  -0.0141   0.0141   0.42    0.0
2022/05/29 14:04:00.421    8.851981893    7.742169763   400.6093   4   0   0.0160   0.0179   0.0528   0.0042  -0.0141   0.0141   0.42    0.0
2022/05/29 14:04:01.421    8.851981896    7.742169766   400.6101   4   0   0.0160   0.0179   0.0528   0.0042  -0.0141   0.0141   0.42    0.0
2022/05/29 14:04:02.421    8.851981901    7.742169763   400.6105   4   0   0.0160   0.0179   0.0528   0.0042  -0.0141   0.0141   0.42    0.0
2022/05/29 14:04:03.421    8.851981894    7.742169762   400.6098   4   0   0.0160   0.0179   0.0528   0.0042  -0.0141   0.0141   0.42    0.0
2022/05/29 14:04:04.421    8.851981896    7.742169764   400.6075   4   0   0.0160   0.0179   0.0528   0.0042  -0.0141   0.0141   0.42    0.0
2022/05/29 14:04:05.421    8.851981897    7.742169764   400.6065   4   0   0.0160   0.0179   0.0528   0.0042  -0.0141   0.0141   0.42    0.0
2022/05/29 14:04:06.421    8.851981897    7.742169771   400.6052   4   0   0.0160   0.0179   0.0528   0.0042  -0.0141   0.0141   0.42    0.0
2022/05/29 14:04:07.421    8.851981898    7.742169769   400.6038   4   0   0.0160   0.0179   0.0528   0.0042  -0.0141   0.0141   0.42    0.0
2022/05/29 14:04:08.421    8.851981898    7.742169774   400.6017   4   0   0.0160   0.0179   0.0528   0.0042  -0.0141   0.0141   0.42    0.0
2022/05/29 14:04:09.421    8.851981906    7.742169770   400.6049   4   0   0.0160   0.0179   0.0528   0.0042  -0.0141   0.0141   0.42    0.0
2022/05/29 14:04:10.421    8.851981904    7.742169766   400.6067   4   0   0.0160   0.0179   0.0528   0.0042  -0.0141   0.0141   0.42    0.0
2022/05/29 14:04:11.421    8.851981907    7.742169782   400.6014   4   0   0.0160   0.0179   0.0528   0.0042  -0.0141   0.0141   0.42    0.0
2022/05/29 14:04:12.421    8.851981911    7.742169778   400.6030   4   0   0.0160   0.0179   0.0528   0.0042  -0.0141   0.0141   0.42    0.0
2022/05/29 14:04:13.421    8.851981907    7.742169766   400.6050   4   0   0.0160   0.0179   0.0528   0.0042  -0.0141   0.0141   0.42    0.0
2022/05/29 14:04:14.421    8.851981904    7.742169772   400.6058   4   0   0.0160   0.0179   0.0528   0.0042  -0.0141   0.0141   0.42    0.0
2022/05/29 14:04:15.421    8.851981892    7.742169761   400.6073   4   0   0.0160   0.0179   0.0528   0.0042  -0.0141   0.0141   0.42    0.0
2022/05/29 14:04:16.421    8.851981900    7.742169769   400.6061   4   0   0.0160   0.0179   0.0528   0.0042  -0.0141   0.0141   0.42    0.0
2022/05/29 14:04:17.421    8.851981902    7.742169768   400.6053   4   0   0.0160   0.0179   0.0528   0.0042  -0.0141   0.0141   0.42    0.0
2022/05/29 14:04:18.421    8.851981898    7.742169770   400.6053   4   0   0.0160   0.0179   0.0528   0.0042  -0.0141   0.0141   0.42    0.0
2022/05/29 14:04:19.421    8.851981910    7.742169770   400.6053   4   0   0.0160   0.0179   0.0528   0.0042  -0.0141   0.0141   0.42    0.0
2022/05/29 14:04:20.421    8.851981902    7.742169765   400.6026   4   0   0.0160   0.0179   0.0528   0.0042  -0.0141   0.0141   0.42    0.0
2022/05/29 14:04:21.421    8.851981902    7.742169771   400.6031   4   0   0.0160   0.0179   0.0528   0.0042  -0.0141   0.0141   0.42    0.0
2022/05/29 14:04:22.421    8.851981900    7.742169767   400.6030   4   0   0.0160   0.0179   0.0528   0.0042  -0.0141   0.0141   0.42    0.0
2022/05/29 14:04:23.421    8.851981905    7.742169771   400.6039   4   0   0.0160   0.0179   0.0528   0.0042  -0.0141   0.0141   0.42    0.0
2022/05/29 14:04:24.421    8.851981907    7.742169773   400.6048   4   0   0.0160   0.0179   0.0528   0.0042  -0.0141   0.0141   0.42    0.0
2022/05/29 14:04:25.421    8.851981905    7.742169765   400.6037   4   0   0.0160   0.0179   0.0528   0.0042  -0.0141   0.0141   0.42    0.0
2022/05/29 14:04:26.421    8.851981908    7.742169766   400.6038   4   0   0.0160   0.0179   0.0528   0.0042  -0.0141   0.0141   0.42    0.0
2022/05/29 14:04:27.421    8.851981903    7.742169767   400.6020   4   0   0.0160   0.0179   0.0528   0.0042  -0.0141   0.0141   0.42    0.0
2022/05/29 14:04:28.421    8.851981906    7.742169773   400.6004   4   0   0.0160   0.0179   0.0528   0.0042  -0.0141   0.0141   0.42    0.0
2022/05/29 14:04:29.421    8.851981906    7.742169773   400.6022   4   0   0.0160   0.0179   0.0528   0.0042  -0.0141   0.0141   0.42    0.0
2022/05/29 14:04:30.421    8.851981907    7.742169779   400.5975   4   0   0.0160   0.0179   0.0528   0.0042  -0.0141   0.0141   0.42    0.0
2022/05/29 14:04:31.421    8.851981901    7.742169776   400.5989   4   0   0.0160   0.0179   0.0528   0.0042  -0.0141   0.0141   0.42    0.0
2022/05/29 14:04:32.421    8.851981897    7.742169774   400.6009   4   0   0.0160   0.0179   0.0528   0.0042  -0.0141   0.0141   0.42    0.0
2022/05/29 14:04:33.421    8.851981896    7.742169775   400.6013   4   0   0.0160   0.0179   0.0528   0.0042  -0.0141   0.0141   0.42    0.0
2022/05/29 14:04:34.421    8.851981902    7.742169769   400.6013   4   0   0.0160   0.0179   0.0528   0.0042  -0.0141   0.0141   0.42    0.0
2022/05/29 14:04:35.421    8.851981899    7.742169774   400.6013   4   0   0.0160   0.0179   0.0528   0.0042  -0.0141   0.0141   0.42    0.0
2022/05/29 14:04:36.421    8.851981898    7.742169782   400.6031   4   0   0.0160   0.0179   0.0528   0.0042  -0.0141   0.0141   0.42    0.0
2022/05/29 14:04:37.421    8.851981908    7.742169771   400.5998   4   0   0.0160   0.0179   0.0528   0.0042  -0.0141   0.0141   0.42    0.0
2022/05/29 14:04:38.421    8.851981911    7.742169784   400.6002   4   0   0.0160   0.0179   0.0528   0.0042  -0.0141   0.0141   0.42    0.0
2022/05/29 14:04:39.421    8.851981910    7.742169780   400.6026   4   0   0.0160   0.0179   0.0528   0.0042  -0.0141   0.0141   0.42    0.0
2022/05/29 14:04:40.421    8.851981909    7.742169784   400.6009   4   0   0.0160   0.0179   0.0528   0.0042  -0.0141   0.0141   0.42    0.0
2022/05/29 14:04:41.421    8.851981913    7.742169779   400.6015   4   0   0.0160   0.0179   0.0528   0.0042  -0.0141   0.0141   0.42    0.0
2022/05/29 14:04:42.421    8.851981913    7.742169775   400.6015   4   0   0.0160   0.0179   0.0528   0.0042  -0.0141   0.0141   0.42    0.0
2022/05/29 14:04:43.421    8.851981915    7.742169784   400.6006   4   0   0.0160   0.0179   0.0528   0.0042  -0.0141   0.0141   0.42    0.0
2022/05/29 14:04:44.421    8.851981911    7.742169773   400.6020   4   0   0.0160   0.0179   0.0528   0.0042  -0.0141   0.0141   0.42    0.0
2022/05/29 14:04:45.421    8.851981909    7.742169775   400.5999   4   0   0.0160   0.0179   0.0528   0.0042  -0.0141   0.0141   0.42    0.0
2022/05/29 14:04:46.421    8.851981904    7.742169771   400.6047   4   0   0.0160   0.0179   0.0528   0.0042  -0.0141   0.0141   0.42    0.0
2022/05/29 14:04:47.421    8.851981910    7.742169776   400.6026   4   0   0.0160   0.0179   0.0528   0.0042  -0.0141   0.0141   0.42    0.0
2022/05/29 14:04:48.421    8.851981912    7.742169776   400.6020   4   0   0.0160   0.0179   0.0528   0.0042  -0.0141   0.0141   0.42    0.0
2022/05/29 14:04:49.421    8.851981915    7.742169779   400.6002   4   0   0.0160   0.0179   0.0528   0.0042  -0.0141   0.0141   0.42    0.0
2022/05/29 14:04:50.421    8.851981919    7.742169787   400.5991   4   0   0.0160   0.0179   0.0528   0.0042  -0.0141   0.0141   0.42    0.0
2022/05/29 14:04:51.421    8.851981913    7.742169787   400.5962   4   0   0.0160   0.0179   0.0528   0.0042  -0.0141   0.0141   0.42    0.0
2022/05/29 14:04:52.421    8.851981911    7.742169785   400.5992   4   0   0.0160   0.0179   0.0528   0.0042  -0.0141   0.0141   0.42    0.0
2022/05/29 14:04:53.421    8.851981916    7.742169786   400.6003   4   0   0.0160   0.0179   0.0528   0.0042  -0.0141   0.0141   0.42    0.0
2022/05/29 14:04:54.421    8.851981907    7.742169783   400.5982   4   0   0.0160   0.0179   0.0528   0.0042  -0.0141   0.0141   0.42    0.0
2022/05/29 14:04:55.421    8.851981911    7.742169781   400.6010   4   0   0.0160   0.0179   0.0528   0.0042  -0.0141   0.0141   0.42    0.0
2022/05/29 14:04:56.421    8.851981912    7.742169783   400.6024   4   0   0.0160   0.0179   0.0528   0.0042  -0.0141   0.0141   0.42    0.0
2022/05/29 14:04:57.421    8.851981911    7.742169781   400.6025   4   0   0.0160   0.0179   0.0528   0.0042  -0.0141   0.0141   0.42    0.0
2022/05/29 14:04:58.421    8.851981902    7.742169785   400.5984   4   0   0.0160   0.0179   0.0528   0.0042  -0.0141   0.0141   0.42    0.0
2022/05/29 14:04:59.421    8.851981909    7.742169782   400.5993   4   0   0.0160   0.0179   0.0528   0.0042  -0.0141   0.0141   0.42    0.0
2022/05/29 14:05:00.421    8.851981902    7.742169779   400.6008   4   0   0.0160   0.0179   0.0528   0.0042  -0.0141   0.0141   0.42    0.0
2022/05/29 14:05:01.421    8.851981917    7.742169786   400.5984   4   0   0.0160   0.0179   0.0528   0.0042  -0.0141   0.0141   0.42    0.0
2022/05/29 14:05:02.421    8.851981913    7.742169786   400.5994   4   0   0.0160   0.0179   0.0528   0.0042  -0.0141   0.0141   0.42    0.0
2022/05/29 14:05:03.421    8.851981906    7.742169785   400.5991   4   0   0.0160   0.0179   0.0528   0.0042  -0.0141   0.0141   0.42    0.0
2022/05/29 14:05:04.421    8.851981912    7.742169785   400.5987   4   0   0.0160   0.0179   0.0528   0.0042  -0.0141   0.0141   0.42    0.0
2022/05/29 14:05:05.421    8.851981908    7.742169782   400.5979   4   0   0.0160   0.0179   0.0528   0.0042  -0.0141   0.0141   0.42    0.0
2022/05/29 14:05:06.421    8.851981916    7.742169794   400.5963   4   0   0.0160   0.0179   0.0528   0.0042  -0.0141   0.0141   0.42    0.0
2022/05/29 14:05:07.421    8.851981912    7.742169797   400.5923   4   0   0.0160   0.0179   0.0528   0.0042  -0.0141   0.0141   0.42    0.0
2022/05/29 14:05:08.421    8.851981911    7.742169799   400.5901   4   0   0.0160   0.0179   0.0528   0.0042  -0.0141   0.0141   0.42    0.0
2022/05/29 14:05:09.421    8.851981917    7.742169795   400.5936   4   0   0.0160   0.0179   0.0528   0.0042  -0.0141   0.0141   0.42    0.0
2022/05/29 14:05:10.421    8.851981912    7.742169794   400.5935   4   0   0.0160   0.0179   0.0528   0.0042  -0.0141   0.0141   0.42    0.0
2022/05/29 14:05:11.421    8.851981917    7.742169796   400.5949   4   0   0.0160   0.0179   0.0528   0.0042  -0.0141   0.0141   0.42    0.0
2022/05/29 14:05:12.421    8.851981915    7.742169792   400.5959   4   0   0.0160   0.0179   0.0528   0.0042  -0.0141   0.0141   0.42    0.0
2022/05/29 14:05:13.421    8.851981909    7.742169798   400.5942   4   0   0.0160   0.0179   0.0528   0.0042  -0.0141   0.0141   0.42    0.0
2022/05/29 14:05:14.421    8.851981909    7.742169796   400.5941   4   0   0.0160   0.0179   0.0528   0.0042  -0.0141   0.0141   0.42    0.0
2022/05/29 14:05:15.421    8.851981909    7.742169798   400.5938   4   0   0.0160   0.0179   0.0528   0.0042  -0.0141   0.0141   0.42    0.0
2022/05/29 14:05:16.421    8.851981907    7.742169796   400.5946   4   0   0.0160   0.0179   0.0528   0.0042  -0.0141   0.0141   0.42    0.0
2022/05/29 14:05:17.421    8.851981910    7.742169807   400.5916   4   0   0.0160   0.0179   0.0528   0.0042  -0.0141   0.0141   0.42    0.0
2022/05/29 14:05:18.421    8.851981908    7.742169803   400.5917   4   0   0.0160   0.0179   0.0528   0.0042  -0.0141   0.0141   0.42    0.0
2022/05/29 14:05:19.421    8.851981910    7.742169797   400.5927   4   0   0.0160   0.0179   0.0528   0.0042  -0.0141   0.0141   0.42    0.0
2022/05/29 14:05:20.421    8.851981909    7.742169797   400.5904   4   0   0.0160   0.0179   0.0528   0.0042  -0.0141   0.0141   0.42    0.0
2022/05/29 14:05:21.421    8.851981907    7.742169812   400.5893   4   0   0.0160   0.0179   0.0528   0.0042  -0.0141   0.0141   0.42    0.0
2022/05/29 14:05:22.421    8.851981908    7.742169809   400.5914   4   0   0.0160   0.0179   0.0528   0.0042  -0.0141   0.0141   0.42    0.0
2022/05/29 14:05:23.421    8.851981907    7.742169809   400.5908   4   0   0.0160   0.0179   0.0528   0.0042  -0.0141   0.0141   0.42    0.0
2022/05/29 14:05:24.421    8.851981906    7.742169812   400.5906   4   0   0.0160   0.0179   0.0528   0.0042  -0.0141   0.0141   0.42    0.0
2022/05/29 14:05:25.421    8.851981911    7.742169806   400.5910   4   0   0.0160   0.0179   0.0528   0.0042  -0.0141   0.0141   0.42    0.0
2022/05/29 14:05:26.421    8.851981907    7.742169812   400.5901   4   0   0.0160   0.0179   0.0528   0.0042  -0.0141   0.0141   0.42    0.0
2022/05/29 14:05:27.421    8.851981905    7.742169807   400.5900   4   0   0.0160   0.0179   0.0528   0.0042  -0.0141   0.0141   0.42    0.0
2022/05/29 14:05:28.421    8.851981908    7.742169801   400.5919   4   0   0.0160   0.0179   0.0528   0.0042  -0.0141   0.0141   0.42    0.0
2022/05/29 14:05:29.421    8.851981902    7.742169798   400.5919   4   0   0.0160   0.0179   0.0528   0.0042  -0.0141   0.0141   0.42    0.0
2022/05/29 14:05:30.421    8.851981905    7.742169803   400.5903   4   0   0.0160   0.0179   0.0528   0.0042  -0.0141   0.0141   0.42    0.0
2022/05/29 14:05:31.421    8.851981902    7.742169802   400.5891   4   0   0.0160   0.0179   0.0528   0.0042  -0.0141   0.0141   0.42    0.0
2022/05/29 14:05:32.421    8.851981902    7.742169804   400.5880   4   0   0.0160   0.0179   0.0528   0.0042  -0.0141   0.0141   0.42    0.0
2022/05/29 14:05:33.421    8.851981897    7.742169801   400.5914   4   0   0.0160   0.0179   0.0528   0.0042  -0.0141   0.0141   0.42    0.0
2022/05/29 14:05:34.421    8.851981902    7.742169804   400.5866   4   0   0.0160   0.0179   0.0528   0.0042  -0.0141   0.0141   0.42    0.0
2022/05/29 14:05:35.421    8.851981903    7.742169796   400.5920   4   0   0.0160   0.0179   0.0528   0.0042  -0.0141   0.0141   0.42    0.0
2022/05/29 14:05:36.421    8.851981897    7.742169808   400.5861   4   0   0.0160   0.0179   0.0528   0.0042  -0.0141   0.0141   0.42    0.0
2022/05/29 14:05:37.421    8.851981907    7.742169798   400.5897   4   0   0.0160   0.0179   0.0528   0.0042  -0.0141   0.0141   0.42    0.0
2022/05/29 14:05:38.421    8.851981909    7.742169803   400.5852   4   0   0.0160   0.0179   0.0528   0.0042  -0.0141   0.0141   0.42    0.0
2022/05/29 14:05:39.421    8.851981907    7.742169804   400.5869   4   0   0.0160   0.0179   0.0528   0.0042  -0.0141   0.0141   0.42    0.0
2022/05/29 14:05:40.421    8.851981906    7.742169802   400.5910   4   0   0.0160   0.0179   0.0528   0.0042  -0.0141   0.0141   0.42    0.0
2022/05/29 14:05:41.421    8.851981904    7.742169801   400.5866   4   0   0.0160   0.0179   0.0528   0.0042  -0.0141   0.0141   0.42    0.0
2022/05/29 14:05:42.421    8.851981913    7.742169797   400.5905   4   0   0.0160   0.0179   0.0528   0.0042  -0.0141   0.0141   0.42    0.0
2022/05/29 14:05:43.421    8.851981906    7.742169803   400.5891   4   0   0.0160   0.0179   0.0528   0.0042  -0.0141   0.0141   0.42    0.0
2022/05/29 14:05:44.421    8.851981906    7.742169799   400.5897   4   0   0.0160   0.0179   0.0528   0.0042  -0.0141   0.0141   0.42    0.0
2022/05/29 14:05:45.421    8.851981908    7.742169800   400.5911   4   0   0.0160   0.0179   0.0528   0.0042  -0.0141   0.0141   0.42    0.0
2022/05/29 14:05:46.421    8.851981911    7.742169801   400.5885   4   0   0.0160   0.0179   0.0528   0.0042  -0.0141   0.0141   0.42    0.0
2022/05/29 14:05:47.421    8.851981907    7.742169802   400.5880   4   0   0.0160   0.0179   0.0528   0.0042  -0.0141   0.0141   0.42    0.0
2022/05/29 14:05:48.421    8.851981918    7.742169803   400.5901   4   0   0.0160   0.0179   0.0528   0.0042  -0.0141   0.0141   0.42    0.0
2022/05/29 14:05:49.421    8.851981912    7.742169807   400.5875   4   0   0.0160   0.0179   0.0528   0.0042  -0.0141   0.0141   0.42    0.0
2022/05/29 14:05:50.421    8.851981910    7.742169795   400.5912   4   0   0.0160   0.0179   0.0528   0.0042  -0.0141   0.0141   0.42    0.0
2022/05/29 14:05:51.421    8.851981904    7.742169799   400.5928   4   0   0.0160   0.0179   0.0528   0.0042  -0.0141   0.0141   0.42    0.0
2022/05/29 14:05:52.421    8.851981912    7.742169798   400.5916   4   0   0.0160   0.0179   0.0528   0.0042  -0.0141   0.0141   0.42    0.0
2022/05/29 14:05:53.421    8.851981909    7.742169805   400.5874   4   0   0.0160   0.0179   0.0528   0.0042  -0.0141   0.0141   0.42    0.0
2022/05/29 14:05:54.421    8.851981911    7.742169802   400.5883   4   0   0.0160   0.0179   0.0528   0.0042  -0.0141   0.0141   0.42    0.0
2022/05/29 14:05:55.421    8.851981910    7.742169799   400.5903   4   0   0.0160   0.0179   0.0528   0.0042  -0.0141   0.0141   0.42    0.0
2022/05/29 14:05:56.421    8.851981911    7.742169807   400.5889   4   0   0.0160   0.0179   0.0528   0.0042  -0.0141   0.0141   0.42    0.0
2022/05/29 14:05:57.421    8.851981906    7.742169799   400.5883   4   0   0.0160   0.0179   0.0528   0.0042  -0.0141   0.0141   0.42    0.0
2022/05/29 14:05:58.421    8.851981916    7.742169804   400.5887   4   0   0.0160   0.0179   0.0528   0.0042  -0.0141   0.0141   0.42    0.0
2022/05/29 14:05:59.421    8.851981915    7.742169807   400.5922   4   0   0.0160   0.0179   0.0528   0.0042  -0.0141   0.0141   0.42    0.0
2022/05/29 14:06:00.421    8.851981917    7.742169801   400.5926   4   0   0.0160   0.0179   0.0528   0.0042  -0.0141   0.0141   0.42    0.0
2022/05/29 14:06:01.421    8.851981914    7.742169808   400.5904   4   0   0.0160   0.0179   0.0528   0.0042  -0.0141   0.0141   0.42    0.0
2022/05/29 14:06:02.421    8.851981916    7.742169808   400.5914   4   0   0.0160   0.0179   0.0528   0.0042  -0.0141   0.0141   0.42    0.0
2022/05/29 14:06:03.421    8.851981911    7.742169799   400.5904   4   0   0.0160   0.0179   0.0528   0.0042  -0.0141   0.0141   0.42    0.0
2022/05/29 14:06:04.421    8.851981914    7.742169809   400.5902   4   0   0.0160   0.0179   0.0528   0.0042  -0.0141   0.0141   0.42    0.0
2022/05/29 14:06:05.421    8.851981909    7.742169803   400.5917   4   0   0.0160   0.0179   0.0528   0.0042  -0.0141   0.0141   0.42    0.0
2022/05/29 14:06:06.421    8.851981917    7.742169806   400.5916   4   0   0.0160   0.0179   0.0528   0.0042  -0.0141   0.0141   0.42    0.0
2022/05/29 14:06:07.421    8.851981914    7.742169807   400.5929   4   0   0.0160   0.0179   0.0528   0.0042  -0.0141   0.0141   0.42    0.0
2022/05/29 14:06:08.421    8.851981914    7.742169798   400.5928   4   0   0.0160   0.0179   0.0528   0.0042  -0.0141   0.0141   0.42    0.0
2022/05/29 14:06:09.421    8.851981914    7.742169807   400.5912   4   0   0.0160   0.0179   0.0528   0.0042  -0.0141   0.0141   0.42    0.0
2022/05/29 14:06:10.421    8.851981911    7.742169803   400.5918   4   0   0.0160   0.0179   0.0528   0.0042  -0.0141   0.0141   0.42    0.0
2022/05/29 14:06:11.421    8.851981915    7.742169799   400.5912   4   0   0.0160   0.0179   0.0528   0.0042  -0.0141   0.0141   0.42    0.0
2022/05/29 14:06:12.421    8.851981921    7.742169806   400.5922   4   0   0.0160   0.0179   0.0528   0.0042  -0.0141   0.0141   0.42    0.0
2022/05/29 14:06:13.421    8.851981917    7.742169798   400.5925   4   0   0.0160   0.0179   0.0528   0.0042  -0.0141   0.0141   0.42    0.0
2022/05/29 14:06:14.421    8.851981920    7.742169805   400.5922   4   0   0.0160   0.0179   0.0528   0.0042  -0.0141   0.0141   0.42    0.0
2022/05/29 14:06:15.421    8.851981918    7.742169805   400.5924   4   0   0.0160   0.0179   0.0528   0.0042  -0.0141   0.0141   0.42    0.0
2022/05/29 14:06:16.421    8.851981925    7.742169804   400.5952   4   0   0.0160   0.0179   0.0528   0.0042  -0.0141   0.0141   0.42    0.0
2022/05/29 14:06:17.421    8.851981919    7.742169802   400.5937   4   0   0.0160   0.0179   0.0528   0.0042  -0.0141   0.0141   0.42    0.0
2022/05/29 14:06:18.421    8.851981921    7.742169803   400.5931   4   0   0.0160   0.0179   0.0528   0.0042  -0.0141   0.0141   0.42    0.0
2022/05/29 14:06:19.421    8.851981915    7.742169807   400.5920   4   0   0.0160   0.0179   0.0528   0.0042  -0.0141   0.0141   0.42    0.0
2022/05/29 14:06:20.421    8.851981921    7.742169804   400.5931   4   0   0.0160   0.0179   0.0528   0.0042  -0.0141   0.0141   0.42    0.0
2022/05/29 14:06:21.421    8.851981919    7.742169809   400.5935   4   0   0.0160   0.0179   0.0528   0.0042  -0.0141   0.0141   0.42    0.0
2022/05/29 14:06:22.421    8.851981917    7.742169801   400.5911   4   0   0.0160   0.0179   0.0528   0.0042  -0.0141   0.0141   0.42    0.0
2022/05/29 14:06:23.421    8.851981921    7.742169804   400.5929   4   0   0.0160   0.0179   0.0528   0.0042  -0.0141   0.0141   0.42    0.0
2022/05/29 14:06:24.421    8.851981921    7.742169803   400.5933   4   0   0.0160   0.0179   0.0528   0.0042  -0.0141   0.0141   0.42    0.0
