% program   : RTKPOST ver.demo5 b34g
% inp file  : C:\Users\Abdullateef\Python_programs\GNSS programs\Smartphone GNSS Data Processing\Data\gnss_log_2022_05_29_14_51_17.22o
% inp file  : C:\Users\Abdullateef\Documents\PHD\Research on Precision Agriculture Navigation Technology\nav data\sensorlogSlim\ABFC00NGA_R_20221491400_01H_1S_MO.22D\ABFC00NGA_R_20221491400_01H_1S_MO.22D
% inp file  : C:\Users\Abdullateef\Documents\PHD\Research on Precision Agriculture Navigation Technology\nav data\sensorlogSlim\BRDM00DLR_S_20221490000_01D_MN.rnx\BRDM00DLR_S_20221490000_01D_MN.rnx
% obs start : 2022/05/29 13:51:35.4 GPST (week2212  49895.4s)
% obs end   : 2022/05/29 14:52:19.4 GPST (week2212  53539.4s)
% pos mode  : Static
% freqs     : L1+L2/E5b+L5
% solution  : Combined-No Phase Reset
% elev mask : 30.0 deg
% dynamics  : on
% tidecorr  : off
% ionos opt : Broadcast
% tropo opt : Saastamoinen
% ephemeris : Broadcast
% navi sys  : GPS GLONASS Galileo BDS
% amb res   : Fix and Hold
% amb glo   : Fix and Hold
% val thres : 3.0
% antenna1  :                       ( 0.0000  0.0000  0.0000)
% antenna2  :                       ( 0.0000  0.0000  0.0000)
% ref pos   :  9.027665666    7.486341687   532.6449
%
% (lat/lon/height=WGS84/ellipsoidal,Q=1:fix,2:float,3:sbas,4:dgps,5:single,6:ppp,ns=# of satellites)
%  GPST                  latitude(deg) longitude(deg)  height(m)   Q  ns   sdn(m)   sde(m)   sdu(m)  sdne(m)  sdeu(m)  sdun(m) age(s)  ratio
2022/05/29 13:59:30.421    8.851980709    7.742175684   396.4906   4   0   0.0224   0.0215   0.0822   0.0025  -0.0040   0.0026 -29.58    0.0
2022/05/29 13:59:31.421    8.851980702    7.742175676   396.4946   4   0   0.0224   0.0215   0.0822   0.0025  -0.0040   0.0026 -28.58    0.0
2022/05/29 13:59:32.421    8.851980708    7.742175686   396.4907   4   0   0.0224   0.0215   0.0822   0.0025  -0.0040   0.0026 -27.58    0.0
2022/05/29 13:59:33.421    8.851980708    7.742175680   396.4954   4   0   0.0224   0.0215   0.0822   0.0025  -0.0040   0.0026 -26.58    0.0
2022/05/29 13:59:34.421    8.851980710    7.742175686   396.4921   4   0   0.0224   0.0215   0.0822   0.0025  -0.0040   0.0026 -25.58    0.0
2022/05/29 13:59:35.421    8.851980701    7.742175673   396.4964   4   0   0.0224   0.0215   0.0822   0.0025  -0.0040   0.0026 -24.58    0.0
2022/05/29 13:59:36.421    8.851980702    7.742175681   396.4870   4   0   0.0224   0.0215   0.0822   0.0025  -0.0040   0.0026 -23.58    0.0
2022/05/29 13:59:37.421    8.851980697    7.742175669   396.4930   4   0   0.0224   0.0215   0.0822   0.0025  -0.0040   0.0026 -22.58    0.0
2022/05/29 13:59:38.421    8.851980686    7.742175675   396.4818   4   0   0.0224   0.0215   0.0822   0.0025  -0.0040   0.0026 -21.58    0.0
2022/05/29 13:59:39.421    8.851980690    7.742175666   396.4909   4   0   0.0224   0.0215   0.0822   0.0025  -0.0040   0.0026 -20.58    0.0
2022/05/29 13:59:40.421    8.851980700    7.742175687   396.4778   4   0   0.0224   0.0215   0.0822   0.0025  -0.0040   0.0026 -19.58    0.0
2022/05/29 13:59:41.421    8.851980690    7.742175669   396.4853   4   0   0.0224   0.0215   0.0822   0.0025  -0.0040   0.0026 -18.58    0.0
2022/05/29 13:59:42.421    8.851980684    7.742175670   396.4804   4   0   0.0224   0.0215   0.0822   0.0025  -0.0040   0.0026 -17.58    0.0
2022/05/29 13:59:43.421    8.851980697    7.742175689   396.4726   4   0   0.0224   0.0215   0.0822   0.0025  -0.0040   0.0026 -16.58    0.0
2022/05/29 13:59:44.421    8.851980682    7.742175680   396.4704   4   0   0.0224   0.0215   0.0822   0.0025  -0.0040   0.0025 -15.58    0.0
2022/05/29 13:59:45.421    8.851980676    7.742175667   396.4786   4   0   0.0224   0.0215   0.0822   0.0025  -0.0040   0.0025 -14.58    0.0
2022/05/29 13:59:46.421    8.851980671    7.742175675   396.4732   4   0   0.0224   0.0215   0.0822   0.0025  -0.0040   0.0025 -13.58    0.0
2022/05/29 13:59:47.421    8.851980674    7.742175670   396.4816   4   0   0.0224   0.0215   0.0822   0.0025  -0.0040   0.0026 -12.58    0.0
2022/05/29 13:59:48.421    8.851980675    7.742175672   396.4760   4   0   0.0224   0.0215   0.0822   0.0025  -0.0040   0.0026 -11.58    0.0
2022/05/29 13:59:49.421    8.851980665    7.742175670   396.4720   4   0   0.0224   0.0215   0.0822   0.0025  -0.0040   0.0025 -10.58    0.0
2022/05/29 13:59:50.421    8.851980679    7.742175679   396.4667   4   0   0.0224   0.0215   0.0822   0.0025  -0.0040   0.0025  -9.58    0.0
2022/05/29 13:59:51.421    8.851980676    7.742175689   396.4657   4   0   0.0224   0.0215   0.0822   0.0025  -0.0040   0.0026  -8.58    0.0
2022/05/29 13:59:52.421    8.851980685    7.742175686   396.4651   4   0   0.0224   0.0215   0.0822   0.0025  -0.0040   0.0026  -7.58    0.0
2022/05/29 13:59:53.421    8.851980667    7.742175673   396.4690   4   0   0.0224   0.0215   0.0822   0.0025  -0.0040   0.0026  -6.58    0.0
2022/05/29 13:59:54.421    8.851980668    7.742175674   396.4665   4   0   0.0224   0.0215   0.0822   0.0025  -0.0040   0.0026  -5.58    0.0
2022/05/29 13:59:55.421    8.851980658    7.742175665   396.4710   4   0   0.0224   0.0215   0.0822   0.0025  -0.0040   0.0025  -4.58    0.0
2022/05/29 13:59:56.421    8.851980655    7.742175659   396.4725   4   0   0.0224   0.0215   0.0822   0.0025  -0.0040   0.0026  -3.58    0.0
2022/05/29 13:59:57.421    8.851980662    7.742175668   396.4668   4   0   0.0224   0.0215   0.0822   0.0025  -0.0040   0.0025  -2.58    0.0
2022/05/29 13:59:58.421    8.851980671    7.742175679   396.4577   4   0   0.0224   0.0215   0.0822   0.0025  -0.0040   0.0025  -1.58    0.0
2022/05/29 13:59:59.421    8.851980671    7.742175671   396.4612   4   0   0.0224   0.0215   0.0822   0.0025  -0.0040   0.0026  -0.58    0.0
2022/05/29 14:00:00.421    8.851980671    7.742175669   396.4615   4   0   0.0224   0.0215   0.0822   0.0025  -0.0040   0.0025   0.42    0.0
2022/05/29 14:00:01.421    8.851980659    7.742175669   396.4616   4   0   0.0224   0.0215   0.0822   0.0025  -0.0040   0.0025   0.42    0.0
2022/05/29 14:00:02.421    8.851980659    7.742175671   396.4559   4   0   0.0224   0.0215   0.0822   0.0025  -0.0040   0.0026   0.42    0.0
2022/05/29 14:00:03.421    8.851980658    7.742175668   396.4595   4   0   0.0224   0.0215   0.0822   0.0025  -0.0040   0.0026   0.42    0.0
2022/05/29 14:00:04.421    8.851980658    7.742175671   396.4556   4   0   0.0224   0.0215   0.0822   0.0025  -0.0040   0.0026   0.42    0.0
2022/05/29 14:00:05.421    8.851980653    7.742175667   396.4595   4   0   0.0224   0.0215   0.0822   0.0025  -0.0040   0.0026   0.42    0.0
2022/05/29 14:00:06.421    8.851980653    7.742175665   396.4514   4   0   0.0224   0.0215   0.0822   0.0025  -0.0040   0.0026   0.42    0.0
2022/05/29 14:00:07.421    8.851980649    7.742175661   396.4611   4   0   0.0224   0.0215   0.0822   0.0025  -0.0040   0.0026   0.42    0.0
2022/05/29 14:00:08.421    8.851980645    7.742175657   396.4585   4   0   0.0224   0.0215   0.0822   0.0025  -0.0040   0.0026   0.42    0.0
2022/05/29 14:00:09.421    8.851980644    7.742175660   396.4528   4   0   0.0224   0.0215   0.0822   0.0025  -0.0040   0.0026   0.42    0.0
2022/05/29 14:00:10.421    8.851980662    7.742175676   396.4504   4   0   0.0224   0.0215   0.0822   0.0025  -0.0040   0.0026   0.42    0.0
2022/05/29 14:00:11.421    8.851980659    7.742175677   396.4434   4   0   0.0224   0.0215   0.0822   0.0025  -0.0040   0.0026   0.42    0.0
2022/05/29 14:00:12.421    8.851980649    7.742175672   396.4508   4   0   0.0224   0.0215   0.0822   0.0025  -0.0040   0.0026   0.42    0.0
2022/05/29 14:00:13.421    8.851980654    7.742175678   396.4483   4   0   0.0224   0.0215   0.0822   0.0025  -0.0040   0.0026   0.42    0.0
2022/05/29 14:00:14.421    8.851980650    7.742175666   396.4578   4   0   0.0224   0.0215   0.0822   0.0025  -0.0040   0.0026   0.42    0.0
2022/05/29 14:00:15.421    8.851980644    7.742175678   396.4415   4   0   0.0224   0.0215   0.0822   0.0025  -0.0040   0.0026   0.42    0.0
2022/05/29 14:00:16.421    8.851980643    7.742175672   396.4414   4   0   0.0224   0.0215   0.0822   0.0025  -0.0040   0.0026   0.42    0.0
2022/05/29 14:00:17.421    8.851980639    7.742175675   396.4365   4   0   0.0224   0.0215   0.0822   0.0025  -0.0040   0.0026   0.42    0.0
2022/05/29 14:00:18.421    8.851980639    7.742175676   396.4347   4   0   0.0224   0.0215   0.0822   0.0025  -0.0040   0.0026   0.42    0.0
2022/05/29 14:00:19.421    8.851980632    7.742175679   396.4312   4   0   0.0224   0.0215   0.0822   0.0025  -0.0040   0.0025   0.42    0.0
2022/05/29 14:00:20.421    8.851980619    7.742175661   396.4392   4   0   0.0224   0.0215   0.0822   0.0025  -0.0040   0.0026   0.42    0.0
2022/05/29 14:00:21.421    8.851980619    7.742175661   396.4408   4   0   0.0224   0.0215   0.0822   0.0025  -0.0040   0.0026   0.42    0.0
2022/05/29 14:00:22.421    8.851980618    7.742175661   396.4317   4   0   0.0224   0.0215   0.0822   0.0025  -0.0040   0.0026   0.42    0.0
2022/05/29 14:00:23.421    8.851980632    7.742175670   396.4394   4   0   0.0224   0.0215   0.0822   0.0025  -0.0040   0.0025   0.42    0.0
2022/05/29 14:00:24.421    8.851980638    7.742175679   396.4286   4   0   0.0224   0.0215   0.0822   0.0025  -0.0040   0.0025   0.42    0.0
2022/05/29 14:00:25.421    8.851980652    7.742175690   396.4229   4   0   0.0224   0.0215   0.0822   0.0025  -0.0040   0.0026   0.42    0.0
2022/05/29 14:00:26.421    8.851980647    7.742175690   396.4264   4   0   0.0224   0.0215   0.0822   0.0025  -0.0040   0.0025   0.42    0.0
2022/05/29 14:00:27.421    8.851980645    7.742175675   396.4334   4   0   0.0224   0.0215   0.0822   0.0025  -0.0040   0.0025   0.42    0.0
2022/05/29 14:00:30.421    8.851980633    7.742175666   396.4371   4   0   0.0224   0.0215   0.0822   0.0025  -0.0040   0.0026   0.42    0.0
2022/05/29 14:00:31.421    8.851980653    7.742175685   396.4316   4   0   0.0224   0.0215   0.0822   0.0025  -0.0040   0.0025   0.42    0.0
2022/05/29 14:00:32.421    8.851980652    7.742175695   396.4195   4   0   0.0224   0.0215   0.0822   0.0025  -0.0040   0.0026   0.42    0.0
2022/05/29 14:00:34.421    8.851980652    7.742175693   396.4102   4   0   0.0224   0.0215   0.0822   0.0025  -0.0040   0.0026   0.42    0.0
2022/05/29 14:00:35.421    8.851980656    7.742175695   396.4129   4   0   0.0224   0.0215   0.0822   0.0025  -0.0040   0.0026   0.42    0.0
2022/05/29 14:00:36.421    8.851980651    7.742175691   396.4163   4   0   0.0224   0.0215   0.0822   0.0025  -0.0040   0.0026   0.42    0.0
2022/05/29 14:00:37.421    8.851980647    7.742175694   396.4118   4   0   0.0224   0.0215   0.0822   0.0025  -0.0040   0.0026   0.42    0.0
2022/05/29 14:00:38.421    8.851980651    7.742175698   396.4080   4   0   0.0224   0.0215   0.0822   0.0025  -0.0040   0.0026   0.42    0.0
2022/05/29 14:00:39.421    8.851980649    7.742175707   396.4045   4   0   0.0224   0.0215   0.0822   0.0025  -0.0040   0.0026   0.42    0.0
2022/05/29 14:00:40.421    8.851980635    7.742175701   396.4048   4   0   0.0224   0.0215   0.0822   0.0025  -0.0039   0.0025   0.42    0.0
2022/05/29 14:00:41.421    8.851980637    7.742175707   396.4037   4   0   0.0224   0.0215   0.0822   0.0025  -0.0039   0.0025   0.42    0.0
2022/05/29 14:00:42.421    8.851980628    7.742175689   396.4094   4   0   0.0224   0.0215   0.0822   0.0025  -0.0040   0.0025   0.42    0.0
2022/05/29 14:00:44.421    8.851980645    7.742175700   396.4075   4   0   0.0224   0.0215   0.0822   0.0025  -0.0040   0.0025   0.42    0.0
2022/05/29 14:00:45.421    8.851980640    7.742175696   396.4039   4   0   0.0224   0.0215   0.0822   0.0025  -0.0040   0.0025   0.42    0.0
2022/05/29 14:00:46.421    8.851980637    7.742175695   396.3997   4   0   0.0224   0.0215   0.0822   0.0025  -0.0040   0.0025   0.42    0.0
2022/05/29 14:00:47.421    8.851980643    7.742175697   396.3968   4   0   0.0224   0.0215   0.0822   0.0025  -0.0040   0.0026   0.42    0.0
2022/05/29 14:00:48.421    8.851980638    7.742175693   396.4014   4   0   0.0224   0.0215   0.0822   0.0025  -0.0040   0.0026   0.42    0.0
2022/05/29 14:00:49.421    8.851980629    7.742175689   396.3986   4   0   0.0224   0.0215   0.0822   0.0025  -0.0040   0.0026   0.42    0.0
2022/05/29 14:00:50.421    8.851980636    7.742175714   396.3824   4   0   0.0224   0.0215   0.0822   0.0025  -0.0040   0.0026   0.42    0.0
2022/05/29 14:00:51.421    8.851980621    7.742175704   396.3860   4   0   0.0224   0.0215   0.0822   0.0025  -0.0039   0.0026   0.42    0.0
2022/05/29 14:00:53.421    8.851980625    7.742175714   396.3817   4   0   0.0224   0.0215   0.0822   0.0025  -0.0039   0.0026   0.42    0.0
2022/05/29 14:00:54.421    8.851980617    7.742175701   396.3837   4   0   0.0224   0.0215   0.0822   0.0025  -0.0039   0.0026   0.42    0.0
2022/05/29 14:00:55.421    8.851980462    7.742175307   396.6271   4   0   0.0225   0.0217   0.0830   0.0026  -0.0054   0.0040   0.42    0.0
2022/05/29 14:00:56.421    8.851980589    7.742175692   396.3709   4   0   0.0224   0.0215   0.0822   0.0025  -0.0040   0.0026   0.42    0.0
2022/05/29 14:00:58.421    8.851980607    7.742175707   396.3699   4   0   0.0224   0.0216   0.0822   0.0025  -0.0040   0.0026   0.42    0.0
2022/05/29 14:00:59.421    8.851980615    7.742175708   396.3681   4   0   0.0224   0.0216   0.0822   0.0025  -0.0040   0.0026   0.42    0.0
2022/05/29 14:01:00.421    8.851980612    7.742175707   396.3678   4   0   0.0224   0.0216   0.0822   0.0025  -0.0040   0.0026   0.42    0.0
2022/05/29 14:01:02.421    8.851980611    7.742175713   396.3645   4   0   0.0224   0.0216   0.0822   0.0025  -0.0040   0.0026   0.42    0.0
2022/05/29 14:01:03.421    8.851980626    7.742175729   396.3571   4   0   0.0224   0.0215   0.0822   0.0025  -0.0040   0.0026   0.42    0.0
2022/05/29 14:01:04.421    8.851980613    7.742175711   396.3674   4   0   0.0224   0.0216   0.0822   0.0025  -0.0040   0.0026   0.42    0.0
2022/05/29 14:01:05.421    8.851980618    7.742175717   396.3650   4   0   0.0224   0.0216   0.0822   0.0025  -0.0040   0.0026   0.42    0.0
2022/05/29 14:01:07.421    8.852019634    7.742179436   379.1507   4   0   0.2716   0.2815   0.8489  -0.1709   0.3924  -0.3515   0.42    0.0
2022/05/29 14:01:10.421    8.851980623    7.742175727   396.3554   4   0   0.0224   0.0215   0.0822   0.0025  -0.0040   0.0025   0.42    0.0
2022/05/29 14:01:12.421    8.851980622    7.742175733   396.3540   4   0   0.0224   0.0215   0.0822   0.0025  -0.0040   0.0026   0.42    0.0
2022/05/29 14:01:14.421    8.851980625    7.742175733   396.3564   4   0   0.0224   0.0215   0.0822   0.0025  -0.0040   0.0026   0.42    0.0
2022/05/29 14:01:15.421    8.851980626    7.742175733   396.3574   4   0   0.0224   0.0215   0.0822   0.0025  -0.0040   0.0026   0.42    0.0
2022/05/29 14:01:16.421    8.851980627    7.742175732   396.3580   4   0   0.0224   0.0215   0.0822   0.0025  -0.0040   0.0026   0.42    0.0
2022/05/29 14:01:17.421    8.851980627    7.742175732   396.3580   4   0   0.0224   0.0215   0.0822   0.0025  -0.0040   0.0026   0.42    0.0
2022/05/29 14:01:19.421    8.851980625    7.742175732   396.3559   4   0   0.0224   0.0215   0.0822   0.0025  -0.0040   0.0026   0.42    0.0
2022/05/29 14:01:20.421    8.851980628    7.742175732   396.3581   4   0   0.0224   0.0215   0.0822   0.0025  -0.0040   0.0026   0.42    0.0
2022/05/29 14:01:21.421    8.851980630    7.742175734   396.3588   4   0   0.0224   0.0215   0.0822   0.0025  -0.0040   0.0026   0.42    0.0
2022/05/29 14:01:22.421    8.851980627    7.742175732   396.3574   4   0   0.0224   0.0215   0.0822   0.0025  -0.0040   0.0026   0.42    0.0
2022/05/29 14:01:23.421    8.851980633    7.742175743   396.3498   4   0   0.0224   0.0215   0.0822   0.0025  -0.0039   0.0026   0.42    0.0
2022/05/29 14:01:24.421    8.851980631    7.742175739   396.3475   4   0   0.0224   0.0215   0.0822   0.0025  -0.0040   0.0026   0.42    0.0
2022/05/29 14:01:25.421    8.851980627    7.742175737   396.3556   4   0   0.0224   0.0215   0.0822   0.0025  -0.0039   0.0026   0.42    0.0
2022/05/29 14:01:26.421    8.851980631    7.742175746   396.3470   4   0   0.0224   0.0215   0.0822   0.0025  -0.0039   0.0026   0.42    0.0
2022/05/29 14:01:27.421    8.851980629    7.742175739   396.3556   4   0   0.0224   0.0215   0.0822   0.0025  -0.0039   0.0026   0.42    0.0
2022/05/29 14:01:28.421    8.851980630    7.742175742   396.3508   4   0   0.0224   0.0215   0.0822   0.0025  -0.0039   0.0026   0.42    0.0
2022/05/29 14:01:29.421    8.851980638    7.742175746   396.3485   4   0   0.0224   0.0215   0.0822   0.0025  -0.0039   0.0026   0.42    0.0
2022/05/29 14:01:31.421    8.851980629    7.742175743   396.3496   4   0   0.0224   0.0215   0.0822   0.0025  -0.0039   0.0026   0.42    0.0
2022/05/29 14:01:32.421    8.851980621    7.742175736   396.3535   4   0   0.0224   0.0215   0.0822   0.0025  -0.0039   0.0026   0.42    0.0
2022/05/29 14:01:33.421    8.851980628    7.742175738   396.3529   4   0   0.0224   0.0215   0.0822   0.0025  -0.0039   0.0026   0.42    0.0
2022/05/29 14:01:34.421    8.851980630    7.742175744   396.3442   4   0   0.0224   0.0215   0.0822   0.0025  -0.0039   0.0026   0.42    0.0
2022/05/29 14:01:35.421    8.851980624    7.742175745   396.3502   4   0   0.0224   0.0215   0.0822   0.0025  -0.0039   0.0026   0.42    0.0
2022/05/29 14:01:36.421    8.851980619    7.742175752   396.3449   4   0   0.0224   0.0215   0.0822   0.0025  -0.0039   0.0025   0.42    0.0
2022/05/29 14:01:37.421    8.851980619    7.742175749   396.3447   4   0   0.0224   0.0215   0.0822   0.0025  -0.0039   0.0026   0.42    0.0
2022/05/29 14:01:38.421    8.851980623    7.742175745   396.3493   4   0   0.0224   0.0215   0.0822   0.0025  -0.0039   0.0026   0.42    0.0
2022/05/29 14:01:39.421    8.852025627    7.742181828   376.7240   4   0   0.2449   0.2546   0.7809  -0.1514   0.3614  -0.3189   0.42    0.0
2022/05/29 14:01:40.421    8.851980618    7.742175750   396.3403   4   0   0.0224   0.0215   0.0822   0.0025  -0.0039   0.0026   0.42    0.0
2022/05/29 14:01:41.421    8.851980626    7.742175768   396.3296   4   0   0.0224   0.0215   0.0822   0.0025  -0.0039   0.0025   0.42    0.0
2022/05/29 14:01:42.421    8.851980625    7.742175757   396.3375   4   0   0.0224   0.0215   0.0822   0.0025  -0.0039   0.0025   0.42    0.0
2022/05/29 14:01:43.421    8.851980623    7.742175760   396.3353   4   0   0.0224   0.0215   0.0822   0.0025  -0.0039   0.0025   0.42    0.0
2022/05/29 14:01:44.421    8.851980627    7.742175758   396.3399   4   0   0.0224   0.0215   0.0822   0.0025  -0.0039   0.0025   0.42    0.0
2022/05/29 14:01:45.421    8.851980628    7.742175759   396.3360   4   0   0.0224   0.0215   0.0822   0.0025  -0.0039   0.0025   0.42    0.0
2022/05/29 14:01:46.421    8.851980625    7.742175763   396.3370   4   0   0.0224   0.0215   0.0822   0.0025  -0.0039   0.0025   0.42    0.0
2022/05/29 14:01:47.421    8.852025396    7.742183278   377.1776   4   0   0.2387   0.2479   0.7641  -0.1465   0.3533  -0.3115   0.42    0.0
2022/05/29 14:01:48.421    8.851980641    7.742175778   396.3272   4   0   0.0224   0.0215   0.0822   0.0025  -0.0039   0.0025   0.42    0.0
2022/05/29 14:01:49.421    8.851980637    7.742175777   396.3252   4   0   0.0224   0.0215   0.0822   0.0025  -0.0039   0.0025   0.42    0.0
2022/05/29 14:01:50.421    8.851980639    7.742175774   396.3267   4   0   0.0224   0.0215   0.0822   0.0025  -0.0039   0.0025   0.42    0.0
2022/05/29 14:01:51.421    8.851980638    7.742175775   396.3263   4   0   0.0224   0.0215   0.0822   0.0025  -0.0039   0.0025   0.42    0.0
2022/05/29 14:01:52.421    8.851980639    7.742175774   396.3261   4   0   0.0224   0.0215   0.0822   0.0025  -0.0039   0.0025   0.42    0.0
2022/05/29 14:01:53.421    8.851980632    7.742175776   396.3234   4   0   0.0224   0.0215   0.0822   0.0025  -0.0039   0.0025   0.42    0.0
2022/05/29 14:01:54.421    8.852027225    7.742184989   377.8384   4   0   0.2352   0.2416   0.7517  -0.1425   0.3450  -0.3082   0.42    0.0
2022/05/29 14:01:55.421    8.852029012    7.742185529   377.5951   4   0   0.2342   0.2404   0.7477  -0.1419   0.3430  -0.3065   0.42    0.0
2022/05/29 14:01:56.421    8.851980682    7.742175818   396.3125   4   0   0.0224   0.0215   0.0822   0.0025  -0.0038   0.0025   0.42    0.0
2022/05/29 14:01:57.421    8.851980686    7.742175817   396.3111   4   0   0.0224   0.0215   0.0822   0.0025  -0.0038   0.0025   0.42    0.0
2022/05/29 14:01:58.421    8.851980673    7.742175809   396.3139   4   0   0.0224   0.0215   0.0822   0.0025  -0.0039   0.0025   0.42    0.0
2022/05/29 14:01:59.421    8.851980673    7.742175809   396.3142   4   0   0.0224   0.0215   0.0822   0.0025  -0.0039   0.0025   0.42    0.0
2022/05/29 14:02:00.421    8.851980685    7.742175818   396.3129   4   0   0.0224   0.0215   0.0822   0.0025  -0.0039   0.0025   0.42    0.0
2022/05/29 14:02:01.421    8.851980680    7.742175812   396.3103   4   0   0.0224   0.0215   0.0822   0.0025  -0.0039   0.0025   0.42    0.0
2022/05/29 14:02:02.421    8.851980680    7.742175821   396.3062   4   0   0.0224   0.0215   0.0822   0.0025  -0.0039   0.0025   0.42    0.0
2022/05/29 14:02:03.421    8.851980682    7.742175817   396.3136   4   0   0.0224   0.0215   0.0822   0.0025  -0.0039   0.0025   0.42    0.0
2022/05/29 14:02:04.421    8.851980681    7.742175821   396.3120   4   0   0.0224   0.0215   0.0822   0.0025  -0.0039   0.0025   0.42    0.0
2022/05/29 14:02:05.421    8.851980682    7.742175823   396.3101   4   0   0.0224   0.0215   0.0822   0.0025  -0.0039   0.0025   0.42    0.0
2022/05/29 14:02:06.421    8.851980679    7.742175825   396.3070   4   0   0.0224   0.0215   0.0822   0.0025  -0.0039   0.0025   0.42    0.0
2022/05/29 14:02:07.421    8.851980680    7.742175823   396.3095   4   0   0.0224   0.0215   0.0822   0.0025  -0.0039   0.0025   0.42    0.0
2022/05/29 14:02:08.421    8.851980686    7.742175830   396.3052   4   0   0.0224   0.0215   0.0822   0.0025  -0.0039   0.0025   0.42    0.0
2022/05/29 14:02:09.421    8.851980679    7.742175820   396.3102   4   0   0.0224   0.0215   0.0822   0.0025  -0.0039   0.0025   0.42    0.0
2022/05/29 14:02:10.421    8.851980688    7.742175822   396.3100   4   0   0.0224   0.0215   0.0822   0.0025  -0.0039   0.0025   0.42    0.0
2022/05/29 14:02:11.421    8.851980684    7.742175821   396.3109   4   0   0.0224   0.0215   0.0822   0.0025  -0.0039   0.0025   0.42    0.0
2022/05/29 14:02:12.421    8.851980680    7.742175818   396.3118   4   0   0.0224   0.0215   0.0822   0.0025  -0.0039   0.0025   0.42    0.0
2022/05/29 14:02:13.421    8.851980682    7.742175817   396.3160   4   0   0.0224   0.0215   0.0822   0.0025  -0.0039   0.0025   0.42    0.0
2022/05/29 14:02:14.421    8.851980679    7.742175823   396.3097   4   0   0.0224   0.0215   0.0822   0.0025  -0.0039   0.0025   0.42    0.0
2022/05/29 14:02:15.421    8.851980675    7.742175816   396.3101   4   0   0.0224   0.0215   0.0822   0.0025  -0.0039   0.0025   0.42    0.0
2022/05/29 14:02:16.421    8.851980684    7.742175817   396.3156   4   0   0.0224   0.0215   0.0822   0.0025  -0.0039   0.0025   0.42    0.0
2022/05/29 14:02:17.421    8.851980684    7.742175822   396.3125   4   0   0.0224   0.0215   0.0822   0.0025  -0.0039   0.0025   0.42    0.0
2022/05/29 14:02:18.421    8.851980693    7.742175824   396.3059   4   0   0.0224   0.0215   0.0822   0.0025  -0.0039   0.0025   0.42    0.0
2022/05/29 14:02:19.421    8.851980700    7.742175825   396.3082   4   0   0.0224   0.0215   0.0822   0.0025  -0.0039   0.0025   0.42    0.0
2022/05/29 14:02:20.421    8.851980685    7.742175820   396.3069   4   0   0.0224   0.0215   0.0822   0.0025  -0.0039   0.0025   0.42    0.0
2022/05/29 14:02:21.421    8.851980692    7.742175826   396.3049   4   0   0.0224   0.0215   0.0822   0.0025  -0.0039   0.0025   0.42    0.0
2022/05/29 14:02:22.421    8.851980679    7.742175817   396.3073   4   0   0.0224   0.0215   0.0822   0.0025  -0.0039   0.0025   0.42    0.0
2022/05/29 14:02:23.421    8.851980685    7.742175820   396.3077   4   0   0.0224   0.0215   0.0822   0.0025  -0.0039   0.0025   0.42    0.0
2022/05/29 14:02:24.421    8.851980674    7.742175814   396.3029   4   0   0.0224   0.0215   0.0822   0.0025  -0.0039   0.0025   0.42    0.0
2022/05/29 14:02:25.421    8.851980680    7.742175822   396.2996   4   0   0.0224   0.0215   0.0822   0.0025  -0.0039   0.0025   0.42    0.0
2022/05/29 14:02:26.421    8.851980661    7.742175812   396.2992   4   0   0.0224   0.0215   0.0822   0.0025  -0.0039   0.0025   0.42    0.0
2022/05/29 14:02:27.421    8.851980664    7.742175812   396.3013   4   0   0.0224   0.0215   0.0822   0.0025  -0.0039   0.0025   0.42    0.0
2022/05/29 14:02:28.421    8.851980664    7.742175810   396.3012   4   0   0.0224   0.0215   0.0822   0.0025  -0.0039   0.0025   0.42    0.0
2022/05/29 14:02:29.421    8.851980657    7.742175804   396.3034   4   0   0.0224   0.0215   0.0822   0.0025  -0.0039   0.0025   0.42    0.0
2022/05/29 14:02:30.421    8.851980662    7.742175807   396.3036   4   0   0.0224   0.0215   0.0822   0.0025  -0.0039   0.0025   0.42    0.0
2022/05/29 14:02:31.421    8.851980661    7.742175808   396.3010   4   0   0.0224   0.0215   0.0822   0.0025  -0.0039   0.0025   0.42    0.0
2022/05/29 14:02:32.421    8.851980662    7.742175806   396.3005   4   0   0.0224   0.0215   0.0822   0.0025  -0.0039   0.0025   0.42    0.0
2022/05/29 14:02:33.421    8.851980670    7.742175818   396.2977   4   0   0.0224   0.0215   0.0822   0.0025  -0.0039   0.0025   0.42    0.0
2022/05/29 14:02:34.421    8.851980660    7.742175810   396.2939   4   0   0.0224   0.0215   0.0822   0.0025  -0.0039   0.0025   0.42    0.0
2022/05/29 14:02:35.421    8.851980661    7.742175812   396.2974   4   0   0.0224   0.0215   0.0822   0.0025  -0.0039   0.0025   0.42    0.0
2022/05/29 14:02:36.421    8.851980672    7.742175818   396.2957   4   0   0.0224   0.0215   0.0822   0.0025  -0.0039   0.0025   0.42    0.0
2022/05/29 14:02:37.421    8.851980668    7.742175813   396.2972   4   0   0.0224   0.0215   0.0822   0.0025  -0.0039   0.0025   0.42    0.0
2022/05/29 14:02:38.421    8.851980660    7.742175808   396.2993   4   0   0.0224   0.0215   0.0822   0.0025  -0.0039   0.0025   0.42    0.0
2022/05/29 14:02:39.421    8.851980664    7.742175812   396.2995   4   0   0.0224   0.0215   0.0822   0.0025  -0.0039   0.0025   0.42    0.0
2022/05/29 14:02:40.421    8.851980660    7.742175807   396.2993   4   0   0.0224   0.0215   0.0822   0.0025  -0.0039   0.0025   0.42    0.0
2022/05/29 14:02:41.421    8.851980663    7.742175806   396.3012   4   0   0.0224   0.0215   0.0822   0.0025  -0.0039   0.0025   0.42    0.0
2022/05/29 14:02:42.421    8.851980663    7.742175808   396.3005   4   0   0.0224   0.0215   0.0822   0.0025  -0.0039   0.0025   0.42    0.0
2022/05/29 14:02:43.421    8.851980663    7.742175804   396.3004   4   0   0.0224   0.0215   0.0822   0.0025  -0.0039   0.0025   0.42    0.0
2022/05/29 14:02:44.421    8.851980662    7.742175805   396.3011   4   0   0.0224   0.0215   0.0822   0.0025  -0.0039   0.0025   0.42    0.0
2022/05/29 14:02:45.421    8.851980664    7.742175803   396.2997   4   0   0.0224   0.0215   0.0822   0.0025  -0.0039   0.0025   0.42    0.0
2022/05/29 14:02:46.421    8.851980670    7.742175820   396.2967   4   0   0.0224   0.0215   0.0822   0.0025  -0.0039   0.0025   0.42    0.0
2022/05/29 14:02:47.421    8.851980662    7.742175807   396.3004   4   0   0.0224   0.0215   0.0822   0.0025  -0.0039   0.0025   0.42    0.0
2022/05/29 14:02:48.421    8.851980663    7.742175809   396.3021   4   0   0.0224   0.0215   0.0822   0.0025  -0.0039   0.0025   0.42    0.0
2022/05/29 14:02:49.421    8.851980669    7.742175807   396.3054   4   0   0.0224   0.0215   0.0822   0.0025  -0.0039   0.0025   0.42    0.0
2022/05/29 14:02:50.421    8.851980661    7.742175804   396.3008   4   0   0.0224   0.0215   0.0822   0.0025  -0.0039   0.0025   0.42    0.0
2022/05/29 14:02:51.421    8.851980660    7.742175800   396.3002   4   0   0.0224   0.0215   0.0822   0.0025  -0.0039   0.0025   0.42    0.0
2022/05/29 14:02:52.421    8.851980656    7.742175802   396.2971   4   0   0.0224   0.0215   0.0822   0.0025  -0.0039   0.0025   0.42    0.0
2022/05/29 14:02:53.421    8.851980662    7.742175806   396.3011   4   0   0.0224   0.0215   0.0822   0.0025  -0.0039   0.0025   0.42    0.0
2022/05/29 14:02:54.421    8.851980665    7.742175809   396.3034   4   0   0.0224   0.0215   0.0822   0.0025  -0.0039   0.0025   0.42    0.0
2022/05/29 14:02:55.421    8.851980660    7.742175810   396.2991   4   0   0.0224   0.0215   0.0822   0.0025  -0.0039   0.0025   0.42    0.0
2022/05/29 14:02:56.421    8.851980662    7.742175811   396.3001   4   0   0.0224   0.0215   0.0822   0.0025  -0.0039   0.0025   0.42    0.0
2022/05/29 14:02:57.421    8.851980660    7.742175812   396.2985   4   0   0.0224   0.0215   0.0822   0.0025  -0.0039   0.0025   0.42    0.0
2022/05/29 14:02:58.421    8.851980652    7.742175800   396.3004   4   0   0.0224   0.0215   0.0822   0.0025  -0.0039   0.0025   0.42    0.0
2022/05/29 14:02:59.421    8.851980653    7.742175801   396.3069   4   0   0.0224   0.0215   0.0822   0.0025  -0.0039   0.0025   0.42    0.0
2022/05/29 14:03:00.421    8.851980673    7.742175814   396.3017   4   0   0.0224   0.0215   0.0822   0.0025  -0.0039   0.0025   0.42    0.0
2022/05/29 14:03:01.421    8.851980657    7.742175810   396.2958   4   0   0.0224   0.0215   0.0822   0.0025  -0.0039   0.0025   0.42    0.0
2022/05/29 14:03:02.421    8.851980663    7.742175810   396.3003   4   0   0.0224   0.0215   0.0822   0.0025  -0.0039   0.0025   0.42    0.0
2022/05/29 14:03:03.421    8.851980672    7.742175823   396.2955   4   0   0.0224   0.0215   0.0822   0.0025  -0.0039   0.0025   0.42    0.0
2022/05/29 14:03:04.421    8.851980680    7.742175828   396.2873   4   0   0.0224   0.0215   0.0822   0.0025  -0.0039   0.0025   0.42    0.0
2022/05/29 14:03:05.421    8.851980680    7.742175825   396.2948   4   0   0.0224   0.0215   0.0822   0.0025  -0.0039   0.0025   0.42    0.0
2022/05/29 14:03:06.421    8.851980669    7.742175814   396.2957   4   0   0.0224   0.0215   0.0822   0.0025  -0.0039   0.0025   0.42    0.0
2022/05/29 14:03:07.421    8.851980679    7.742175827   396.2899   4   0   0.0224   0.0215   0.0822   0.0025  -0.0039   0.0025   0.42    0.0
2022/05/29 14:03:08.421    8.851980671    7.742175818   396.2926   4   0   0.0224   0.0215   0.0822   0.0025  -0.0039   0.0025   0.42    0.0
2022/05/29 14:03:09.421    8.851980687    7.742175833   396.2846   4   0   0.0224   0.0215   0.0822   0.0025  -0.0039   0.0025   0.42    0.0
2022/05/29 14:03:10.421    8.851980675    7.742175838   396.2765   4   0   0.0224   0.0215   0.0822   0.0025  -0.0039   0.0025   0.42    0.0
2022/05/29 14:03:12.421    8.851980672    7.742175832   396.2804   4   0   0.0224   0.0215   0.0822   0.0025  -0.0039   0.0025   0.42    0.0
2022/05/29 14:03:13.421    8.851980659    7.742175820   396.2902   4   0   0.0224   0.0215   0.0822   0.0025  -0.0039   0.0025   0.42    0.0
2022/05/29 14:03:14.421    8.851980683    7.742175839   396.2816   4   0   0.0224   0.0215   0.0822   0.0025  -0.0039   0.0025   0.42    0.0
2022/05/29 14:03:15.421    8.851980669    7.742175831   396.2842   4   0   0.0224   0.0215   0.0822   0.0025  -0.0039   0.0025   0.42    0.0
2022/05/29 14:03:16.421    8.851980674    7.742175834   396.2848   4   0   0.0224   0.0215   0.0822   0.0025  -0.0039   0.0025   0.42    0.0
2022/05/29 14:03:17.421    8.851980667    7.742175832   396.2841   4   0   0.0224   0.0215   0.0822   0.0025  -0.0039   0.0025   0.42    0.0
2022/05/29 14:03:18.421    8.851980662    7.742175828   396.2855   4   0   0.0224   0.0215   0.0822   0.0025  -0.0039   0.0025   0.42    0.0
2022/05/29 14:03:19.421    8.851980669    7.742175836   396.2851   4   0   0.0224   0.0215   0.0822   0.0025  -0.0039   0.0025   0.42    0.0
2022/05/29 14:03:20.421    8.851980667    7.742175828   396.2872   4   0   0.0224   0.0215   0.0822   0.0025  -0.0039   0.0025   0.42    0.0
2022/05/29 14:03:21.421    8.851980670    7.742175836   396.2854   4   0   0.0224   0.0215   0.0822   0.0025  -0.0039   0.0025   0.42    0.0
2022/05/29 14:03:22.421    8.851980675    7.742175835   396.2841   4   0   0.0224   0.0215   0.0822   0.0025  -0.0039   0.0025   0.42    0.0
2022/05/29 14:03:23.421    8.851980674    7.742175830   396.2895   4   0   0.0224   0.0215   0.0822   0.0025  -0.0039   0.0025   0.42    0.0
2022/05/29 14:03:24.421    8.851980668    7.742175830   396.2900   4   0   0.0224   0.0215   0.0822   0.0025  -0.0039   0.0025   0.42    0.0
2022/05/29 14:03:25.421    8.851980686    7.742175834   396.2869   4   0   0.0224   0.0215   0.0822   0.0025  -0.0039   0.0025   0.42    0.0
2022/05/29 14:03:26.421    8.851980681    7.742175845   396.2756   4   0   0.0224   0.0215   0.0822   0.0025  -0.0039   0.0025   0.42    0.0
2022/05/29 14:03:27.421    8.851980677    7.742175836   396.2812   4   0   0.0224   0.0215   0.0822   0.0025  -0.0039   0.0025   0.42    0.0
2022/05/29 14:03:28.421    8.851980687    7.742175846   396.2767   4   0   0.0224   0.0215   0.0822   0.0025  -0.0039   0.0025   0.42    0.0
2022/05/29 14:03:29.421    8.852019404    7.742184650   384.9560   4   0   0.1830   0.1851   0.5828  -0.1104   0.2656  -0.2419   0.42    0.0
2022/05/29 14:03:30.421    8.851980696    7.742175844   396.2807   4   0   0.0224   0.0215   0.0822   0.0025  -0.0039   0.0025   0.42    0.0
2022/05/29 14:03:31.421    8.851980699    7.742175844   396.2811   4   0   0.0224   0.0215   0.0822   0.0025  -0.0039   0.0025   0.42    0.0
2022/05/29 14:03:32.421    8.851980713    7.742175858   396.2763   4   0   0.0224   0.0215   0.0822   0.0025  -0.0039   0.0025   0.42    0.0
2022/05/29 14:03:33.421    8.851980697    7.742175849   396.2781   4   0   0.0224   0.0215   0.0822   0.0025  -0.0039   0.0025   0.42    0.0
2022/05/29 14:03:34.421    8.851980695    7.742175849   396.2769   4   0   0.0224   0.0215   0.0822   0.0025  -0.0039   0.0025   0.42    0.0
2022/05/29 14:03:35.421    8.851980691    7.742175852   396.2744   4   0   0.0224   0.0215   0.0822   0.0025  -0.0039   0.0025   0.42    0.0
2022/05/29 14:03:36.421    8.851980694    7.742175851   396.2766   4   0   0.0224   0.0215   0.0822   0.0025  -0.0039   0.0025   0.42    0.0
2022/05/29 14:03:38.421    8.851980691    7.742175851   396.2754   4   0   0.0224   0.0215   0.0822   0.0025  -0.0039   0.0025   0.42    0.0
2022/05/29 14:03:39.421    8.851980693    7.742175853   396.2764   4   0   0.0224   0.0215   0.0822   0.0025  -0.0039   0.0025   0.42    0.0
2022/05/29 14:03:40.421    8.851980701    7.742175856   396.2814   4   0   0.0224   0.0215   0.0822   0.0025  -0.0039   0.0025   0.42    0.0
2022/05/29 14:03:41.421    8.851980692    7.742175853   396.2756   4   0   0.0224   0.0215   0.0822   0.0025  -0.0039   0.0025   0.42    0.0
2022/05/29 14:03:42.421    8.851980691    7.742175851   396.2751   4   0   0.0224   0.0215   0.0822   0.0025  -0.0039   0.0025   0.42    0.0
2022/05/29 14:03:43.421    8.851980692    7.742175851   396.2753   4   0   0.0224   0.0215   0.0822   0.0025  -0.0039   0.0025   0.42    0.0
2022/05/29 14:03:44.421    8.851980693    7.742175855   396.2755   4   0   0.0224   0.0215   0.0822   0.0025  -0.0039   0.0025   0.42    0.0
2022/05/29 14:03:46.421    8.851980696    7.742175850   396.2784   4   0   0.0224   0.0215   0.0822   0.0025  -0.0039   0.0025   0.42    0.0
2022/05/29 14:03:47.421    8.851980692    7.742175854   396.2746   4   0   0.0224   0.0215   0.0822   0.0025  -0.0039   0.0025   0.42    0.0
2022/05/29 14:03:48.421    8.851980717    7.742175865   396.2681   4   0   0.0224   0.0215   0.0822   0.0025  -0.0039   0.0025   0.42    0.0
2022/05/29 14:03:49.421    8.851980722    7.742175857   396.2661   4   0   0.0224   0.0215   0.0822   0.0025  -0.0039   0.0025   0.42    0.0
2022/05/29 14:03:50.421    8.851980726    7.742175862   396.2712   4   0   0.0224   0.0215   0.0822   0.0025  -0.0039   0.0025   0.42    0.0
2022/05/29 14:03:51.421    8.851980724    7.742175863   396.2622   4   0   0.0224   0.0215   0.0822   0.0025  -0.0039   0.0025   0.42    0.0
2022/05/29 14:03:52.421    8.851980730    7.742175867   396.2610   4   0   0.0224   0.0215   0.0822   0.0025  -0.0039   0.0025   0.42    0.0
2022/05/29 14:03:54.421    8.851980731    7.742175865   396.2668   4   0   0.0224   0.0215   0.0822   0.0025  -0.0039   0.0025   0.42    0.0
2022/05/29 14:03:55.421    8.851980721    7.742175862   396.2650   4   0   0.0224   0.0215   0.0822   0.0025  -0.0039   0.0025   0.42    0.0
2022/05/29 14:03:56.421    8.851980725    7.742175860   396.2679   4   0   0.0224   0.0215   0.0822   0.0025  -0.0039   0.0025   0.42    0.0
2022/05/29 14:03:57.421    8.851980723    7.742175856   396.2736   4   0   0.0224   0.0215   0.0822   0.0025  -0.0039   0.0025   0.42    0.0
2022/05/29 14:03:58.421    8.851980721    7.742175856   396.2706   4   0   0.0224   0.0215   0.0822   0.0025  -0.0039   0.0025   0.42    0.0
2022/05/29 14:03:59.421    8.851980719    7.742175854   396.2731   4   0   0.0224   0.0215   0.0822   0.0025  -0.0039   0.0025   0.42    0.0
2022/05/29 14:04:00.421    8.851980709    7.742175844   396.2798   4   0   0.0224   0.0215   0.0822   0.0025  -0.0039   0.0025   0.42    0.0
2022/05/29 14:04:01.421    8.851980710    7.742175842   396.2821   4   0   0.0224   0.0215   0.0822   0.0025  -0.0039   0.0025   0.42    0.0
2022/05/29 14:04:02.421    8.851980711    7.742175841   396.2820   4   0   0.0224   0.0215   0.0822   0.0025  -0.0039   0.0025   0.42    0.0
2022/05/29 14:04:03.421    8.851980705    7.742175840   396.2824   4   0   0.0224   0.0215   0.0822   0.0025  -0.0039   0.0025   0.42    0.0
2022/05/29 14:04:04.421    8.851980714    7.742175846   396.2777   4   0   0.0224   0.0215   0.0822   0.0025  -0.0039   0.0025   0.42    0.0
2022/05/29 14:04:05.421    8.851980717    7.742175849   396.2774   4   0   0.0224   0.0215   0.0822   0.0025  -0.0039   0.0025   0.42    0.0
2022/05/29 14:04:06.421    8.851980713    7.742175850   396.2749   4   0   0.0224   0.0215   0.0822   0.0025  -0.0039   0.0025   0.42    0.0
2022/05/29 14:04:07.421    8.851980720    7.742175852   396.2709   4   0   0.0224   0.0215   0.0822   0.0025  -0.0039   0.0025   0.42    0.0
2022/05/29 14:04:08.421    8.851980721    7.742175859   396.2705   4   0   0.0224   0.0215   0.0822   0.0025  -0.0039   0.0025   0.42    0.0
2022/05/29 14:04:09.421    8.851980724    7.742175853   396.2747   4   0   0.0224   0.0215   0.0822   0.0025  -0.0039   0.0025   0.42    0.0
2022/05/29 14:04:10.421    8.851980723    7.742175852   396.2756   4   0   0.0224   0.0215   0.0822   0.0025  -0.0039   0.0025   0.42    0.0
2022/05/29 14:04:11.421    8.851980726    7.742175864   396.2657   4   0   0.0224   0.0215   0.0822   0.0025  -0.0039   0.0025   0.42    0.0
2022/05/29 14:04:12.421    8.851980734    7.742175864   396.2711   4   0   0.0224   0.0215   0.0822   0.0025  -0.0039   0.0025   0.42    0.0
2022/05/29 14:04:13.421    8.851980721    7.742175854   396.2778   4   0   0.0224   0.0215   0.0822   0.0025  -0.0039   0.0025   0.42    0.0
2022/05/29 14:04:14.421    8.851980722    7.742175856   396.2738   4   0   0.0224   0.0215   0.0822   0.0025  -0.0039   0.0025   0.42    0.0
2022/05/29 14:04:15.421    8.851980716    7.742175844   396.2774   4   0   0.0224   0.0215   0.0822   0.0025  -0.0039   0.0025   0.42    0.0
2022/05/29 14:04:16.421    8.851980725    7.742175851   396.2720   4   0   0.0224   0.0215   0.0822   0.0025  -0.0039   0.0025   0.42    0.0
2022/05/29 14:04:17.421    8.851980729    7.742175852   396.2711   4   0   0.0224   0.0215   0.0822   0.0025  -0.0039   0.0025   0.42    0.0
2022/05/29 14:04:18.421    8.851980725    7.742175850   396.2725   4   0   0.0224   0.0215   0.0822   0.0025  -0.0039   0.0025   0.42    0.0
2022/05/29 14:04:19.421    8.851980736    7.742175855   396.2720   4   0   0.0224   0.0215   0.0822   0.0025  -0.0039   0.0025   0.42    0.0
2022/05/29 14:04:20.421    8.851980736    7.742175855   396.2694   4   0   0.0224   0.0215   0.0822   0.0025  -0.0039   0.0025   0.42    0.0
2022/05/29 14:04:21.421    8.851980729    7.742175856   396.2666   4   0   0.0224   0.0215   0.0822   0.0025  -0.0039   0.0025   0.42    0.0
2022/05/29 14:04:22.421    8.851980727    7.742175856   396.2665   4   0   0.0224   0.0215   0.0822   0.0025  -0.0039   0.0025   0.42    0.0
2022/05/29 14:04:23.421    8.851980732    7.742175861   396.2698   4   0   0.0224   0.0215   0.0822   0.0025  -0.0039   0.0025   0.42    0.0
2022/05/29 14:04:24.421    8.851980734    7.742175855   396.2711   4   0   0.0224   0.0215   0.0822   0.0025  -0.0039   0.0025   0.42    0.0
2022/05/29 14:04:25.421    8.851980732    7.742175854   396.2697   4   0   0.0224   0.0215   0.0822   0.0025  -0.0039   0.0025   0.42    0.0
2022/05/29 14:04:26.421    8.851980736    7.742175857   396.2722   4   0   0.0224   0.0215   0.0822   0.0025  -0.0039   0.0025   0.42    0.0
2022/05/29 14:04:27.421    8.851980735    7.742175857   396.2702   4   0   0.0224   0.0215   0.0822   0.0025  -0.0039   0.0025   0.42    0.0
2022/05/29 14:04:28.421    8.851980733    7.742175862   396.2704   4   0   0.0224   0.0215   0.0822   0.0025  -0.0039   0.0025   0.42    0.0
2022/05/29 14:04:29.421    8.851980731    7.742175857   396.2675   4   0   0.0224   0.0215   0.0822   0.0025  -0.0039   0.0025   0.42    0.0
2022/05/29 14:04:30.421    8.851980741    7.742175864   396.2606   4   0   0.0224   0.0215   0.0822   0.0025  -0.0039   0.0025   0.42    0.0
2022/05/29 14:04:31.421    8.851980724    7.742175856   396.2634   4   0   0.0224   0.0215   0.0822   0.0025  -0.0039   0.0025   0.42    0.0
2022/05/29 14:04:32.421    8.851980726    7.742175859   396.2664   4   0   0.0224   0.0215   0.0822   0.0025  -0.0039   0.0025   0.42    0.0
2022/05/29 14:04:33.421    8.851980722    7.742175858   396.2633   4   0   0.0224   0.0215   0.0822   0.0025  -0.0039   0.0025   0.42    0.0
2022/05/29 14:04:34.421    8.851980726    7.742175854   396.2640   4   0   0.0224   0.0215   0.0822   0.0025  -0.0039   0.0025   0.42    0.0
2022/05/29 14:04:35.421    8.851980726    7.742175858   396.2645   4   0   0.0224   0.0215   0.0822   0.0025  -0.0039   0.0025   0.42    0.0
2022/05/29 14:04:36.421    8.851980726    7.742175865   396.2665   4   0   0.0224   0.0215   0.0822   0.0025  -0.0039   0.0025   0.42    0.0
2022/05/29 14:04:37.421    8.852014456    7.742190740   387.4421   4   0   0.1481   0.1480   0.4578  -0.0654   0.1947  -0.1704   0.42    0.0
2022/05/29 14:04:38.421    8.851980756    7.742175879   396.2505   4   0   0.0224   0.0215   0.0822   0.0025  -0.0038   0.0025   0.42    0.0
2022/05/29 14:04:39.421    8.851980750    7.742175872   396.2553   4   0   0.0224   0.0215   0.0822   0.0025  -0.0038   0.0025   0.42    0.0
2022/05/29 14:04:40.421    8.851980752    7.742175878   396.2519   4   0   0.0224   0.0215   0.0822   0.0025  -0.0038   0.0025   0.42    0.0
2022/05/29 14:04:41.421    8.851980756    7.742175871   396.2536   4   0   0.0224   0.0215   0.0822   0.0025  -0.0038   0.0025   0.42    0.0
2022/05/29 14:04:42.421    8.851980753    7.742175869   396.2558   4   0   0.0224   0.0215   0.0822   0.0025  -0.0038   0.0025   0.42    0.0
2022/05/29 14:04:43.421    8.851980760    7.742175874   396.2517   4   0   0.0224   0.0215   0.0822   0.0025  -0.0038   0.0025   0.42    0.0
2022/05/29 14:04:44.421    8.851980756    7.742175868   396.2548   4   0   0.0224   0.0215   0.0822   0.0025  -0.0038   0.0025   0.42    0.0
2022/05/29 14:04:45.421    8.851980754    7.742175868   396.2535   4   0   0.0224   0.0215   0.0822   0.0025  -0.0038   0.0025   0.42    0.0
2022/05/29 14:04:46.421    8.851980741    7.742175863   396.2605   4   0   0.0224   0.0215   0.0822   0.0025  -0.0038   0.0025   0.42    0.0
2022/05/29 14:04:47.421    8.851980750    7.742175869   396.2564   4   0   0.0224   0.0215   0.0822   0.0025  -0.0038   0.0025   0.42    0.0
2022/05/29 14:04:48.421    8.851980745    7.742175869   396.2571   4   0   0.0224   0.0215   0.0822   0.0025  -0.0038   0.0025   0.42    0.0
2022/05/29 14:04:49.421    8.851980754    7.742175872   396.2555   4   0   0.0224   0.0215   0.0822   0.0025  -0.0038   0.0025   0.42    0.0
2022/05/29 14:04:50.421    8.851980767    7.742175878   396.2519   4   0   0.0224   0.0215   0.0822   0.0025  -0.0038   0.0025   0.42    0.0
2022/05/29 14:04:51.421    8.851980759    7.742175879   396.2489   4   0   0.0224   0.0215   0.0822   0.0025  -0.0038   0.0025   0.42    0.0
2022/05/29 14:04:52.421    8.851980758    7.742175874   396.2531   4   0   0.0224   0.0215   0.0822   0.0025  -0.0038   0.0025   0.42    0.0
2022/05/29 14:04:53.421    8.851980769    7.742175874   396.2568   4   0   0.0224   0.0215   0.0822   0.0025  -0.0038   0.0025   0.42    0.0
2022/05/29 14:04:54.421    8.851980759    7.742175873   396.2516   4   0   0.0224   0.0215   0.0822   0.0025  -0.0038   0.0025   0.42    0.0
2022/05/29 14:04:55.421    8.851980757    7.742175869   396.2587   4   0   0.0224   0.0215   0.0822   0.0025  -0.0038   0.0025   0.42    0.0
2022/05/29 14:04:56.421    8.851980747    7.742175865   396.2631   4   0   0.0224   0.0215   0.0822   0.0025  -0.0038   0.0025   0.42    0.0
2022/05/29 14:04:57.421    8.851980741    7.742175861   396.2613   4   0   0.0224   0.0215   0.0822   0.0025  -0.0038   0.0025   0.42    0.0
2022/05/29 14:04:58.421    8.851980740    7.742175866   396.2577   4   0   0.0224   0.0215   0.0822   0.0025  -0.0038   0.0025   0.42    0.0
2022/05/29 14:04:59.421    8.851980751    7.742175866   396.2607   4   0   0.0224   0.0215   0.0822   0.0025  -0.0038   0.0025   0.42    0.0
2022/05/29 14:05:00.421    8.851980738    7.742175861   396.2611   4   0   0.0224   0.0215   0.0822   0.0025  -0.0038   0.0025   0.42    0.0
2022/05/29 14:05:01.421    8.851980758    7.742175871   396.2591   4   0   0.0224   0.0215   0.0822   0.0025  -0.0038   0.0025   0.42    0.0
2022/05/29 14:05:02.421    8.851980752    7.742175869   396.2587   4   0   0.0224   0.0215   0.0822   0.0025  -0.0038   0.0025   0.42    0.0
2022/05/29 14:05:03.421    8.851980747    7.742175868   396.2568   4   0   0.0224   0.0215   0.0822   0.0025  -0.0038   0.0025   0.42    0.0
2022/05/29 14:05:04.421    8.851980752    7.742175869   396.2561   4   0   0.0224   0.0215   0.0822   0.0025  -0.0038   0.0025   0.42    0.0
2022/05/29 14:05:05.421    8.851980749    7.742175865   396.2562   4   0   0.0224   0.0215   0.0822   0.0025  -0.0038   0.0025   0.42    0.0
2022/05/29 14:05:06.421    8.851980758    7.742175874   396.2516   4   0   0.0224   0.0215   0.0822   0.0025  -0.0038   0.0025   0.42    0.0
2022/05/29 14:05:07.421    8.851980765    7.742175878   396.2492   4   0   0.0224   0.0215   0.0822   0.0025  -0.0038   0.0025   0.42    0.0
2022/05/29 14:05:08.421    8.851980769    7.742175883   396.2472   4   0   0.0224   0.0215   0.0822   0.0025  -0.0038   0.0025   0.42    0.0
2022/05/29 14:05:09.421    8.851980767    7.742175874   396.2574   4   0   0.0224   0.0215   0.0822   0.0025  -0.0038   0.0025   0.42    0.0
2022/05/29 14:05:10.421    8.851980764    7.742175866   396.2535   4   0   0.0224   0.0215   0.0822   0.0025  -0.0039   0.0025   0.42    0.0
2022/05/29 14:05:11.421    8.851980762    7.742175873   396.2586   4   0   0.0224   0.0215   0.0822   0.0025  -0.0038   0.0025   0.42    0.0
2022/05/29 14:05:12.421    8.851980757    7.742175867   396.2602   4   0   0.0224   0.0215   0.0822   0.0025  -0.0038   0.0025   0.42    0.0
2022/05/29 14:05:13.421    8.851980750    7.742175870   396.2565   4   0   0.0224   0.0215   0.0822   0.0025  -0.0038   0.0025   0.42    0.0
2022/05/29 14:05:14.421    8.851980751    7.742175867   396.2575   4   0   0.0224   0.0215   0.0822   0.0025  -0.0038   0.0025   0.42    0.0
2022/05/29 14:05:15.421    8.851980756    7.742175873   396.2567   4   0   0.0224   0.0215   0.0822   0.0025  -0.0038   0.0025   0.42    0.0
2022/05/29 14:05:16.421    8.851980751    7.742175868   396.2594   4   0   0.0224   0.0215   0.0822   0.0025  -0.0038   0.0025   0.42    0.0
2022/05/29 14:05:17.421    8.851980751    7.742175878   396.2520   4   0   0.0224   0.0215   0.0822   0.0025  -0.0038   0.0025   0.42    0.0
2022/05/29 14:05:18.421    8.851980761    7.742175883   396.2506   4   0   0.0224   0.0215   0.0822   0.0025  -0.0038   0.0025   0.42    0.0
2022/05/29 14:05:20.421    8.852014197    7.742192813   388.6296   4   0   0.1296   0.1338   0.4038  -0.0442   0.1695  -0.1305   0.42    0.0
2022/05/29 14:05:21.421    8.851980780    7.742175892   396.2440   4   0   0.0224   0.0215   0.0822   0.0025  -0.0038   0.0025   0.42    0.0
2022/05/29 14:05:22.421    8.851980774    7.742175882   396.2504   4   0   0.0224   0.0215   0.0822   0.0025  -0.0038   0.0025   0.42    0.0
2022/05/29 14:05:23.421    8.851980784    7.742175888   396.2458   4   0   0.0224   0.0215   0.0822   0.0025  -0.0038   0.0025   0.42    0.0
2022/05/29 14:05:24.421    8.851980769    7.742175886   396.2474   4   0   0.0224   0.0215   0.0822   0.0025  -0.0038   0.0025   0.42    0.0
2022/05/29 14:05:25.421    8.851980775    7.742175881   396.2491   4   0   0.0224   0.0215   0.0822   0.0025  -0.0038   0.0025   0.42    0.0
2022/05/29 14:05:26.421    8.851980775    7.742175885   396.2469   4   0   0.0224   0.0215   0.0822   0.0025  -0.0038   0.0025   0.42    0.0
2022/05/29 14:05:27.421    8.851980771    7.742175884   396.2450   4   0   0.0224   0.0215   0.0822   0.0025  -0.0038   0.0025   0.42    0.0
2022/05/29 14:05:28.421    8.851980774    7.742175878   396.2510   4   0   0.0224   0.0215   0.0822   0.0025  -0.0038   0.0025   0.42    0.0
2022/05/29 14:05:29.421    8.851980760    7.742175875   396.2512   4   0   0.0224   0.0215   0.0822   0.0025  -0.0038   0.0025   0.42    0.0
2022/05/29 14:05:30.421    8.851980766    7.742175881   396.2458   4   0   0.0224   0.0215   0.0822   0.0025  -0.0038   0.0025   0.42    0.0
2022/05/29 14:05:31.421    8.851980768    7.742175881   396.2436   4   0   0.0224   0.0215   0.0822   0.0025  -0.0038   0.0025   0.42    0.0
2022/05/29 14:05:32.421    8.851980767    7.742175883   396.2437   4   0   0.0224   0.0215   0.0822   0.0025  -0.0038   0.0025   0.42    0.0
2022/05/29 14:05:33.421    8.851980760    7.742175881   396.2513   4   0   0.0224   0.0215   0.0822   0.0025  -0.0038   0.0025   0.42    0.0
2022/05/29 14:05:34.421    8.851980771    7.742175883   396.2387   4   0   0.0224   0.0215   0.0822   0.0025  -0.0038   0.0025   0.42    0.0
2022/05/29 14:05:35.421    8.851980773    7.742175879   396.2496   4   0   0.0224   0.0215   0.0822   0.0025  -0.0038   0.0025   0.42    0.0
2022/05/29 14:05:36.421    8.851980771    7.742175886   396.2367   4   0   0.0224   0.0215   0.0822   0.0025  -0.0038   0.0025   0.42    0.0
2022/05/29 14:05:37.421    8.851980772    7.742175882   396.2467   4   0   0.0224   0.0215   0.0822   0.0025  -0.0038   0.0025   0.42    0.0
2022/05/29 14:05:38.421    8.851980776    7.742175886   396.2430   4   0   0.0224   0.0215   0.0822   0.0025  -0.0038   0.0025   0.42    0.0
2022/05/29 14:05:39.421    8.851980772    7.742175886   396.2455   4   0   0.0224   0.0215   0.0822   0.0025  -0.0038   0.0025   0.42    0.0
2022/05/29 14:05:40.421    8.852012349    7.742193687   389.1203   4   0   0.1237   0.1285   0.3850  -0.0373   0.1605  -0.1184   0.42    0.0
2022/05/29 14:05:41.421    8.851980764    7.742175881   396.2469   4   0   0.0224   0.0215   0.0822   0.0025  -0.0038   0.0025   0.42    0.0
2022/05/29 14:05:42.421    8.851980783    7.742175881   396.2507   4   0   0.0224   0.0215   0.0822   0.0025  -0.0038   0.0025   0.42    0.0
2022/05/29 14:05:43.421    8.851980770    7.742175884   396.2510   4   0   0.0224   0.0215   0.0822   0.0025  -0.0038   0.0025   0.42    0.0
2022/05/29 14:05:44.421    8.851980764    7.742175879   396.2507   4   0   0.0224   0.0215   0.0822   0.0025  -0.0038   0.0025   0.42    0.0
2022/05/29 14:05:45.421    8.851980769    7.742175882   396.2574   4   0   0.0224   0.0215   0.0822   0.0025  -0.0038   0.0025   0.42    0.0
2022/05/29 14:05:46.421    8.851980772    7.742175885   396.2502   4   0   0.0224   0.0215   0.0822   0.0025  -0.0038   0.0025   0.42    0.0
2022/05/29 14:05:47.421    8.851980768    7.742175883   396.2489   4   0   0.0224   0.0215   0.0822   0.0025  -0.0038   0.0025   0.42    0.0
2022/05/29 14:05:48.421    8.851980774    7.742175880   396.2494   4   0   0.0224   0.0215   0.0822   0.0025  -0.0038   0.0025   0.42    0.0
2022/05/29 14:05:49.421    8.851980777    7.742175888   396.2464   4   0   0.0224   0.0215   0.0822   0.0025  -0.0038   0.0025   0.42    0.0
2022/05/29 14:05:50.421    8.851980767    7.742175878   396.2543   4   0   0.0224   0.0215   0.0822   0.0025  -0.0038   0.0025   0.42    0.0
2022/05/29 14:05:51.421    8.851980766    7.742175874   396.2592   4   0   0.0224   0.0215   0.0822   0.0025  -0.0038   0.0025   0.42    0.0
2022/05/29 14:05:52.421    8.851980777    7.742175880   396.2552   4   0   0.0224   0.0215   0.0822   0.0025  -0.0038   0.0025   0.42    0.0
2022/05/29 14:05:53.421    8.851980782    7.742175888   396.2479   4   0   0.0224   0.0215   0.0822   0.0025  -0.0038   0.0025   0.42    0.0
2022/05/29 14:05:54.421    8.851980783    7.742175887   396.2490   4   0   0.0224   0.0215   0.0822   0.0025  -0.0038   0.0025   0.42    0.0
2022/05/29 14:05:55.421    8.851980779    7.742175883   396.2490   4   0   0.0224   0.0215   0.0822   0.0025  -0.0038   0.0025   0.42    0.0
2022/05/29 14:05:56.421    8.851980786    7.742175889   396.2484   4   0   0.0224   0.0215   0.0822   0.0025  -0.0038   0.0025   0.42    0.0
2022/05/29 14:05:57.421    8.851980781    7.742175885   396.2519   4   0   0.0224   0.0215   0.0822   0.0025  -0.0038   0.0025   0.42    0.0
2022/05/29 14:05:58.421    8.851980790    7.742175887   396.2533   4   0   0.0224   0.0215   0.0822   0.0025  -0.0038   0.0025   0.42    0.0
2022/05/29 14:05:59.421    8.851980787    7.742175885   396.2528   4   0   0.0224   0.0215   0.0822   0.0025  -0.0038   0.0025   0.42    0.0
2022/05/29 14:06:00.421    8.851980795    7.742175886   396.2569   4   0   0.0224   0.0215   0.0822   0.0025  -0.0038   0.0025   0.42    0.0
2022/05/29 14:06:01.421    8.851980789    7.742175888   396.2540   4   0   0.0224   0.0215   0.0822   0.0025  -0.0038   0.0025   0.42    0.0
2022/05/29 14:06:02.421    8.851980790    7.742175889   396.2551   4   0   0.0224   0.0215   0.0822   0.0025  -0.0038   0.0025   0.42    0.0
2022/05/29 14:06:04.421    8.851980789    7.742175889   396.2547   4   0   0.0224   0.0215   0.0822   0.0025  -0.0038   0.0025   0.42    0.0
2022/05/29 14:06:05.421    8.851980792    7.742175887   396.2573   4   0   0.0224   0.0215   0.0822   0.0025  -0.0038   0.0025   0.42    0.0
2022/05/29 14:06:06.421    8.851980789    7.742175890   396.2560   4   0   0.0224   0.0215   0.0822   0.0025  -0.0038   0.0025   0.42    0.0
2022/05/29 14:06:07.421    8.851980791    7.742175891   396.2565   4   0   0.0224   0.0215   0.0822   0.0025  -0.0038   0.0025   0.42    0.0
2022/05/29 14:06:08.421    8.851980790    7.742175885   396.2563   4   0   0.0224   0.0215   0.0822   0.0025  -0.0038   0.0025   0.42    0.0
2022/05/29 14:06:09.421    8.851980788    7.742175888   396.2555   4   0   0.0224   0.0215   0.0822   0.0025  -0.0038   0.0025   0.42    0.0
2022/05/29 14:06:10.421    8.851980789    7.742175883   396.2569   4   0   0.0224   0.0215   0.0822   0.0025  -0.0038   0.0025   0.42    0.0
2022/05/29 14:06:11.421    8.851980791    7.742175881   396.2569   4   0   0.0224   0.0215   0.0822   0.0025  -0.0038   0.0025   0.42    0.0
2022/05/29 14:06:12.421    8.851980793    7.742175883   396.2573   4   0   0.0224   0.0215   0.0822   0.0025  -0.0038   0.0025   0.42    0.0
2022/05/29 14:06:13.421    8.851980790    7.742175879   396.2559   4   0   0.0224   0.0215   0.0822   0.0025  -0.0038   0.0025   0.42    0.0
2022/05/29 14:06:14.421    8.851980790    7.742175882   396.2553   4   0   0.0224   0.0215   0.0822   0.0025  -0.0038   0.0025   0.42    0.0
2022/05/29 14:06:15.421    8.851980790    7.742175879   396.2556   4   0   0.0224   0.0215   0.0822   0.0025  -0.0038   0.0025   0.42    0.0
2022/05/29 14:06:16.421    8.851980795    7.742175879   396.2576   4   0   0.0224   0.0215   0.0822   0.0025  -0.0038   0.0025   0.42    0.0
2022/05/29 14:06:17.421    8.851980787    7.742175879   396.2550   4   0   0.0224   0.0215   0.0822   0.0025  -0.0038   0.0025   0.42    0.0
2022/05/29 14:06:18.421    8.851980791    7.742175879   396.2547   4   0   0.0224   0.0215   0.0822   0.0025  -0.0038   0.0025   0.42    0.0
2022/05/29 14:06:19.421    8.851980784    7.742175881   396.2527   4   0   0.0224   0.0215   0.0822   0.0025  -0.0038   0.0025   0.42    0.0
2022/05/29 14:06:20.421    8.851980789    7.742175883   396.2547   4   0   0.0224   0.0215   0.0822   0.0025  -0.0038   0.0025   0.42    0.0
2022/05/29 14:06:21.421    8.851980789    7.742175882   396.2546   4   0   0.0224   0.0215   0.0822   0.0025  -0.0038   0.0025   0.42    0.0
2022/05/29 14:06:22.421    8.851980789    7.742175885   396.2546   4   0   0.0224   0.0215   0.0822   0.0025  -0.0038   0.0025   0.42    0.0
2022/05/29 14:06:23.421    8.851980790    7.742175883   396.2548   4   0   0.0224   0.0215   0.0822   0.0025  -0.0038   0.0025   0.42    0.0
2022/05/29 14:06:24.421    8.851980791    7.742175880   396.2557   4   0   0.0224   0.0215   0.0822   0.0025  -0.0038   0.0025   0.42    0.0
2022/05/29 14:06:25.421    8.851980790    7.742175881   396.2547   4   0   0.0224   0.0215   0.0822   0.0025  -0.0038   0.0025   0.42    0.0
2022/05/29 14:06:26.421    8.851980787    7.742175887   396.2548   4   0   0.0224   0.0215   0.0822   0.0025  -0.0038   0.0025   0.42    0.0
2022/05/29 14:06:27.421    8.851980790    7.742175883   396.2554   4   0   0.0224   0.0215   0.0822   0.0025  -0.0038   0.0025   0.42    0.0
2022/05/29 14:06:28.421    8.851980789    7.742175884   396.2543   4   0   0.0224   0.0215   0.0822   0.0025  -0.0038   0.0025   0.42    0.0
2022/05/29 14:06:29.421    8.851980796    7.742175890   396.2538   4   0   0.0224   0.0215   0.0822   0.0025  -0.0038   0.0025   0.42    0.0
2022/05/29 14:06:30.421    8.851980790    7.742175887   396.2542   4   0   0.0224   0.0215   0.0822   0.0025  -0.0038   0.0025   0.42    0.0
2022/05/29 14:06:31.421    8.851980798    7.742175893   396.2531   4   0   0.0224   0.0215   0.0822   0.0025  -0.0038   0.0025   0.42    0.0
2022/05/29 14:06:32.421    8.851980787    7.742175886   396.2547   4   0   0.0224   0.0215   0.0822   0.0025  -0.0038   0.0025   0.42    0.0
2022/05/29 14:06:33.421    8.851980787    7.742175885   396.2534   4   0   0.0224   0.0215   0.0822   0.0025  -0.0038   0.0025   0.42    0.0
2022/05/29 14:06:34.421    8.851980788    7.742175889   396.2542   4   0   0.0224   0.0215   0.0822   0.0025  -0.0038   0.0025   0.42    0.0
2022/05/29 14:06:35.421    8.851980789    7.742175888   396.2545   4   0   0.0224   0.0215   0.0822   0.0025  -0.0038   0.0025   0.42    0.0
2022/05/29 14:06:36.421    8.851980792    7.742175893   396.2539   4   0   0.0224   0.0215   0.0822   0.0025  -0.0038   0.0025   0.42    0.0
2022/05/29 14:06:37.421    8.851980796    7.742175893   396.2493   4   0   0.0224   0.0215   0.0822   0.0025  -0.0038   0.0025   0.42    0.0
2022/05/29 14:06:38.421    8.851980794    7.742175888   396.2493   4   0   0.0224   0.0215   0.0822   0.0025  -0.0038   0.0025   0.42    0.0
2022/05/29 14:06:39.421    8.851980803    7.742175893   396.2485   4   0   0.0224   0.0215   0.0822   0.0025  -0.0038   0.0025   0.42    0.0
2022/05/29 14:06:40.421    8.852008087    7.742189974   389.6032   4   0   0.1139   0.1159   0.3537  -0.0169   0.1409  -0.0997   0.42    0.0
2022/05/29 14:06:41.421    8.851980809    7.742175908   396.2372   4   0   0.0224   0.0215   0.0822   0.0025  -0.0038   0.0025   0.42    0.0
2022/05/29 14:06:42.421    8.852009017    7.742189877   389.3321   4   0   0.1135   0.1156   0.3526  -0.0161   0.1405  -0.0987   0.42    0.0
2022/05/29 14:06:43.421    8.851980826    7.742175922   396.2219   4   0   0.0224   0.0215   0.0822   0.0025  -0.0038   0.0025   0.42    0.0
2022/05/29 14:06:44.421    8.851980836    7.742175919   396.2215   4   0   0.0224   0.0215   0.0822   0.0025  -0.0038   0.0025   0.42    0.0
