% program   : RTKPOST ver.demo5 b34g
% inp file  : C:\Users\Abdullateef\Python_programs\GNSS programs\Smartphone GNSS Data Processing\Data\gnss_log_2022_05_29_14_51_17.22o
% inp file  : C:\Users\Abdullateef\Documents\PHD\Research on Precision Agriculture Navigation Technology\nav data\sensorlogSlim\ABFC00NGA_R_20221491400_01H_1S_MO.22D\ABFC00NGA_R_20221491400_01H_1S_MO.22D
% inp file  : C:\Users\Abdullateef\Documents\PHD\Research on Precision Agriculture Navigation Technology\nav data\sensorlogSlim\BRDM00DLR_S_20221490000_01D_MN.rnx\BRDM00DLR_S_20221490000_01D_MN.rnx
% obs start : 2022/05/29 13:51:35.4 GPST (week2212  49895.4s)
% obs end   : 2022/05/29 14:52:19.4 GPST (week2212  53539.4s)
% pos mode  : Static
% freqs     : L1+L2/E5b+L5
% solution  : Combined-No Phase Reset
% elev mask : 20.0 deg
% dynamics  : on
% tidecorr  : off
% ionos opt : Broadcast
% tropo opt : Saastamoinen
% ephemeris : Broadcast
% navi sys  : GPS GLONASS Galileo BDS
% amb res   : Fix and Hold
% amb glo   : Fix and Hold
% val thres : 3.0
% antenna1  :                       ( 0.0000  0.0000  0.0000)
% antenna2  :                       ( 0.0000  0.0000  0.0000)
% ref pos   :  9.027665666    7.486341687   532.6449
%
% (lat/lon/height=WGS84/ellipsoidal,Q=1:fix,2:float,3:sbas,4:dgps,5:single,6:ppp,ns=# of satellites)
%  GPST                  latitude(deg) longitude(deg)  height(m)   Q  ns   sdn(m)   sde(m)   sdu(m)  sdne(m)  sdeu(m)  sdun(m) age(s)  ratio
2022/05/29 13:59:30.421    8.851982062    7.742170141   400.7896   4   0   0.0167   0.0184   0.0583   0.0044  -0.0153   0.0158 -29.58    0.0
2022/05/29 13:59:31.421    8.851982055    7.742170131   400.7918   4   0   0.0167   0.0184   0.0583   0.0044  -0.0153   0.0158 -28.58    0.0
2022/05/29 13:59:32.421    8.851982065    7.742170135   400.7902   4   0   0.0167   0.0184   0.0583   0.0044  -0.0153   0.0158 -27.58    0.0
2022/05/29 13:59:33.421    8.851982061    7.742170134   400.7912   4   0   0.0167   0.0184   0.0583   0.0044  -0.0153   0.0158 -26.58    0.0
2022/05/29 13:59:34.421    8.851982065    7.742170136   400.7919   4   0   0.0167   0.0184   0.0583   0.0044  -0.0153   0.0158 -25.58    0.0
2022/05/29 13:59:35.421    8.851982061    7.742170130   400.7950   4   0   0.0167   0.0184   0.0583   0.0044  -0.0153   0.0158 -24.58    0.0
2022/05/29 13:59:36.421    8.851982059    7.742170139   400.7892   4   0   0.0167   0.0184   0.0583   0.0044  -0.0153   0.0158 -23.58    0.0
2022/05/29 13:59:37.421    8.851982059    7.742170126   400.7934   4   0   0.0167   0.0184   0.0583   0.0044  -0.0153   0.0158 -22.58    0.0
2022/05/29 13:59:38.421    8.851982046    7.742170135   400.7876   4   0   0.0167   0.0184   0.0583   0.0044  -0.0153   0.0158 -21.58    0.0
2022/05/29 13:59:39.421    8.851982053    7.742170126   400.7918   4   0   0.0167   0.0184   0.0583   0.0044  -0.0153   0.0158 -20.58    0.0
2022/05/29 13:59:40.421    8.851982051    7.742170144   400.7826   4   0   0.0167   0.0184   0.0583   0.0044  -0.0153   0.0158 -19.58    0.0
2022/05/29 13:59:41.421    8.851982044    7.742170129   400.7893   4   0   0.0167   0.0184   0.0583   0.0044  -0.0153   0.0158 -18.58    0.0
2022/05/29 13:59:42.421    8.851982037    7.742170132   400.7873   4   0   0.0167   0.0184   0.0583   0.0044  -0.0153   0.0158 -17.58    0.0
2022/05/29 13:59:43.421    8.851982048    7.742170151   400.7808   4   0   0.0167   0.0184   0.0583   0.0044  -0.0153   0.0158 -16.58    0.0
2022/05/29 13:59:44.421    8.851982036    7.742170145   400.7786   4   0   0.0167   0.0184   0.0583   0.0044  -0.0153   0.0158 -15.58    0.0
2022/05/29 13:59:45.421    8.851982032    7.742170136   400.7830   4   0   0.0167   0.0184   0.0583   0.0044  -0.0153   0.0158 -14.58    0.0
2022/05/29 13:59:46.421    8.851982029    7.742170142   400.7805   4   0   0.0167   0.0184   0.0583   0.0044  -0.0153   0.0158 -13.58    0.0
2022/05/29 13:59:47.421    8.851982036    7.742170137   400.7860   4   0   0.0167   0.0184   0.0583   0.0044  -0.0153   0.0158 -12.58    0.0
2022/05/29 13:59:48.421    8.851982034    7.742170141   400.7822   4   0   0.0167   0.0184   0.0583   0.0044  -0.0153   0.0158 -11.58    0.0
2022/05/29 13:59:49.421    8.851982031    7.742170142   400.7825   4   0   0.0167   0.0184   0.0583   0.0044  -0.0153   0.0158 -10.58    0.0
2022/05/29 13:59:50.421    8.851982041    7.742170149   400.7796   4   0   0.0167   0.0184   0.0583   0.0044  -0.0153   0.0158  -9.58    0.0
2022/05/29 13:59:51.421    8.851982035    7.742170161   400.7782   4   0   0.0167   0.0184   0.0583   0.0044  -0.0153   0.0158  -8.58    0.0
2022/05/29 13:59:52.421    8.851982042    7.742170155   400.7802   4   0   0.0167   0.0184   0.0583   0.0044  -0.0153   0.0158  -7.58    0.0
2022/05/29 13:59:53.421    8.851982035    7.742170144   400.7821   4   0   0.0167   0.0184   0.0583   0.0044  -0.0153   0.0158  -6.58    0.0
2022/05/29 13:59:54.421    8.851982037    7.742170140   400.7795   4   0   0.0167   0.0184   0.0583   0.0044  -0.0153   0.0158  -5.58    0.0
2022/05/29 13:59:55.421    8.851982032    7.742170139   400.7844   4   0   0.0167   0.0184   0.0583   0.0044  -0.0153   0.0158  -4.58    0.0
2022/05/29 13:59:56.421    8.851982032    7.742170135   400.7864   4   0   0.0167   0.0184   0.0583   0.0044  -0.0153   0.0158  -3.58    0.0
2022/05/29 13:59:57.421    8.851982031    7.742170140   400.7849   4   0   0.0167   0.0184   0.0583   0.0044  -0.0153   0.0158  -2.58    0.0
2022/05/29 13:59:58.421    8.851982041    7.742170151   400.7786   4   0   0.0167   0.0184   0.0583   0.0044  -0.0153   0.0158  -1.58    0.0
2022/05/29 13:59:59.421    8.851982039    7.742170144   400.7807   4   0   0.0167   0.0184   0.0583   0.0044  -0.0153   0.0158  -0.58    0.0
2022/05/29 14:00:00.421    8.851982043    7.742170137   400.7825   4   0   0.0167   0.0184   0.0583   0.0044  -0.0153   0.0158   0.42    0.0
2022/05/29 14:00:01.421    8.851982037    7.742170134   400.7819   4   0   0.0167   0.0184   0.0583   0.0044  -0.0153   0.0158   0.42    0.0
2022/05/29 14:00:02.421    8.851982035    7.742170147   400.7783   4   0   0.0167   0.0184   0.0583   0.0044  -0.0153   0.0158   0.42    0.0
2022/05/29 14:00:03.421    8.851982033    7.742170140   400.7810   4   0   0.0167   0.0184   0.0583   0.0044  -0.0153   0.0158   0.42    0.0
2022/05/29 14:00:04.421    8.851982034    7.742170145   400.7802   4   0   0.0167   0.0184   0.0583   0.0044  -0.0153   0.0158   0.42    0.0
2022/05/29 14:00:05.421    8.851982032    7.742170138   400.7819   4   0   0.0167   0.0184   0.0583   0.0044  -0.0153   0.0158   0.42    0.0
2022/05/29 14:00:06.421    8.851982031    7.742170144   400.7773   4   0   0.0167   0.0184   0.0583   0.0044  -0.0153   0.0158   0.42    0.0
2022/05/29 14:00:07.421    8.851982027    7.742170135   400.7830   4   0   0.0167   0.0184   0.0583   0.0044  -0.0153   0.0158   0.42    0.0
2022/05/29 14:00:08.421    8.851982023    7.742170133   400.7822   4   0   0.0167   0.0184   0.0583   0.0044  -0.0153   0.0158   0.42    0.0
2022/05/29 14:00:09.421    8.851982023    7.742170138   400.7773   4   0   0.0167   0.0184   0.0583   0.0044  -0.0153   0.0158   0.42    0.0
2022/05/29 14:00:10.421    8.851982035    7.742170148   400.7767   4   0   0.0167   0.0184   0.0583   0.0044  -0.0153   0.0158   0.42    0.0
2022/05/29 14:00:11.421    8.851982027    7.742170153   400.7695   4   0   0.0167   0.0184   0.0583   0.0044  -0.0153   0.0158   0.42    0.0
2022/05/29 14:00:12.421    8.851982029    7.742170145   400.7750   4   0   0.0167   0.0184   0.0583   0.0044  -0.0153   0.0158   0.42    0.0
2022/05/29 14:00:13.421    8.851982031    7.742170145   400.7716   4   0   0.0167   0.0184   0.0583   0.0044  -0.0153   0.0158   0.42    0.0
2022/05/29 14:00:14.421    8.851982033    7.742170140   400.7814   4   0   0.0167   0.0184   0.0583   0.0044  -0.0153   0.0158   0.42    0.0
2022/05/29 14:00:15.421    8.851982026    7.742170151   400.7705   4   0   0.0167   0.0184   0.0583   0.0044  -0.0153   0.0158   0.42    0.0
2022/05/29 14:00:16.421    8.851982020    7.742170148   400.7701   4   0   0.0167   0.0184   0.0583   0.0044  -0.0153   0.0158   0.42    0.0
2022/05/29 14:00:17.421    8.851982019    7.742170154   400.7674   4   0   0.0167   0.0184   0.0583   0.0044  -0.0153   0.0158   0.42    0.0
2022/05/29 14:00:18.421    8.851982020    7.742170156   400.7669   4   0   0.0167   0.0184   0.0583   0.0044  -0.0153   0.0158   0.42    0.0
2022/05/29 14:00:19.421    8.851982017    7.742170156   400.7643   4   0   0.0167   0.0184   0.0583   0.0044  -0.0153   0.0158   0.42    0.0
2022/05/29 14:00:20.421    8.851982009    7.742170143   400.7706   4   0   0.0167   0.0184   0.0583   0.0044  -0.0153   0.0158   0.42    0.0
2022/05/29 14:00:21.421    8.851982007    7.742170138   400.7693   4   0   0.0167   0.0184   0.0583   0.0044  -0.0153   0.0158   0.42    0.0
2022/05/29 14:00:22.421    8.851981993    7.742170138   400.7611   4   0   0.0167   0.0184   0.0583   0.0044  -0.0153   0.0158   0.42    0.0
2022/05/29 14:00:23.421    8.851981993    7.742170141   400.7631   4   0   0.0167   0.0184   0.0583   0.0044  -0.0153   0.0158   0.42    0.0
2022/05/29 14:00:24.421    8.851981979    7.742170144   400.7608   4   0   0.0167   0.0184   0.0583   0.0044  -0.0153   0.0158   0.42    0.0
2022/05/29 14:00:25.421    8.851981987    7.742170153   400.7563   4   0   0.0167   0.0184   0.0583   0.0044  -0.0153   0.0158   0.42    0.0
2022/05/29 14:00:26.421    8.851981989    7.742170156   400.7547   4   0   0.0167   0.0184   0.0583   0.0044  -0.0153   0.0158   0.42    0.0
2022/05/29 14:00:27.421    8.851981988    7.742170142   400.7597   4   0   0.0167   0.0184   0.0583   0.0044  -0.0153   0.0158   0.42    0.0
2022/05/29 14:00:28.421    8.851981979    7.742170134   400.7617   4   0   0.0167   0.0184   0.0583   0.0044  -0.0153   0.0158   0.42    0.0
2022/05/29 14:00:29.421    8.851981986    7.742170153   400.7567   4   0   0.0167   0.0184   0.0583   0.0044  -0.0153   0.0158   0.42    0.0
2022/05/29 14:00:30.421    8.851981984    7.742170149   400.7598   4   0   0.0167   0.0184   0.0583   0.0044  -0.0153   0.0158   0.42    0.0
2022/05/29 14:00:31.421    8.851982001    7.742170160   400.7545   4   0   0.0167   0.0184   0.0583   0.0044  -0.0153   0.0158   0.42    0.0
2022/05/29 14:00:32.421    8.851981991    7.742170156   400.7508   4   0   0.0167   0.0184   0.0583   0.0044  -0.0153   0.0158   0.42    0.0
2022/05/29 14:00:33.421    8.851981990    7.742170150   400.7533   4   0   0.0167   0.0184   0.0583   0.0044  -0.0153   0.0158   0.42    0.0
2022/05/29 14:00:34.421    8.851981990    7.742170157   400.7489   4   0   0.0167   0.0184   0.0583   0.0044  -0.0153   0.0158   0.42    0.0
2022/05/29 14:00:35.421    8.851981991    7.742170161   400.7508   4   0   0.0167   0.0184   0.0583   0.0044  -0.0153   0.0158   0.42    0.0
2022/05/29 14:00:36.421    8.851981991    7.742170156   400.7509   4   0   0.0167   0.0184   0.0583   0.0044  -0.0153   0.0158   0.42    0.0
2022/05/29 14:00:37.421    8.851981994    7.742170162   400.7515   4   0   0.0167   0.0184   0.0583   0.0044  -0.0153   0.0158   0.42    0.0
2022/05/29 14:00:38.421    8.851981994    7.742170157   400.7491   4   0   0.0167   0.0184   0.0583   0.0044  -0.0153   0.0158   0.42    0.0
2022/05/29 14:00:39.421    8.851981997    7.742170167   400.7492   4   0   0.0167   0.0184   0.0583   0.0044  -0.0153   0.0158   0.42    0.0
2022/05/29 14:00:40.421    8.851981996    7.742170166   400.7471   4   0   0.0167   0.0184   0.0583   0.0044  -0.0153   0.0158   0.42    0.0
2022/05/29 14:00:41.421    8.851982001    7.742170171   400.7454   4   0   0.0167   0.0184   0.0583   0.0044  -0.0153   0.0158   0.42    0.0
2022/05/29 14:00:42.421    8.851981987    7.742170160   400.7505   4   0   0.0167   0.0184   0.0583   0.0044  -0.0153   0.0158   0.42    0.0
2022/05/29 14:00:43.421    8.851981995    7.742170165   400.7479   4   0   0.0167   0.0184   0.0583   0.0044  -0.0153   0.0158   0.42    0.0
2022/05/29 14:00:44.421    8.851981999    7.742170164   400.7491   4   0   0.0167   0.0184   0.0583   0.0044  -0.0153   0.0158   0.42    0.0
2022/05/29 14:00:45.421    8.851982000    7.742170166   400.7515   4   0   0.0167   0.0184   0.0583   0.0044  -0.0153   0.0158   0.42    0.0
2022/05/29 14:00:46.421    8.851981996    7.742170167   400.7502   4   0   0.0167   0.0184   0.0583   0.0044  -0.0153   0.0158   0.42    0.0
2022/05/29 14:00:47.421    8.851982001    7.742170166   400.7472   4   0   0.0167   0.0184   0.0583   0.0044  -0.0153   0.0158   0.42    0.0
2022/05/29 14:00:48.421    8.851981991    7.742170169   400.7495   4   0   0.0167   0.0184   0.0583   0.0044  -0.0153   0.0158   0.42    0.0
2022/05/29 14:00:49.421    8.851981993    7.742170169   400.7482   4   0   0.0167   0.0184   0.0583   0.0044  -0.0153   0.0158   0.42    0.0
2022/05/29 14:00:50.421    8.851981993    7.742170187   400.7404   4   0   0.0167   0.0184   0.0583   0.0044  -0.0153   0.0158   0.42    0.0
2022/05/29 14:00:51.421    8.851981992    7.742170180   400.7417   4   0   0.0167   0.0184   0.0583   0.0044  -0.0153   0.0158   0.42    0.0
2022/05/29 14:00:52.421    8.851981990    7.742170185   400.7407   4   0   0.0167   0.0184   0.0583   0.0044  -0.0153   0.0158   0.42    0.0
2022/05/29 14:00:53.421    8.851981995    7.742170193   400.7387   4   0   0.0167   0.0184   0.0583   0.0044  -0.0153   0.0158   0.42    0.0
2022/05/29 14:00:54.421    8.851981987    7.742170188   400.7344   4   0   0.0167   0.0184   0.0583   0.0044  -0.0153   0.0158   0.42    0.0
2022/05/29 14:00:55.421    8.851981985    7.742170182   400.7450   4   0   0.0167   0.0184   0.0583   0.0044  -0.0153   0.0158   0.42    0.0
2022/05/29 14:00:56.421    8.851981968    7.742170175   400.7397   4   0   0.0167   0.0184   0.0583   0.0044  -0.0153   0.0158   0.42    0.0
2022/05/29 14:00:57.421    8.851981991    7.742170193   400.7387   4   0   0.0167   0.0184   0.0583   0.0044  -0.0153   0.0158   0.42    0.0
2022/05/29 14:00:58.421    8.851981980    7.742170181   400.7396   4   0   0.0167   0.0184   0.0583   0.0044  -0.0153   0.0158   0.42    0.0
2022/05/29 14:00:59.421    8.851981988    7.742170189   400.7386   4   0   0.0167   0.0184   0.0583   0.0044  -0.0153   0.0158   0.42    0.0
2022/05/29 14:01:00.421    8.851981984    7.742170185   400.7371   4   0   0.0167   0.0184   0.0583   0.0044  -0.0153   0.0158   0.42    0.0
2022/05/29 14:01:01.421    8.851981992    7.742170197   400.7348   4   0   0.0167   0.0184   0.0583   0.0044  -0.0153   0.0158   0.42    0.0
2022/05/29 14:01:02.421    8.851981986    7.742170192   400.7352   4   0   0.0167   0.0184   0.0583   0.0044  -0.0153   0.0158   0.42    0.0
2022/05/29 14:01:03.421    8.851981992    7.742170201   400.7322   4   0   0.0167   0.0184   0.0583   0.0044  -0.0153   0.0158   0.42    0.0
2022/05/29 14:01:04.421    8.851981991    7.742170188   400.7367   4   0   0.0167   0.0184   0.0583   0.0044  -0.0153   0.0158   0.42    0.0
2022/05/29 14:01:05.421    8.851981996    7.742170195   400.7344   4   0   0.0167   0.0184   0.0583   0.0044  -0.0153   0.0158   0.42    0.0
2022/05/29 14:01:06.421    8.851981993    7.742170191   400.7347   4   0   0.0167   0.0184   0.0583   0.0044  -0.0153   0.0158   0.42    0.0
2022/05/29 14:01:07.421    8.851981999    7.742170192   400.7344   4   0   0.0167   0.0184   0.0583   0.0044  -0.0153   0.0158   0.42    0.0
2022/05/29 14:01:08.421    8.851981989    7.742170198   400.7314   4   0   0.0167   0.0184   0.0583   0.0044  -0.0153   0.0158   0.42    0.0
2022/05/29 14:01:09.421    8.851981990    7.742170187   400.7359   4   0   0.0167   0.0184   0.0583   0.0044  -0.0153   0.0158   0.42    0.0
2022/05/29 14:01:10.421    8.851981987    7.742170188   400.7331   4   0   0.0167   0.0184   0.0583   0.0044  -0.0153   0.0158   0.42    0.0
2022/05/29 14:01:11.421    8.851981991    7.742170192   400.7345   4   0   0.0167   0.0184   0.0583   0.0044  -0.0153   0.0158   0.42    0.0
2022/05/29 14:01:12.421    8.851981986    7.742170196   400.7332   4   0   0.0167   0.0184   0.0583   0.0044  -0.0153   0.0158   0.42    0.0
2022/05/29 14:01:13.421    8.851981991    7.742170193   400.7344   4   0   0.0167   0.0184   0.0583   0.0044  -0.0153   0.0158   0.42    0.0
2022/05/29 14:01:14.421    8.851981997    7.742170197   400.7313   4   0   0.0167   0.0184   0.0583   0.0044  -0.0153   0.0158   0.42    0.0
2022/05/29 14:01:15.421    8.851981993    7.742170192   400.7337   4   0   0.0167   0.0184   0.0583   0.0044  -0.0153   0.0158   0.42    0.0
2022/05/29 14:01:16.421    8.851981995    7.742170195   400.7334   4   0   0.0167   0.0184   0.0583   0.0044  -0.0153   0.0158   0.42    0.0
2022/05/29 14:01:17.421    8.851981995    7.742170196   400.7334   4   0   0.0167   0.0184   0.0583   0.0044  -0.0153   0.0158   0.42    0.0
2022/05/29 14:01:18.421    8.851981992    7.742170197   400.7313   4   0   0.0167   0.0184   0.0583   0.0044  -0.0153   0.0158   0.42    0.0
2022/05/29 14:01:19.421    8.851981992    7.742170196   400.7311   4   0   0.0167   0.0184   0.0583   0.0044  -0.0153   0.0158   0.42    0.0
2022/05/29 14:01:20.421    8.851981990    7.742170194   400.7333   4   0   0.0167   0.0184   0.0583   0.0044  -0.0153   0.0158   0.42    0.0
2022/05/29 14:01:21.421    8.851981994    7.742170195   400.7330   4   0   0.0167   0.0184   0.0583   0.0044  -0.0153   0.0158   0.42    0.0
2022/05/29 14:01:22.421    8.851981993    7.742170199   400.7323   4   0   0.0167   0.0184   0.0583   0.0044  -0.0153   0.0158   0.42    0.0
2022/05/29 14:01:23.421    8.851981993    7.742170207   400.7287   4   0   0.0167   0.0184   0.0583   0.0044  -0.0153   0.0158   0.42    0.0
2022/05/29 14:01:24.421    8.851981990    7.742170201   400.7270   4   0   0.0167   0.0184   0.0583   0.0044  -0.0153   0.0158   0.42    0.0
2022/05/29 14:01:25.421    8.851981993    7.742170200   400.7317   4   0   0.0167   0.0184   0.0583   0.0044  -0.0153   0.0158   0.42    0.0
2022/05/29 14:01:26.421    8.851981991    7.742170209   400.7270   4   0   0.0167   0.0184   0.0583   0.0044  -0.0153   0.0158   0.42    0.0
2022/05/29 14:01:27.421    8.851981992    7.742170202   400.7320   4   0   0.0167   0.0184   0.0583   0.0044  -0.0153   0.0158   0.42    0.0
2022/05/29 14:01:28.421    8.851981994    7.742170209   400.7278   4   0   0.0167   0.0184   0.0583   0.0044  -0.0153   0.0158   0.42    0.0
2022/05/29 14:01:29.421    8.851981994    7.742170210   400.7272   4   0   0.0167   0.0184   0.0583   0.0044  -0.0153   0.0158   0.42    0.0
2022/05/29 14:01:30.421    8.851981996    7.742170212   400.7268   4   0   0.0167   0.0184   0.0583   0.0044  -0.0153   0.0158   0.42    0.0
2022/05/29 14:01:31.421    8.851981991    7.742170210   400.7266   4   0   0.0167   0.0184   0.0583   0.0044  -0.0153   0.0158   0.42    0.0
2022/05/29 14:01:32.421    8.851981983    7.742170203   400.7293   4   0   0.0167   0.0184   0.0583   0.0044  -0.0153   0.0158   0.42    0.0
2022/05/29 14:01:33.421    8.851981987    7.742170211   400.7282   4   0   0.0167   0.0184   0.0583   0.0044  -0.0153   0.0158   0.42    0.0
2022/05/29 14:01:34.421    8.851981990    7.742170217   400.7240   4   0   0.0167   0.0184   0.0583   0.0044  -0.0153   0.0158   0.42    0.0
2022/05/29 14:01:35.421    8.851981989    7.742170211   400.7248   4   0   0.0167   0.0184   0.0583   0.0044  -0.0153   0.0158   0.42    0.0
2022/05/29 14:01:36.421    8.851981980    7.742170216   400.7211   4   0   0.0167   0.0184   0.0583   0.0044  -0.0153   0.0158   0.42    0.0
2022/05/29 14:01:37.421    8.851981982    7.742170216   400.7211   4   0   0.0167   0.0184   0.0583   0.0044  -0.0153   0.0158   0.42    0.0
2022/05/29 14:01:38.421    8.851981989    7.742170210   400.7234   4   0   0.0167   0.0184   0.0583   0.0044  -0.0153   0.0158   0.42    0.0
2022/05/29 14:01:39.421    8.851981984    7.742170226   400.7212   4   0   0.0167   0.0184   0.0583   0.0044  -0.0153   0.0158   0.42    0.0
2022/05/29 14:01:40.421    8.851981977    7.742170207   400.7250   4   0   0.0167   0.0184   0.0583   0.0044  -0.0153   0.0158   0.42    0.0
2022/05/29 14:01:41.421    8.851981982    7.742170225   400.7169   4   0   0.0167   0.0184   0.0583   0.0044  -0.0153   0.0158   0.42    0.0
2022/05/29 14:01:42.421    8.851981982    7.742170214   400.7207   4   0   0.0167   0.0184   0.0583   0.0044  -0.0153   0.0158   0.42    0.0
2022/05/29 14:01:43.421    8.851981981    7.742170226   400.7209   4   0   0.0167   0.0184   0.0583   0.0044  -0.0153   0.0158   0.42    0.0
2022/05/29 14:01:44.421    8.851981983    7.742170214   400.7214   4   0   0.0167   0.0184   0.0583   0.0044  -0.0153   0.0158   0.42    0.0
2022/05/29 14:01:45.421    8.851981986    7.742170213   400.7221   4   0   0.0167   0.0184   0.0583   0.0044  -0.0153   0.0158   0.42    0.0
2022/05/29 14:01:46.421    8.851981987    7.742170219   400.7240   4   0   0.0167   0.0184   0.0583   0.0044  -0.0153   0.0158   0.42    0.0
2022/05/29 14:01:47.421    8.851981985    7.742170237   400.7170   4   0   0.0167   0.0184   0.0583   0.0044  -0.0153   0.0158   0.42    0.0
2022/05/29 14:01:48.421    8.851981988    7.742170227   400.7207   4   0   0.0167   0.0184   0.0583   0.0044  -0.0153   0.0158   0.42    0.0
2022/05/29 14:01:49.421    8.851981986    7.742170227   400.7182   4   0   0.0167   0.0184   0.0583   0.0044  -0.0153   0.0158   0.42    0.0
2022/05/29 14:01:50.421    8.851981985    7.742170225   400.7203   4   0   0.0167   0.0184   0.0583   0.0044  -0.0153   0.0158   0.42    0.0
2022/05/29 14:01:51.421    8.851981990    7.742170231   400.7215   4   0   0.0167   0.0184   0.0583   0.0044  -0.0153   0.0158   0.42    0.0
2022/05/29 14:01:52.421    8.851981986    7.742170231   400.7192   4   0   0.0167   0.0184   0.0583   0.0044  -0.0153   0.0158   0.42    0.0
2022/05/29 14:01:53.421    8.851981978    7.742170232   400.7156   4   0   0.0167   0.0184   0.0583   0.0044  -0.0153   0.0158   0.42    0.0
2022/05/29 14:01:54.421    8.851981994    7.742170236   400.7147   4   0   0.0167   0.0184   0.0583   0.0044  -0.0153   0.0158   0.42    0.0
2022/05/29 14:01:55.421    8.851981991    7.742170238   400.7126   4   0   0.0167   0.0184   0.0583   0.0044  -0.0153   0.0158   0.42    0.0
2022/05/29 14:01:56.421    8.851981991    7.742170237   400.7117   4   0   0.0167   0.0184   0.0583   0.0044  -0.0153   0.0158   0.42    0.0
2022/05/29 14:01:57.421    8.851981991    7.742170235   400.7116   4   0   0.0167   0.0184   0.0583   0.0044  -0.0153   0.0158   0.42    0.0
2022/05/29 14:01:58.421    8.851981983    7.742170233   400.7139   4   0   0.0167   0.0184   0.0583   0.0044  -0.0153   0.0158   0.42    0.0
2022/05/29 14:01:59.421    8.851981985    7.742170225   400.7164   4   0   0.0167   0.0184   0.0583   0.0044  -0.0153   0.0158   0.42    0.0
2022/05/29 14:02:00.421    8.851981992    7.742170228   400.7151   4   0   0.0167   0.0184   0.0583   0.0044  -0.0153   0.0158   0.42    0.0
2022/05/29 14:02:01.421    8.851981989    7.742170225   400.7144   4   0   0.0167   0.0184   0.0583   0.0044  -0.0153   0.0158   0.42    0.0
2022/05/29 14:02:02.421    8.851981989    7.742170232   400.7086   4   0   0.0167   0.0184   0.0583   0.0044  -0.0153   0.0158   0.42    0.0
2022/05/29 14:02:03.421    8.851981991    7.742170230   400.7136   4   0   0.0167   0.0184   0.0583   0.0044  -0.0153   0.0158   0.42    0.0
2022/05/29 14:02:04.421    8.851981990    7.742170236   400.7143   4   0   0.0167   0.0184   0.0583   0.0044  -0.0153   0.0158   0.42    0.0
2022/05/29 14:02:05.421    8.851981991    7.742170238   400.7151   4   0   0.0167   0.0184   0.0583   0.0044  -0.0153   0.0158   0.42    0.0
2022/05/29 14:02:06.421    8.851981987    7.742170240   400.7129   4   0   0.0167   0.0184   0.0583   0.0044  -0.0153   0.0158   0.42    0.0
2022/05/29 14:02:07.421    8.851981990    7.742170240   400.7133   4   0   0.0167   0.0184   0.0583   0.0044  -0.0153   0.0158   0.42    0.0
2022/05/29 14:02:08.421    8.851981998    7.742170245   400.7108   4   0   0.0167   0.0184   0.0583   0.0044  -0.0153   0.0158   0.42    0.0
2022/05/29 14:02:09.421    8.851981990    7.742170235   400.7134   4   0   0.0167   0.0184   0.0583   0.0044  -0.0153   0.0158   0.42    0.0
2022/05/29 14:02:10.421    8.851981996    7.742170235   400.7118   4   0   0.0167   0.0184   0.0583   0.0044  -0.0153   0.0158   0.42    0.0
2022/05/29 14:02:11.421    8.851981993    7.742170237   400.7142   4   0   0.0167   0.0184   0.0583   0.0044  -0.0153   0.0158   0.42    0.0
2022/05/29 14:02:12.421    8.851981994    7.742170230   400.7133   4   0   0.0167   0.0184   0.0583   0.0044  -0.0153   0.0158   0.42    0.0
2022/05/29 14:02:13.421    8.851981992    7.742170234   400.7151   4   0   0.0167   0.0184   0.0583   0.0044  -0.0153   0.0158   0.42    0.0
2022/05/29 14:02:14.421    8.851981990    7.742170238   400.7135   4   0   0.0167   0.0184   0.0583   0.0044  -0.0153   0.0158   0.42    0.0
2022/05/29 14:02:15.421    8.851981989    7.742170233   400.7131   4   0   0.0167   0.0184   0.0583   0.0044  -0.0153   0.0158   0.42    0.0
2022/05/29 14:02:16.421    8.851981998    7.742170229   400.7158   4   0   0.0167   0.0184   0.0583   0.0044  -0.0153   0.0158   0.42    0.0
2022/05/29 14:02:17.421    8.851981998    7.742170232   400.7121   4   0   0.0167   0.0184   0.0583   0.0044  -0.0153   0.0158   0.42    0.0
2022/05/29 14:02:18.421    8.851982006    7.742170233   400.7129   4   0   0.0167   0.0184   0.0583   0.0044  -0.0153   0.0158   0.42    0.0
2022/05/29 14:02:19.421    8.851982011    7.742170233   400.7108   4   0   0.0167   0.0184   0.0583   0.0044  -0.0153   0.0158   0.42    0.0
2022/05/29 14:02:20.421    8.851981999    7.742170226   400.7093   4   0   0.0167   0.0184   0.0583   0.0044  -0.0153   0.0158   0.42    0.0
2022/05/29 14:02:21.421    8.851982004    7.742170235   400.7073   4   0   0.0167   0.0184   0.0583   0.0044  -0.0153   0.0158   0.42    0.0
2022/05/29 14:02:22.421    8.851981998    7.742170231   400.7104   4   0   0.0167   0.0184   0.0583   0.0044  -0.0153   0.0158   0.42    0.0
2022/05/29 14:02:23.421    8.851982001    7.742170235   400.7118   4   0   0.0167   0.0184   0.0583   0.0044  -0.0153   0.0158   0.42    0.0
2022/05/29 14:02:24.421    8.851981999    7.742170236   400.7097   4   0   0.0167   0.0184   0.0583   0.0044  -0.0153   0.0158   0.42    0.0
2022/05/29 14:02:25.421    8.851982011    7.742170243   400.7090   4   0   0.0167   0.0184   0.0583   0.0044  -0.0153   0.0158   0.42    0.0
2022/05/29 14:02:26.421    8.851981997    7.742170236   400.7100   4   0   0.0167   0.0184   0.0583   0.0044  -0.0153   0.0158   0.42    0.0
2022/05/29 14:02:27.421    8.851981997    7.742170235   400.7103   4   0   0.0167   0.0184   0.0583   0.0044  -0.0153   0.0158   0.42    0.0
2022/05/29 14:02:28.421    8.851981994    7.742170230   400.7102   4   0   0.0167   0.0184   0.0583   0.0044  -0.0153   0.0158   0.42    0.0
2022/05/29 14:02:29.421    8.851981993    7.742170233   400.7131   4   0   0.0167   0.0184   0.0583   0.0044  -0.0153   0.0158   0.42    0.0
2022/05/29 14:02:30.421    8.851981996    7.742170229   400.7123   4   0   0.0167   0.0184   0.0583   0.0044  -0.0153   0.0158   0.42    0.0
2022/05/29 14:02:31.421    8.851981996    7.742170234   400.7119   4   0   0.0167   0.0184   0.0583   0.0044  -0.0153   0.0158   0.42    0.0
2022/05/29 14:02:32.421    8.851981997    7.742170234   400.7119   4   0   0.0167   0.0184   0.0583   0.0044  -0.0153   0.0158   0.42    0.0
2022/05/29 14:02:33.421    8.851981998    7.742170241   400.7068   4   0   0.0167   0.0184   0.0583   0.0044  -0.0153   0.0158   0.42    0.0
2022/05/29 14:02:34.421    8.851981989    7.742170237   400.7065   4   0   0.0167   0.0184   0.0583   0.0044  -0.0153   0.0158   0.42    0.0
2022/05/29 14:02:35.421    8.851981991    7.742170233   400.7070   4   0   0.0167   0.0184   0.0583   0.0044  -0.0153   0.0158   0.42    0.0
2022/05/29 14:02:36.421    8.851982002    7.742170241   400.7080   4   0   0.0167   0.0184   0.0583   0.0044  -0.0153   0.0158   0.42    0.0
2022/05/29 14:02:37.421    8.851982002    7.742170236   400.7085   4   0   0.0167   0.0184   0.0583   0.0044  -0.0153   0.0158   0.42    0.0
2022/05/29 14:02:38.421    8.851981999    7.742170228   400.7110   4   0   0.0167   0.0184   0.0583   0.0044  -0.0153   0.0158   0.42    0.0
2022/05/29 14:02:39.421    8.851982002    7.742170233   400.7109   4   0   0.0167   0.0184   0.0583   0.0044  -0.0153   0.0158   0.42    0.0
2022/05/29 14:02:40.421    8.851981995    7.742170231   400.7097   4   0   0.0167   0.0184   0.0583   0.0044  -0.0153   0.0158   0.42    0.0
2022/05/29 14:02:41.421    8.851981999    7.742170229   400.7123   4   0   0.0167   0.0184   0.0583   0.0044  -0.0153   0.0158   0.42    0.0
2022/05/29 14:02:42.421    8.851982000    7.742170235   400.7129   4   0   0.0167   0.0184   0.0583   0.0044  -0.0153   0.0158   0.42    0.0
2022/05/29 14:02:43.421    8.851982000    7.742170226   400.7131   4   0   0.0167   0.0184   0.0583   0.0044  -0.0153   0.0158   0.42    0.0
2022/05/29 14:02:44.421    8.851981998    7.742170228   400.7140   4   0   0.0167   0.0184   0.0583   0.0044  -0.0153   0.0158   0.42    0.0
2022/05/29 14:02:45.421    8.851982003    7.742170227   400.7127   4   0   0.0167   0.0184   0.0583   0.0044  -0.0153   0.0158   0.42    0.0
2022/05/29 14:02:46.421    8.851982004    7.742170245   400.7106   4   0   0.0167   0.0184   0.0583   0.0044  -0.0153   0.0158   0.42    0.0
2022/05/29 14:02:47.421    8.851982002    7.742170235   400.7141   4   0   0.0167   0.0184   0.0583   0.0044  -0.0153   0.0158   0.42    0.0
2022/05/29 14:02:48.421    8.851981998    7.742170237   400.7134   4   0   0.0167   0.0184   0.0583   0.0044  -0.0153   0.0158   0.42    0.0
2022/05/29 14:02:49.421    8.851982008    7.742170232   400.7158   4   0   0.0167   0.0184   0.0583   0.0044  -0.0153   0.0158   0.42    0.0
2022/05/29 14:02:50.421    8.851981999    7.742170232   400.7135   4   0   0.0167   0.0184   0.0583   0.0044  -0.0153   0.0158   0.42    0.0
2022/05/29 14:02:51.421    8.851982000    7.742170232   400.7130   4   0   0.0167   0.0184   0.0583   0.0044  -0.0153   0.0158   0.42    0.0
2022/05/29 14:02:52.421    8.851981991    7.742170233   400.7111   4   0   0.0167   0.0184   0.0583   0.0044  -0.0153   0.0158   0.42    0.0
2022/05/29 14:02:53.421    8.851982004    7.742170237   400.7140   4   0   0.0167   0.0184   0.0583   0.0044  -0.0153   0.0158   0.42    0.0
2022/05/29 14:02:54.421    8.851982004    7.742170240   400.7151   4   0   0.0167   0.0184   0.0583   0.0044  -0.0153   0.0158   0.42    0.0
2022/05/29 14:02:55.421    8.851982001    7.742170237   400.7127   4   0   0.0167   0.0184   0.0583   0.0044  -0.0153   0.0158   0.42    0.0
2022/05/29 14:02:56.421    8.851982001    7.742170234   400.7130   4   0   0.0167   0.0184   0.0583   0.0044  -0.0153   0.0158   0.42    0.0
2022/05/29 14:02:57.421    8.851982000    7.742170238   400.7126   4   0   0.0167   0.0184   0.0583   0.0044  -0.0153   0.0158   0.42    0.0
2022/05/29 14:02:58.421    8.851981995    7.742170234   400.7116   4   0   0.0167   0.0184   0.0583   0.0044  -0.0153   0.0158   0.42    0.0
2022/05/29 14:02:59.421    8.851981997    7.742170231   400.7136   4   0   0.0167   0.0184   0.0583   0.0044  -0.0153   0.0158   0.42    0.0
2022/05/29 14:03:00.421    8.851982012    7.742170237   400.7115   4   0   0.0167   0.0184   0.0583   0.0044  -0.0153   0.0158   0.42    0.0
2022/05/29 14:03:01.421    8.851981998    7.742170237   400.7091   4   0   0.0167   0.0184   0.0583   0.0044  -0.0153   0.0158   0.42    0.0
2022/05/29 14:03:02.421    8.851981993    7.742170226   400.7178   4   0   0.0167   0.0184   0.0583   0.0044  -0.0153   0.0158   0.42    0.0
2022/05/29 14:03:03.421    8.851982005    7.742170238   400.7124   4   0   0.0167   0.0184   0.0583   0.0044  -0.0153   0.0158   0.42    0.0
2022/05/29 14:03:04.421    8.851982005    7.742170240   400.7082   4   0   0.0167   0.0184   0.0583   0.0044  -0.0153   0.0158   0.42    0.0
2022/05/29 14:03:05.421    8.851982011    7.742170234   400.7115   4   0   0.0167   0.0184   0.0583   0.0044  -0.0153   0.0158   0.42    0.0
2022/05/29 14:03:06.421    8.851981999    7.742170225   400.7140   4   0   0.0167   0.0184   0.0583   0.0044  -0.0153   0.0158   0.42    0.0
2022/05/29 14:03:07.421    8.851982006    7.742170238   400.7095   4   0   0.0167   0.0184   0.0583   0.0044  -0.0153   0.0158   0.42    0.0
2022/05/29 14:03:08.421    8.851981999    7.742170231   400.7134   4   0   0.0167   0.0184   0.0583   0.0044  -0.0153   0.0158   0.42    0.0
2022/05/29 14:03:09.421    8.851982009    7.742170236   400.7109   4   0   0.0167   0.0184   0.0583   0.0044  -0.0153   0.0158   0.42    0.0
2022/05/29 14:03:10.421    8.851981999    7.742170243   400.7056   4   0   0.0167   0.0184   0.0583   0.0044  -0.0153   0.0158   0.42    0.0
2022/05/29 14:03:11.421    8.851981993    7.742170235   400.7100   4   0   0.0167   0.0184   0.0583   0.0044  -0.0153   0.0158   0.42    0.0
2022/05/29 14:03:12.421    8.851981998    7.742170238   400.7073   4   0   0.0167   0.0184   0.0583   0.0044  -0.0153   0.0158   0.42    0.0
2022/05/29 14:03:13.421    8.851981990    7.742170227   400.7122   4   0   0.0167   0.0184   0.0583   0.0044  -0.0153   0.0158   0.42    0.0
2022/05/29 14:03:14.421    8.851982004    7.742170242   400.7084   4   0   0.0167   0.0184   0.0583   0.0044  -0.0153   0.0158   0.42    0.0
2022/05/29 14:03:15.421    8.851981995    7.742170237   400.7094   4   0   0.0167   0.0184   0.0583   0.0044  -0.0153   0.0158   0.42    0.0
2022/05/29 14:03:16.421    8.851981999    7.742170244   400.7105   4   0   0.0167   0.0184   0.0583   0.0044  -0.0153   0.0158   0.42    0.0
2022/05/29 14:03:17.421    8.851981994    7.742170236   400.7115   4   0   0.0167   0.0184   0.0583   0.0044  -0.0153   0.0158   0.42    0.0
2022/05/29 14:03:18.421    8.851981992    7.742170240   400.7096   4   0   0.0167   0.0184   0.0583   0.0044  -0.0153   0.0158   0.42    0.0
2022/05/29 14:03:19.421    8.851981996    7.742170242   400.7092   4   0   0.0167   0.0184   0.0583   0.0044  -0.0153   0.0158   0.42    0.0
2022/05/29 14:03:20.421    8.851981999    7.742170235   400.7104   4   0   0.0167   0.0184   0.0583   0.0044  -0.0153   0.0158   0.42    0.0
2022/05/29 14:03:21.421    8.851981999    7.742170239   400.7097   4   0   0.0167   0.0184   0.0583   0.0044  -0.0153   0.0158   0.42    0.0
2022/05/29 14:03:22.421    8.851982000    7.742170232   400.7095   4   0   0.0167   0.0184   0.0583   0.0044  -0.0153   0.0158   0.42    0.0
2022/05/29 14:03:23.421    8.851982002    7.742170226   400.7120   4   0   0.0167   0.0184   0.0583   0.0044  -0.0153   0.0158   0.42    0.0
2022/05/29 14:03:24.421    8.851981996    7.742170230   400.7122   4   0   0.0167   0.0184   0.0583   0.0044  -0.0153   0.0158   0.42    0.0
2022/05/29 14:03:25.421    8.851982012    7.742170237   400.7106   4   0   0.0167   0.0184   0.0583   0.0044  -0.0153   0.0158   0.42    0.0
2022/05/29 14:03:26.421    8.851982003    7.742170239   400.7068   4   0   0.0167   0.0184   0.0583   0.0044  -0.0153   0.0158   0.42    0.0
2022/05/29 14:03:27.421    8.851982005    7.742170250   400.7064   4   0   0.0167   0.0184   0.0583   0.0044  -0.0153   0.0158   0.42    0.0
2022/05/29 14:03:28.421    8.851982010    7.742170255   400.7033   4   0   0.0167   0.0184   0.0583   0.0044  -0.0153   0.0158   0.42    0.0
2022/05/29 14:03:29.421    8.851982008    7.742170243   400.7092   4   0   0.0167   0.0184   0.0583   0.0044  -0.0153   0.0158   0.42    0.0
2022/05/29 14:03:30.421    8.851982000    7.742170245   400.7067   4   0   0.0167   0.0184   0.0583   0.0044  -0.0153   0.0158   0.42    0.0
2022/05/29 14:03:31.421    8.851982001    7.742170243   400.7065   4   0   0.0167   0.0184   0.0583   0.0044  -0.0153   0.0158   0.42    0.0
2022/05/29 14:03:32.421    8.851982014    7.742170252   400.7061   4   0   0.0167   0.0184   0.0583   0.0044  -0.0153   0.0158   0.42    0.0
2022/05/29 14:03:33.421    8.851982013    7.742170254   400.7049   4   0   0.0167   0.0184   0.0583   0.0044  -0.0153   0.0158   0.42    0.0
2022/05/29 14:03:34.421    8.851982011    7.742170253   400.7035   4   0   0.0167   0.0184   0.0583   0.0044  -0.0153   0.0158   0.42    0.0
2022/05/29 14:03:35.421    8.851982008    7.742170256   400.7032   4   0   0.0167   0.0184   0.0583   0.0044  -0.0153   0.0158   0.42    0.0
2022/05/29 14:03:36.421    8.851982012    7.742170253   400.7062   4   0   0.0167   0.0184   0.0583   0.0044  -0.0153   0.0158   0.42    0.0
2022/05/29 14:03:37.421    8.851982013    7.742170253   400.7052   4   0   0.0167   0.0184   0.0583   0.0044  -0.0153   0.0158   0.42    0.0
2022/05/29 14:03:38.421    8.851982008    7.742170252   400.7028   4   0   0.0167   0.0184   0.0583   0.0044  -0.0153   0.0158   0.42    0.0
2022/05/29 14:03:39.421    8.851982009    7.742170249   400.7048   4   0   0.0167   0.0184   0.0583   0.0044  -0.0153   0.0158   0.42    0.0
2022/05/29 14:03:40.421    8.851982016    7.742170258   400.7058   4   0   0.0167   0.0184   0.0583   0.0044  -0.0153   0.0158   0.42    0.0
2022/05/29 14:03:41.421    8.851982010    7.742170257   400.7036   4   0   0.0167   0.0184   0.0583   0.0044  -0.0153   0.0158   0.42    0.0
2022/05/29 14:03:42.421    8.851982017    7.742170262   400.7032   4   0   0.0167   0.0184   0.0583   0.0044  -0.0153   0.0158   0.42    0.0
2022/05/29 14:03:43.421    8.851982020    7.742170261   400.7033   4   0   0.0167   0.0184   0.0583   0.0044  -0.0153   0.0158   0.42    0.0
2022/05/29 14:03:44.421    8.851982017    7.742170266   400.7029   4   0   0.0167   0.0184   0.0583   0.0044  -0.0153   0.0158   0.42    0.0
2022/05/29 14:03:45.421    8.851982021    7.742170258   400.7047   4   0   0.0167   0.0184   0.0583   0.0044  -0.0153   0.0158   0.42    0.0
2022/05/29 14:03:46.421    8.851982021    7.742170261   400.7040   4   0   0.0167   0.0184   0.0583   0.0044  -0.0153   0.0158   0.42    0.0
2022/05/29 14:03:47.421    8.851982017    7.742170268   400.7021   4   0   0.0167   0.0184   0.0583   0.0044  -0.0153   0.0158   0.42    0.0
2022/05/29 14:03:48.421    8.851982031    7.742170269   400.7005   4   0   0.0167   0.0184   0.0583   0.0044  -0.0153   0.0158   0.42    0.0
2022/05/29 14:03:49.421    8.851982031    7.742170266   400.7032   4   0   0.0167   0.0184   0.0583   0.0044  -0.0153   0.0158   0.42    0.0
2022/05/29 14:03:50.421    8.851982033    7.742170266   400.7048   4   0   0.0167   0.0184   0.0583   0.0044  -0.0153   0.0158   0.42    0.0
2022/05/29 14:03:51.421    8.851982032    7.742170272   400.6990   4   0   0.0167   0.0184   0.0583   0.0044  -0.0153   0.0158   0.42    0.0
2022/05/29 14:03:52.421    8.851982031    7.742170275   400.6964   4   0   0.0167   0.0184   0.0583   0.0044  -0.0153   0.0158   0.42    0.0
2022/05/29 14:03:53.421    8.851982028    7.742170266   400.7029   4   0   0.0167   0.0184   0.0583   0.0044  -0.0153   0.0158   0.42    0.0
2022/05/29 14:03:54.421    8.851982036    7.742170275   400.6981   4   0   0.0167   0.0184   0.0583   0.0044  -0.0153   0.0158   0.42    0.0
2022/05/29 14:03:55.421    8.851982028    7.742170276   400.6972   4   0   0.0167   0.0184   0.0583   0.0044  -0.0153   0.0158   0.42    0.0
2022/05/29 14:03:56.421    8.851982031    7.742170270   400.7004   4   0   0.0167   0.0184   0.0583   0.0044  -0.0153   0.0158   0.42    0.0
2022/05/29 14:03:57.421    8.851982036    7.742170272   400.7009   4   0   0.0167   0.0184   0.0583   0.0044  -0.0153   0.0158   0.42    0.0
2022/05/29 14:03:58.421    8.851982031    7.742170266   400.7003   4   0   0.0167   0.0184   0.0583   0.0044  -0.0153   0.0158   0.42    0.0
2022/05/29 14:03:59.421    8.851982035    7.742170264   400.7011   4   0   0.0167   0.0184   0.0583   0.0044  -0.0153   0.0158   0.42    0.0
2022/05/29 14:04:00.421    8.851982027    7.742170256   400.7062   4   0   0.0167   0.0184   0.0583   0.0044  -0.0153   0.0158   0.42    0.0
2022/05/29 14:04:01.421    8.851982030    7.742170259   400.7071   4   0   0.0167   0.0184   0.0583   0.0044  -0.0153   0.0158   0.42    0.0
2022/05/29 14:04:02.421    8.851982033    7.742170255   400.7073   4   0   0.0167   0.0184   0.0583   0.0044  -0.0153   0.0158   0.42    0.0
2022/05/29 14:04:03.421    8.851982028    7.742170255   400.7074   4   0   0.0167   0.0184   0.0583   0.0044  -0.0153   0.0158   0.42    0.0
2022/05/29 14:04:04.421    8.851982031    7.742170258   400.7049   4   0   0.0167   0.0184   0.0583   0.0044  -0.0153   0.0158   0.42    0.0
2022/05/29 14:04:05.421    8.851982032    7.742170259   400.7038   4   0   0.0167   0.0184   0.0583   0.0044  -0.0153   0.0158   0.42    0.0
2022/05/29 14:04:06.421    8.851982029    7.742170263   400.7018   4   0   0.0167   0.0184   0.0583   0.0044  -0.0153   0.0158   0.42    0.0
2022/05/29 14:04:07.421    8.851982031    7.742170262   400.7006   4   0   0.0167   0.0184   0.0583   0.0044  -0.0153   0.0158   0.42    0.0
2022/05/29 14:04:08.421    8.851982031    7.742170268   400.6980   4   0   0.0167   0.0184   0.0583   0.0044  -0.0153   0.0158   0.42    0.0
2022/05/29 14:04:09.421    8.851982038    7.742170262   400.7015   4   0   0.0167   0.0184   0.0583   0.0044  -0.0153   0.0158   0.42    0.0
2022/05/29 14:04:10.421    8.851982036    7.742170257   400.7036   4   0   0.0167   0.0184   0.0583   0.0044  -0.0153   0.0158   0.42    0.0
2022/05/29 14:04:11.421    8.851982037    7.742170275   400.6969   4   0   0.0167   0.0184   0.0583   0.0044  -0.0153   0.0158   0.42    0.0
2022/05/29 14:04:12.421    8.851982042    7.742170273   400.6996   4   0   0.0167   0.0184   0.0583   0.0044  -0.0153   0.0158   0.42    0.0
2022/05/29 14:04:13.421    8.851982038    7.742170261   400.7033   4   0   0.0167   0.0184   0.0583   0.0044  -0.0153   0.0158   0.42    0.0
2022/05/29 14:04:14.421    8.851982031    7.742170264   400.7019   4   0   0.0167   0.0184   0.0583   0.0044  -0.0153   0.0158   0.42    0.0
2022/05/29 14:04:15.421    8.851982023    7.742170256   400.7043   4   0   0.0167   0.0184   0.0583   0.0044  -0.0153   0.0158   0.42    0.0
2022/05/29 14:04:16.421    8.851982029    7.742170262   400.7026   4   0   0.0167   0.0184   0.0583   0.0044  -0.0153   0.0158   0.42    0.0
2022/05/29 14:04:17.421    8.851982031    7.742170261   400.7025   4   0   0.0167   0.0184   0.0583   0.0044  -0.0153   0.0158   0.42    0.0
2022/05/29 14:04:18.421    8.851982027    7.742170263   400.7021   4   0   0.0167   0.0184   0.0583   0.0044  -0.0153   0.0158   0.42    0.0
2022/05/29 14:04:19.421    8.851982037    7.742170262   400.7021   4   0   0.0167   0.0184   0.0583   0.0044  -0.0153   0.0158   0.42    0.0
2022/05/29 14:04:20.421    8.851982033    7.742170261   400.6996   4   0   0.0167   0.0184   0.0583   0.0044  -0.0153   0.0158   0.42    0.0
2022/05/29 14:04:21.421    8.851982029    7.742170264   400.6990   4   0   0.0167   0.0184   0.0583   0.0044  -0.0153   0.0158   0.42    0.0
2022/05/29 14:04:22.421    8.851982028    7.742170260   400.6990   4   0   0.0167   0.0184   0.0583   0.0044  -0.0153   0.0158   0.42    0.0
2022/05/29 14:04:23.421    8.851982034    7.742170264   400.7010   4   0   0.0167   0.0184   0.0583   0.0044  -0.0153   0.0158   0.42    0.0
2022/05/29 14:04:24.421    8.851982034    7.742170265   400.7009   4   0   0.0167   0.0184   0.0583   0.0044  -0.0153   0.0158   0.42    0.0
2022/05/29 14:04:25.421    8.851982033    7.742170259   400.7016   4   0   0.0167   0.0184   0.0583   0.0044  -0.0153   0.0158   0.42    0.0
2022/05/29 14:04:26.421    8.851982036    7.742170260   400.7017   4   0   0.0167   0.0184   0.0583   0.0044  -0.0153   0.0158   0.42    0.0
2022/05/29 14:04:27.421    8.851982030    7.742170261   400.6998   4   0   0.0167   0.0184   0.0583   0.0044  -0.0153   0.0158   0.42    0.0
2022/05/29 14:04:28.421    8.851982033    7.742170268   400.6978   4   0   0.0167   0.0184   0.0583   0.0044  -0.0153   0.0158   0.42    0.0
2022/05/29 14:04:29.421    8.851982034    7.742170268   400.6995   4   0   0.0167   0.0184   0.0583   0.0044  -0.0153   0.0158   0.42    0.0
2022/05/29 14:04:30.421    8.851982034    7.742170275   400.6938   4   0   0.0167   0.0184   0.0583   0.0044  -0.0153   0.0158   0.42    0.0
2022/05/29 14:04:31.421    8.851982027    7.742170271   400.6960   4   0   0.0167   0.0184   0.0583   0.0044  -0.0153   0.0158   0.42    0.0
2022/05/29 14:04:32.421    8.851982025    7.742170269   400.6979   4   0   0.0167   0.0184   0.0583   0.0044  -0.0153   0.0158   0.42    0.0
2022/05/29 14:04:33.421    8.851982024    7.742170271   400.6979   4   0   0.0167   0.0184   0.0583   0.0044  -0.0153   0.0158   0.42    0.0
2022/05/29 14:04:34.421    8.851982030    7.742170263   400.6986   4   0   0.0167   0.0184   0.0583   0.0044  -0.0153   0.0158   0.42    0.0
2022/05/29 14:04:35.421    8.851982025    7.742170268   400.6989   4   0   0.0167   0.0184   0.0583   0.0044  -0.0153   0.0158   0.42    0.0
2022/05/29 14:04:36.421    8.851982026    7.742170277   400.7007   4   0   0.0167   0.0184   0.0583   0.0044  -0.0153   0.0158   0.42    0.0
2022/05/29 14:04:37.421    8.851982035    7.742170266   400.6969   4   0   0.0167   0.0184   0.0583   0.0044  -0.0153   0.0158   0.42    0.0
2022/05/29 14:04:38.421    8.851982036    7.742170279   400.6976   4   0   0.0167   0.0184   0.0583   0.0044  -0.0153   0.0158   0.42    0.0
2022/05/29 14:04:39.421    8.851982038    7.742170274   400.7005   4   0   0.0167   0.0184   0.0583   0.0044  -0.0153   0.0158   0.42    0.0
2022/05/29 14:04:40.421    8.851982035    7.742170279   400.6984   4   0   0.0167   0.0184   0.0583   0.0044  -0.0153   0.0158   0.42    0.0
2022/05/29 14:04:41.421    8.851982039    7.742170273   400.6992   4   0   0.0167   0.0184   0.0583   0.0044  -0.0153   0.0158   0.42    0.0
2022/05/29 14:04:42.421    8.851982038    7.742170268   400.6995   4   0   0.0167   0.0184   0.0583   0.0044  -0.0153   0.0158   0.42    0.0
2022/05/29 14:04:43.421    8.851982040    7.742170278   400.6985   4   0   0.0167   0.0184   0.0583   0.0044  -0.0153   0.0158   0.42    0.0
2022/05/29 14:04:44.421    8.851982038    7.742170267   400.6998   4   0   0.0167   0.0184   0.0583   0.0044  -0.0153   0.0158   0.42    0.0
2022/05/29 14:04:45.421    8.851982034    7.742170268   400.6976   4   0   0.0167   0.0184   0.0583   0.0044  -0.0153   0.0158   0.42    0.0
2022/05/29 14:04:46.421    8.851982030    7.742170264   400.7033   4   0   0.0167   0.0184   0.0583   0.0044  -0.0153   0.0158   0.42    0.0
2022/05/29 14:04:47.421    8.851982036    7.742170269   400.7009   4   0   0.0167   0.0184   0.0583   0.0044  -0.0153   0.0158   0.42    0.0
2022/05/29 14:04:48.421    8.851982036    7.742170269   400.7003   4   0   0.0167   0.0184   0.0583   0.0044  -0.0153   0.0158   0.42    0.0
2022/05/29 14:04:49.421    8.851982041    7.742170272   400.6979   4   0   0.0167   0.0184   0.0583   0.0044  -0.0153   0.0158   0.42    0.0
2022/05/29 14:04:50.421    8.851982045    7.742170280   400.6966   4   0   0.0167   0.0184   0.0583   0.0044  -0.0153   0.0158   0.42    0.0
2022/05/29 14:04:51.421    8.851982038    7.742170281   400.6930   4   0   0.0167   0.0184   0.0583   0.0044  -0.0153   0.0158   0.42    0.0
2022/05/29 14:04:52.421    8.851982037    7.742170279   400.6966   4   0   0.0167   0.0184   0.0583   0.0044  -0.0153   0.0158   0.42    0.0
2022/05/29 14:04:53.421    8.851982042    7.742170280   400.6980   4   0   0.0167   0.0184   0.0583   0.0044  -0.0153   0.0158   0.42    0.0
2022/05/29 14:04:54.421    8.851982033    7.742170279   400.6948   4   0   0.0167   0.0184   0.0583   0.0044  -0.0153   0.0158   0.42    0.0
2022/05/29 14:04:55.421    8.851982036    7.742170274   400.6990   4   0   0.0167   0.0184   0.0583   0.0044  -0.0153   0.0158   0.42    0.0
2022/05/29 14:04:56.421    8.851982038    7.742170276   400.7007   4   0   0.0167   0.0184   0.0583   0.0044  -0.0153   0.0158   0.42    0.0
2022/05/29 14:04:57.421    8.851982038    7.742170275   400.7006   4   0   0.0167   0.0184   0.0583   0.0044  -0.0153   0.0158   0.42    0.0
2022/05/29 14:04:58.421    8.851982027    7.742170279   400.6957   4   0   0.0167   0.0184   0.0583   0.0044  -0.0153   0.0158   0.42    0.0
2022/05/29 14:04:59.421    8.851982034    7.742170275   400.6969   4   0   0.0167   0.0184   0.0583   0.0044  -0.0153   0.0158   0.42    0.0
2022/05/29 14:05:00.421    8.851982027    7.742170272   400.6985   4   0   0.0167   0.0184   0.0583   0.0044  -0.0153   0.0158   0.42    0.0
2022/05/29 14:05:01.421    8.851982041    7.742170279   400.6960   4   0   0.0167   0.0184   0.0583   0.0044  -0.0153   0.0158   0.42    0.0
2022/05/29 14:05:02.421    8.851982037    7.742170279   400.6972   4   0   0.0167   0.0184   0.0583   0.0044  -0.0153   0.0158   0.42    0.0
2022/05/29 14:05:03.421    8.851982031    7.742170279   400.6966   4   0   0.0167   0.0184   0.0583   0.0044  -0.0153   0.0158   0.42    0.0
2022/05/29 14:05:04.421    8.851982036    7.742170278   400.6964   4   0   0.0167   0.0184   0.0583   0.0044  -0.0153   0.0158   0.42    0.0
2022/05/29 14:05:05.421    8.851982033    7.742170275   400.6953   4   0   0.0167   0.0184   0.0583   0.0044  -0.0153   0.0158   0.42    0.0
2022/05/29 14:05:06.421    8.851982039    7.742170288   400.6939   4   0   0.0167   0.0184   0.0583   0.0044  -0.0153   0.0158   0.42    0.0
2022/05/29 14:05:07.421    8.851982032    7.742170291   400.6892   4   0   0.0167   0.0184   0.0583   0.0044  -0.0153   0.0158   0.42    0.0
2022/05/29 14:05:08.421    8.851982032    7.742170294   400.6863   4   0   0.0167   0.0184   0.0583   0.0044  -0.0153   0.0158   0.42    0.0
2022/05/29 14:05:09.421    8.851982039    7.742170289   400.6906   4   0   0.0167   0.0184   0.0583   0.0044  -0.0153   0.0158   0.42    0.0
2022/05/29 14:05:10.421    8.851982034    7.742170288   400.6903   4   0   0.0167   0.0184   0.0583   0.0044  -0.0153   0.0158   0.42    0.0
2022/05/29 14:05:11.421    8.851982039    7.742170290   400.6921   4   0   0.0167   0.0184   0.0583   0.0044  -0.0153   0.0158   0.42    0.0
2022/05/29 14:05:12.421    8.851982037    7.742170285   400.6935   4   0   0.0167   0.0184   0.0583   0.0044  -0.0153   0.0158   0.42    0.0
2022/05/29 14:05:13.421    8.851982031    7.742170292   400.6912   4   0   0.0167   0.0184   0.0583   0.0044  -0.0153   0.0158   0.42    0.0
2022/05/29 14:05:14.421    8.851982031    7.742170290   400.6911   4   0   0.0167   0.0184   0.0583   0.0044  -0.0153   0.0158   0.42    0.0
2022/05/29 14:05:15.421    8.851982031    7.742170292   400.6905   4   0   0.0167   0.0184   0.0583   0.0044  -0.0153   0.0158   0.42    0.0
2022/05/29 14:05:16.421    8.851982029    7.742170290   400.6916   4   0   0.0167   0.0184   0.0583   0.0044  -0.0153   0.0158   0.42    0.0
2022/05/29 14:05:17.421    8.851982031    7.742170302   400.6882   4   0   0.0167   0.0184   0.0583   0.0044  -0.0153   0.0158   0.42    0.0
2022/05/29 14:05:18.421    8.851982031    7.742170298   400.6881   4   0   0.0167   0.0184   0.0583   0.0044  -0.0153   0.0158   0.42    0.0
2022/05/29 14:05:19.421    8.851982031    7.742170291   400.6894   4   0   0.0167   0.0184   0.0583   0.0044  -0.0153   0.0158   0.42    0.0
2022/05/29 14:05:20.421    8.851982030    7.742170291   400.6866   4   0   0.0167   0.0184   0.0583   0.0044  -0.0153   0.0158   0.42    0.0
2022/05/29 14:05:21.421    8.851982028    7.742170307   400.6851   4   0   0.0167   0.0184   0.0583   0.0044  -0.0153   0.0158   0.42    0.0
2022/05/29 14:05:22.421    8.851982030    7.742170304   400.6877   4   0   0.0167   0.0184   0.0583   0.0044  -0.0153   0.0158   0.42    0.0
2022/05/29 14:05:23.421    8.851982028    7.742170304   400.6871   4   0   0.0167   0.0184   0.0583   0.0044  -0.0153   0.0158   0.42    0.0
2022/05/29 14:05:24.421    8.851982027    7.742170307   400.6868   4   0   0.0167   0.0184   0.0583   0.0044  -0.0153   0.0158   0.42    0.0
2022/05/29 14:05:25.421    8.851982032    7.742170301   400.6875   4   0   0.0167   0.0184   0.0583   0.0044  -0.0153   0.0158   0.42    0.0
2022/05/29 14:05:26.421    8.851982028    7.742170306   400.6864   4   0   0.0167   0.0184   0.0583   0.0044  -0.0153   0.0158   0.42    0.0
2022/05/29 14:05:27.421    8.851982026    7.742170302   400.6860   4   0   0.0167   0.0184   0.0583   0.0044  -0.0153   0.0158   0.42    0.0
2022/05/29 14:05:28.421    8.851982029    7.742170296   400.6884   4   0   0.0167   0.0184   0.0583   0.0044  -0.0153   0.0158   0.42    0.0
2022/05/29 14:05:29.421    8.851982023    7.742170292   400.6884   4   0   0.0167   0.0184   0.0583   0.0044  -0.0153   0.0158   0.42    0.0
2022/05/29 14:05:30.421    8.851982026    7.742170297   400.6865   4   0   0.0167   0.0184   0.0583   0.0044  -0.0153   0.0158   0.42    0.0
2022/05/29 14:05:31.421    8.851982023    7.742170297   400.6850   4   0   0.0167   0.0184   0.0583   0.0044  -0.0153   0.0158   0.42    0.0
2022/05/29 14:05:32.421    8.851982022    7.742170299   400.6836   4   0   0.0167   0.0184   0.0583   0.0044  -0.0153   0.0158   0.42    0.0
2022/05/29 14:05:33.421    8.851982017    7.742170295   400.6879   4   0   0.0167   0.0184   0.0583   0.0044  -0.0153   0.0158   0.42    0.0
2022/05/29 14:05:34.421    8.851982024    7.742170300   400.6827   4   0   0.0167   0.0184   0.0583   0.0044  -0.0153   0.0158   0.42    0.0
2022/05/29 14:05:35.421    8.851982025    7.742170291   400.6893   4   0   0.0167   0.0184   0.0583   0.0044  -0.0153   0.0158   0.42    0.0
2022/05/29 14:05:36.421    8.851982019    7.742170305   400.6818   4   0   0.0167   0.0184   0.0583   0.0044  -0.0153   0.0158   0.42    0.0
2022/05/29 14:05:37.421    8.851982029    7.742170294   400.6865   4   0   0.0167   0.0184   0.0583   0.0044  -0.0153   0.0158   0.42    0.0
2022/05/29 14:05:38.421    8.851982031    7.742170299   400.6817   4   0   0.0167   0.0184   0.0583   0.0044  -0.0153   0.0158   0.42    0.0
2022/05/29 14:05:39.421    8.851982030    7.742170302   400.6832   4   0   0.0167   0.0184   0.0583   0.0044  -0.0153   0.0158   0.42    0.0
2022/05/29 14:05:40.421    8.851982029    7.742170298   400.6882   4   0   0.0167   0.0184   0.0583   0.0044  -0.0153   0.0158   0.42    0.0
2022/05/29 14:05:41.421    8.851982025    7.742170297   400.6833   4   0   0.0167   0.0184   0.0583   0.0044  -0.0153   0.0158   0.42    0.0
2022/05/29 14:05:42.421    8.851982035    7.742170292   400.6881   4   0   0.0167   0.0184   0.0583   0.0044  -0.0153   0.0158   0.42    0.0
2022/05/29 14:05:43.421    8.851982028    7.742170299   400.6862   4   0   0.0167   0.0184   0.0583   0.0044  -0.0153   0.0158   0.42    0.0
2022/05/29 14:05:44.421    8.851982027    7.742170295   400.6872   4   0   0.0167   0.0184   0.0583   0.0044  -0.0153   0.0158   0.42    0.0
2022/05/29 14:05:45.421    8.851982030    7.742170295   400.6887   4   0   0.0167   0.0184   0.0583   0.0044  -0.0153   0.0158   0.42    0.0
2022/05/29 14:05:46.421    8.851982033    7.742170297   400.6859   4   0   0.0167   0.0184   0.0583   0.0044  -0.0153   0.0158   0.42    0.0
2022/05/29 14:05:47.421    8.851982028    7.742170297   400.6854   4   0   0.0167   0.0184   0.0583   0.0044  -0.0153   0.0158   0.42    0.0
2022/05/29 14:05:48.421    8.851982040    7.742170299   400.6878   4   0   0.0167   0.0184   0.0583   0.0044  -0.0153   0.0158   0.42    0.0
2022/05/29 14:05:49.421    8.851982035    7.742170304   400.6843   4   0   0.0167   0.0184   0.0583   0.0044  -0.0153   0.0158   0.42    0.0
2022/05/29 14:05:50.421    8.851982032    7.742170290   400.6889   4   0   0.0167   0.0184   0.0583   0.0044  -0.0153   0.0158   0.42    0.0
2022/05/29 14:05:51.421    8.851982026    7.742170294   400.6909   4   0   0.0167   0.0184   0.0583   0.0044  -0.0153   0.0158   0.42    0.0
2022/05/29 14:05:52.421    8.851982035    7.742170293   400.6894   4   0   0.0167   0.0184   0.0583   0.0044  -0.0153   0.0158   0.42    0.0
2022/05/29 14:05:53.421    8.851982031    7.742170301   400.6843   4   0   0.0167   0.0184   0.0583   0.0044  -0.0153   0.0158   0.42    0.0
2022/05/29 14:05:54.421    8.851982033    7.742170299   400.6852   4   0   0.0167   0.0184   0.0583   0.0044  -0.0153   0.0158   0.42    0.0
2022/05/29 14:05:55.421    8.851982033    7.742170297   400.6870   4   0   0.0167   0.0184   0.0583   0.0044  -0.0153   0.0158   0.42    0.0
2022/05/29 14:05:56.421    8.851982034    7.742170304   400.6860   4   0   0.0167   0.0184   0.0583   0.0044  -0.0153   0.0158   0.42    0.0
2022/05/29 14:05:57.421    8.851982028    7.742170295   400.6855   4   0   0.0167   0.0184   0.0583   0.0044  -0.0153   0.0158   0.42    0.0
2022/05/29 14:05:58.421    8.851982038    7.742170299   400.6870   4   0   0.0167   0.0184   0.0583   0.0044  -0.0153   0.0158   0.42    0.0
2022/05/29 14:05:59.421    8.851982039    7.742170303   400.6898   4   0   0.0167   0.0184   0.0583   0.0044  -0.0153   0.0158   0.42    0.0
2022/05/29 14:06:00.421    8.851982041    7.742170297   400.6906   4   0   0.0167   0.0184   0.0583   0.0044  -0.0153   0.0158   0.42    0.0
2022/05/29 14:06:01.421    8.851982037    7.742170304   400.6877   4   0   0.0167   0.0184   0.0583   0.0044  -0.0153   0.0158   0.42    0.0
2022/05/29 14:06:02.421    8.851982039    7.742170304   400.6892   4   0   0.0167   0.0184   0.0583   0.0044  -0.0153   0.0158   0.42    0.0
2022/05/29 14:06:03.421    8.851982033    7.742170294   400.6879   4   0   0.0167   0.0184   0.0583   0.0044  -0.0153   0.0158   0.42    0.0
2022/05/29 14:06:04.421    8.851982036    7.742170304   400.6896   4   0   0.0167   0.0184   0.0583   0.0044  -0.0153   0.0158   0.42    0.0
2022/05/29 14:06:05.421    8.851982031    7.742170300   400.6902   4   0   0.0167   0.0184   0.0583   0.0044  -0.0153   0.0158   0.42    0.0
2022/05/29 14:06:06.421    8.851982040    7.742170303   400.6902   4   0   0.0167   0.0184   0.0583   0.0044  -0.0153   0.0158   0.42    0.0
2022/05/29 14:06:07.421    8.851982037    7.742170304   400.6916   4   0   0.0167   0.0184   0.0583   0.0044  -0.0153   0.0158   0.42    0.0
2022/05/29 14:06:08.421    8.851982036    7.742170292   400.6913   4   0   0.0167   0.0184   0.0583   0.0044  -0.0153   0.0158   0.42    0.0
2022/05/29 14:06:09.421    8.851982036    7.742170302   400.6903   4   0   0.0167   0.0184   0.0583   0.0044  -0.0153   0.0158   0.42    0.0
2022/05/29 14:06:10.421    8.851982033    7.742170298   400.6906   4   0   0.0167   0.0184   0.0583   0.0044  -0.0153   0.0158   0.42    0.0
2022/05/29 14:06:11.421    8.851982036    7.742170294   400.6903   4   0   0.0167   0.0184   0.0583   0.0044  -0.0153   0.0158   0.42    0.0
2022/05/29 14:06:12.421    8.851982043    7.742170300   400.6918   4   0   0.0167   0.0184   0.0583   0.0044  -0.0153   0.0158   0.42    0.0
2022/05/29 14:06:13.421    8.851982039    7.742170293   400.6921   4   0   0.0167   0.0184   0.0583   0.0044  -0.0153   0.0158   0.42    0.0
2022/05/29 14:06:14.421    8.851982043    7.742170301   400.6922   4   0   0.0167   0.0184   0.0583   0.0044  -0.0153   0.0158   0.42    0.0
2022/05/29 14:06:15.421    8.851982040    7.742170301   400.6927   4   0   0.0167   0.0184   0.0583   0.0044  -0.0153   0.0158   0.42    0.0
2022/05/29 14:06:16.421    8.851982048    7.742170299   400.6954   4   0   0.0167   0.0184   0.0583   0.0044  -0.0153   0.0158   0.42    0.0
2022/05/29 14:06:17.421    8.851982041    7.742170297   400.6940   4   0   0.0167   0.0184   0.0583   0.0044  -0.0153   0.0158   0.42    0.0
2022/05/29 14:06:18.421    8.851982044    7.742170298   400.6929   4   0   0.0167   0.0184   0.0583   0.0044  -0.0153   0.0158   0.42    0.0
2022/05/29 14:06:19.421    8.851982037    7.742170303   400.6913   4   0   0.0167   0.0184   0.0583   0.0044  -0.0153   0.0158   0.42    0.0
2022/05/29 14:06:20.421    8.851982043    7.742170300   400.6924   4   0   0.0167   0.0184   0.0583   0.0044  -0.0153   0.0158   0.42    0.0
2022/05/29 14:06:21.421    8.851982042    7.742170304   400.6930   4   0   0.0167   0.0184   0.0583   0.0044  -0.0153   0.0158   0.42    0.0
2022/05/29 14:06:22.421    8.851982038    7.742170296   400.6913   4   0   0.0167   0.0184   0.0583   0.0044  -0.0153   0.0158   0.42    0.0
2022/05/29 14:06:23.421    8.851982044    7.742170299   400.6929   4   0   0.0167   0.0184   0.0583   0.0044  -0.0153   0.0158   0.42    0.0
2022/05/29 14:06:24.421    8.851982044    7.742170298   400.6932   4   0   0.0167   0.0184   0.0583   0.0044  -0.0153   0.0158   0.42    0.0
