% program   : RTKPOST ver.demo5 b34g
% inp file  : C:\Users\Abdullateef\Documents\PHD\Research on Precision Agriculture Navigation Technology\nav data\sensorlogSlim\gnss_log_2022_05_29_14_51_17.22o
% inp file  : C:\Users\Abdullateef\Documents\PHD\Research on Precision Agriculture Navigation Technology\nav data\sensorlogSlim\ABFC00NGA_R_20221491400_01H_1S_MO.22D\ABFC00NGA_R_20221491400_01H_1S_MO.22D
% inp file  : C:\Users\Abdullateef\Documents\PHD\Research on Precision Agriculture Navigation Technology\nav data\sensorlogSlim\BRDM00DLR_S_20221490000_01D_MN.rnx\BRDM00DLR_S_20221490000_01D_MN.rnx
% obs start : 2022/05/29 13:51:35.4 GPST (week2212  49895.4s)
% obs end   : 2022/05/29 14:52:19.4 GPST (week2212  53539.4s)
% pos mode  : Static
% freqs     : L1+L2/E5b+L5
% solution  : Combined-No Phase Reset
% elev mask : 0.0 deg
% dynamics  : on
% tidecorr  : off
% ionos opt : Broadcast
% tropo opt : Saastamoinen
% ephemeris : Broadcast
% navi sys  : GPS GLONASS Galileo BDS
% amb res   : Continuous
% amb glo   : AutoCal
% val thres : 3.0
% antenna1  :                       ( 0.0000  0.0000  0.0000)
% antenna2  :                       ( 0.0000  0.0000  0.0000)
% ref pos   :  9.027665666    7.486341687   532.6449
%
% (lat/lon/height=WGS84/ellipsoidal,Q=1:fix,2:float,3:sbas,4:dgps,5:single,6:ppp,ns=# of satellites)
%  GPST                  latitude(deg) longitude(deg)  height(m)   Q  ns   sdn(m)   sde(m)   sdu(m)  sdne(m)  sdeu(m)  sdun(m) age(s)  ratio
2022/05/29 13:59:30.421    8.851980687    7.742168711   400.0309   4   0   0.0158   0.0175   0.0490   0.0041  -0.0144   0.0131 -29.58    0.0
2022/05/29 13:59:31.421    8.851980685    7.742168704   400.0333   4   0   0.0158   0.0175   0.0490   0.0041  -0.0144   0.0131 -28.58    0.0
2022/05/29 13:59:32.421    8.851980692    7.742168707   400.0309   4   0   0.0158   0.0175   0.0490   0.0041  -0.0144   0.0131 -27.58    0.0
2022/05/29 13:59:33.421    8.851980689    7.742168708   400.0327   4   0   0.0158   0.0175   0.0490   0.0041  -0.0144   0.0131 -26.58    0.0
2022/05/29 13:59:34.421    8.851980693    7.742168710   400.0323   4   0   0.0158   0.0175   0.0490   0.0041  -0.0144   0.0131 -25.58    0.0
2022/05/29 13:59:35.421    8.851980688    7.742168705   400.0332   4   0   0.0158   0.0175   0.0490   0.0041  -0.0144   0.0131 -24.58    0.0
2022/05/29 13:59:36.421    8.851980689    7.742168714   400.0291   4   0   0.0158   0.0175   0.0490   0.0041  -0.0144   0.0131 -23.58    0.0
2022/05/29 13:59:37.421    8.851980686    7.742168699   400.0327   4   0   0.0158   0.0175   0.0490   0.0041  -0.0144   0.0131 -22.58    0.0
2022/05/29 13:59:38.421    8.851980676    7.742168709   400.0300   4   0   0.0158   0.0175   0.0490   0.0041  -0.0144   0.0131 -21.58    0.0
2022/05/29 13:59:39.421    8.851980677    7.742168699   400.0313   4   0   0.0158   0.0175   0.0490   0.0041  -0.0144   0.0131 -20.58    0.0
2022/05/29 13:59:40.421    8.851980687    7.742168717   400.0265   4   0   0.0158   0.0175   0.0490   0.0041  -0.0144   0.0131 -19.58    0.0
2022/05/29 13:59:41.421    8.851980680    7.742168704   400.0308   4   0   0.0158   0.0175   0.0490   0.0041  -0.0144   0.0131 -18.58    0.0
2022/05/29 13:59:42.421    8.851980676    7.742168710   400.0289   4   0   0.0158   0.0175   0.0490   0.0041  -0.0144   0.0131 -17.58    0.0
2022/05/29 13:59:43.421    8.851980685    7.742168725   400.0250   4   0   0.0158   0.0175   0.0490   0.0041  -0.0144   0.0131 -16.58    0.0
2022/05/29 13:59:44.421    8.851980679    7.742168724   400.0233   4   0   0.0158   0.0175   0.0490   0.0041  -0.0144   0.0131 -15.58    0.0
2022/05/29 13:59:45.421    8.851980676    7.742168718   400.0260   4   0   0.0158   0.0175   0.0490   0.0041  -0.0144   0.0131 -14.58    0.0
2022/05/29 13:59:46.421    8.851980673    7.742168723   400.0246   4   0   0.0158   0.0175   0.0490   0.0041  -0.0144   0.0131 -13.58    0.0
2022/05/29 13:59:47.421    8.851980680    7.742168720   400.0280   4   0   0.0158   0.0175   0.0490   0.0041  -0.0144   0.0131 -12.58    0.0
2022/05/29 13:59:48.421    8.851980676    7.742168720   400.0262   4   0   0.0158   0.0175   0.0490   0.0041  -0.0144   0.0131 -11.58    0.0
2022/05/29 13:59:49.421    8.851980676    7.742168723   400.0257   4   0   0.0158   0.0175   0.0490   0.0041  -0.0144   0.0131 -10.58    0.0
2022/05/29 13:59:50.421    8.851980684    7.742168728   400.0232   4   0   0.0158   0.0175   0.0490   0.0041  -0.0144   0.0131  -9.58    0.0
2022/05/29 13:59:51.421    8.851980681    7.742168740   400.0223   4   0   0.0158   0.0175   0.0490   0.0041  -0.0144   0.0131  -8.58    0.0
2022/05/29 13:59:52.421    8.851980686    7.742168738   400.0244   4   0   0.0158   0.0175   0.0490   0.0041  -0.0144   0.0131  -7.58    0.0
2022/05/29 13:59:53.421    8.851980678    7.742168725   400.0255   4   0   0.0158   0.0175   0.0490   0.0041  -0.0144   0.0131  -6.58    0.0
2022/05/29 13:59:54.421    8.851980681    7.742168723   400.0248   4   0   0.0158   0.0175   0.0490   0.0041  -0.0144   0.0131  -5.58    0.0
2022/05/29 13:59:55.421    8.851980675    7.742168720   400.0285   4   0   0.0158   0.0175   0.0490   0.0041  -0.0144   0.0131  -4.58    0.0
2022/05/29 13:59:56.421    8.851980675    7.742168717   400.0293   4   0   0.0158   0.0175   0.0490   0.0041  -0.0144   0.0131  -3.58    0.0
2022/05/29 13:59:57.421    8.851980674    7.742168723   400.0276   4   0   0.0158   0.0175   0.0490   0.0041  -0.0144   0.0131  -2.58    0.0
2022/05/29 13:59:58.421    8.851980685    7.742168732   400.0230   4   0   0.0158   0.0175   0.0490   0.0041  -0.0144   0.0131  -1.58    0.0
2022/05/29 13:59:59.421    8.851980681    7.742168723   400.0253   4   0   0.0158   0.0175   0.0490   0.0041  -0.0144   0.0131  -0.58    0.0
2022/05/29 14:00:00.421    8.851980686    7.742168720   400.0258   4   0   0.0158   0.0175   0.0490   0.0041  -0.0144   0.0131   0.42    0.0
2022/05/29 14:00:01.421    8.851980682    7.742168718   400.0257   4   0   0.0158   0.0175   0.0490   0.0041  -0.0144   0.0131   0.42    0.0
2022/05/29 14:00:02.421    8.851980679    7.742168728   400.0228   4   0   0.0158   0.0175   0.0490   0.0041  -0.0144   0.0131   0.42    0.0
2022/05/29 14:00:03.421    8.851980678    7.742168722   400.0247   4   0   0.0158   0.0175   0.0490   0.0041  -0.0144   0.0131   0.42    0.0
2022/05/29 14:00:04.421    8.851980681    7.742168729   400.0245   4   0   0.0158   0.0175   0.0490   0.0041  -0.0144   0.0131   0.42    0.0
2022/05/29 14:00:05.421    8.851980679    7.742168722   400.0254   4   0   0.0158   0.0175   0.0490   0.0041  -0.0144   0.0131   0.42    0.0
2022/05/29 14:00:06.421    8.851980677    7.742168727   400.0234   4   0   0.0158   0.0175   0.0490   0.0041  -0.0144   0.0131   0.42    0.0
2022/05/29 14:00:07.421    8.851980674    7.742168718   400.0270   4   0   0.0158   0.0175   0.0490   0.0041  -0.0144   0.0131   0.42    0.0
2022/05/29 14:00:08.421    8.851980673    7.742168715   400.0276   4   0   0.0158   0.0175   0.0490   0.0041  -0.0144   0.0131   0.42    0.0
2022/05/29 14:00:09.421    8.851980674    7.742168721   400.0238   4   0   0.0158   0.0175   0.0490   0.0041  -0.0144   0.0131   0.42    0.0
2022/05/29 14:00:10.421    8.851980685    7.742168731   400.0226   4   0   0.0158   0.0175   0.0490   0.0041  -0.0144   0.0131   0.42    0.0
2022/05/29 14:00:11.421    8.851980676    7.742168738   400.0185   4   0   0.0158   0.0175   0.0490   0.0041  -0.0144   0.0131   0.42    0.0
2022/05/29 14:00:12.421    8.851980678    7.742168730   400.0219   4   0   0.0158   0.0175   0.0490   0.0041  -0.0144   0.0131   0.42    0.0
2022/05/29 14:00:13.421    8.851980680    7.742168732   400.0197   4   0   0.0158   0.0175   0.0490   0.0041  -0.0144   0.0131   0.42    0.0
2022/05/29 14:00:14.421    8.851980679    7.742168727   400.0268   4   0   0.0158   0.0175   0.0490   0.0041  -0.0144   0.0131   0.42    0.0
2022/05/29 14:00:15.421    8.851980674    7.742168737   400.0193   4   0   0.0158   0.0175   0.0490   0.0041  -0.0144   0.0131   0.42    0.0
2022/05/29 14:00:16.421    8.851980669    7.742168734   400.0191   4   0   0.0158   0.0175   0.0490   0.0041  -0.0144   0.0131   0.42    0.0
2022/05/29 14:00:17.421    8.851980670    7.742168740   400.0167   4   0   0.0158   0.0175   0.0490   0.0041  -0.0144   0.0131   0.42    0.0
2022/05/29 14:00:18.421    8.851980670    7.742168743   400.0168   4   0   0.0158   0.0175   0.0490   0.0041  -0.0144   0.0131   0.42    0.0
2022/05/29 14:00:19.421    8.851980666    7.742168741   400.0159   4   0   0.0158   0.0175   0.0490   0.0041  -0.0144   0.0131   0.42    0.0
2022/05/29 14:00:20.421    8.851980658    7.742168731   400.0216   4   0   0.0158   0.0175   0.0490   0.0041  -0.0144   0.0131   0.42    0.0
2022/05/29 14:00:21.421    8.851980655    7.742168723   400.0193   4   0   0.0158   0.0175   0.0490   0.0041  -0.0144   0.0131   0.42    0.0
2022/05/29 14:00:22.421    8.851980648    7.742168726   400.0150   4   0   0.0158   0.0175   0.0490   0.0041  -0.0144   0.0131   0.42    0.0
2022/05/29 14:00:23.421    8.851980647    7.742168729   400.0170   4   0   0.0158   0.0175   0.0490   0.0041  -0.0144   0.0131   0.42    0.0
2022/05/29 14:00:24.421    8.851980635    7.742168732   400.0142   4   0   0.0158   0.0175   0.0490   0.0041  -0.0144   0.0131   0.42    0.0
2022/05/29 14:00:25.421    8.851980643    7.742168745   400.0120   4   0   0.0158   0.0175   0.0490   0.0041  -0.0144   0.0131   0.42    0.0
2022/05/29 14:00:26.421    8.851980645    7.742168747   400.0096   4   0   0.0158   0.0175   0.0490   0.0041  -0.0144   0.0131   0.42    0.0
2022/05/29 14:00:27.421    8.851980644    7.742168736   400.0136   4   0   0.0158   0.0175   0.0490   0.0041  -0.0144   0.0131   0.42    0.0
2022/05/29 14:00:28.421    8.851980635    7.742168729   400.0155   4   0   0.0158   0.0175   0.0490   0.0041  -0.0144   0.0131   0.42    0.0
2022/05/29 14:00:29.421    8.851980643    7.742168746   400.0112   4   0   0.0158   0.0175   0.0490   0.0041  -0.0144   0.0131   0.42    0.0
2022/05/29 14:00:30.421    8.851980641    7.742168744   400.0148   4   0   0.0158   0.0175   0.0490   0.0041  -0.0144   0.0131   0.42    0.0
2022/05/29 14:00:31.421    8.851980655    7.742168753   400.0102   4   0   0.0158   0.0175   0.0490   0.0041  -0.0144   0.0131   0.42    0.0
2022/05/29 14:00:32.421    8.851980651    7.742168751   400.0078   4   0   0.0158   0.0175   0.0490   0.0041  -0.0144   0.0131   0.42    0.0
2022/05/29 14:00:33.421    8.851980650    7.742168747   400.0105   4   0   0.0158   0.0175   0.0490   0.0041  -0.0144   0.0131   0.42    0.0
2022/05/29 14:00:34.421    8.851980650    7.742168752   400.0069   4   0   0.0158   0.0175   0.0490   0.0041  -0.0144   0.0131   0.42    0.0
2022/05/29 14:00:35.421    8.851980650    7.742168756   400.0081   4   0   0.0158   0.0175   0.0490   0.0041  -0.0144   0.0131   0.42    0.0
2022/05/29 14:00:36.421    8.851980650    7.742168752   400.0083   4   0   0.0158   0.0175   0.0490   0.0041  -0.0144   0.0131   0.42    0.0
2022/05/29 14:00:37.421    8.851980652    7.742168756   400.0087   4   0   0.0158   0.0175   0.0490   0.0041  -0.0144   0.0131   0.42    0.0
2022/05/29 14:00:38.421    8.851980654    7.742168752   400.0072   4   0   0.0158   0.0175   0.0490   0.0041  -0.0144   0.0131   0.42    0.0
2022/05/29 14:00:39.421    8.851980657    7.742168764   400.0080   4   0   0.0158   0.0175   0.0490   0.0041  -0.0144   0.0131   0.42    0.0
2022/05/29 14:00:40.421    8.851980657    7.742168763   400.0051   4   0   0.0158   0.0175   0.0490   0.0041  -0.0144   0.0131   0.42    0.0
2022/05/29 14:00:41.421    8.851980662    7.742168769   400.0042   4   0   0.0158   0.0175   0.0490   0.0041  -0.0144   0.0131   0.42    0.0
2022/05/29 14:00:42.421    8.851980647    7.742168758   400.0080   4   0   0.0158   0.0175   0.0490   0.0041  -0.0144   0.0131   0.42    0.0
2022/05/29 14:00:43.421    8.851980655    7.742168762   400.0060   4   0   0.0158   0.0175   0.0490   0.0041  -0.0144   0.0131   0.42    0.0
2022/05/29 14:00:44.421    8.851980658    7.742168761   400.0065   4   0   0.0158   0.0175   0.0490   0.0041  -0.0144   0.0131   0.42    0.0
2022/05/29 14:00:45.421    8.851980657    7.742168763   400.0079   4   0   0.0158   0.0175   0.0490   0.0041  -0.0144   0.0131   0.42    0.0
2022/05/29 14:00:46.421    8.851980654    7.742168765   400.0064   4   0   0.0158   0.0175   0.0490   0.0041  -0.0144   0.0131   0.42    0.0
2022/05/29 14:00:47.421    8.851980660    7.742168765   400.0047   4   0   0.0158   0.0175   0.0490   0.0041  -0.0144   0.0131   0.42    0.0
2022/05/29 14:00:48.421    8.851980650    7.742168766   400.0060   4   0   0.0158   0.0175   0.0490   0.0041  -0.0144   0.0131   0.42    0.0
2022/05/29 14:00:49.421    8.851980652    7.742168767   400.0054   4   0   0.0158   0.0175   0.0490   0.0041  -0.0144   0.0131   0.42    0.0
2022/05/29 14:00:50.421    8.851980653    7.742168782   399.9998   4   0   0.0158   0.0175   0.0490   0.0041  -0.0144   0.0131   0.42    0.0
2022/05/29 14:00:51.421    8.851980651    7.742168779   400.0019   4   0   0.0158   0.0175   0.0490   0.0041  -0.0144   0.0131   0.42    0.0
2022/05/29 14:00:52.421    8.851980649    7.742168782   400.0008   4   0   0.0158   0.0175   0.0490   0.0041  -0.0144   0.0131   0.42    0.0
2022/05/29 14:00:53.421    8.851980653    7.742168789   399.9993   4   0   0.0158   0.0175   0.0490   0.0041  -0.0144   0.0131   0.42    0.0
2022/05/29 14:00:54.421    8.851980647    7.742168785   399.9958   4   0   0.0158   0.0175   0.0490   0.0041  -0.0144   0.0131   0.42    0.0
2022/05/29 14:00:55.421    8.851980645    7.742168781   400.0040   4   0   0.0158   0.0175   0.0490   0.0041  -0.0144   0.0131   0.42    0.0
2022/05/29 14:00:56.421    8.851980632    7.742168775   400.0001   4   0   0.0158   0.0175   0.0490   0.0041  -0.0144   0.0131   0.42    0.0
2022/05/29 14:00:57.421    8.851980651    7.742168791   399.9988   4   0   0.0158   0.0175   0.0490   0.0041  -0.0144   0.0131   0.42    0.0
2022/05/29 14:00:58.421    8.851980644    7.742168782   400.0007   4   0   0.0158   0.0175   0.0490   0.0041  -0.0144   0.0131   0.42    0.0
2022/05/29 14:00:59.421    8.851980649    7.742168787   399.9986   4   0   0.0158   0.0175   0.0490   0.0041  -0.0144   0.0131   0.42    0.0
2022/05/29 14:01:00.421    8.851980649    7.742168787   399.9986   4   0   0.0158   0.0175   0.0490   0.0041  -0.0144   0.0131   0.42    0.0
2022/05/29 14:01:01.421    8.851980654    7.742168796   399.9963   4   0   0.0158   0.0175   0.0490   0.0041  -0.0144   0.0131   0.42    0.0
2022/05/29 14:01:02.421    8.851980652    7.742168793   399.9973   4   0   0.0158   0.0175   0.0490   0.0041  -0.0144   0.0131   0.42    0.0
2022/05/29 14:01:03.421    8.851980661    7.742168804   399.9968   4   0   0.0158   0.0175   0.0490   0.0041  -0.0144   0.0131   0.42    0.0
2022/05/29 14:01:04.421    8.851980656    7.742168789   399.9988   4   0   0.0158   0.0175   0.0490   0.0041  -0.0144   0.0131   0.42    0.0
2022/05/29 14:01:05.421    8.851980661    7.742168797   399.9965   4   0   0.0158   0.0175   0.0490   0.0041  -0.0144   0.0131   0.42    0.0
2022/05/29 14:01:06.421    8.851980659    7.742168793   399.9969   4   0   0.0158   0.0175   0.0490   0.0041  -0.0144   0.0131   0.42    0.0
2022/05/29 14:01:07.421    8.851980665    7.742168794   399.9962   4   0   0.0158   0.0175   0.0490   0.0041  -0.0144   0.0131   0.42    0.0
2022/05/29 14:01:08.421    8.851980655    7.742168799   399.9948   4   0   0.0158   0.0175   0.0490   0.0041  -0.0144   0.0131   0.42    0.0
2022/05/29 14:01:09.421    8.851980657    7.742168790   399.9974   4   0   0.0158   0.0175   0.0490   0.0041  -0.0144   0.0131   0.42    0.0
2022/05/29 14:01:10.421    8.851980654    7.742168790   399.9959   4   0   0.0158   0.0175   0.0490   0.0041  -0.0144   0.0131   0.42    0.0
2022/05/29 14:01:11.421    8.851980656    7.742168793   399.9969   4   0   0.0158   0.0175   0.0490   0.0041  -0.0144   0.0131   0.42    0.0
2022/05/29 14:01:12.421    8.851980652    7.742168797   399.9951   4   0   0.0158   0.0175   0.0490   0.0041  -0.0144   0.0131   0.42    0.0
2022/05/29 14:01:13.421    8.851980659    7.742168797   399.9974   4   0   0.0158   0.0175   0.0490   0.0041  -0.0144   0.0131   0.42    0.0
2022/05/29 14:01:14.421    8.851980663    7.742168798   399.9945   4   0   0.0158   0.0175   0.0490   0.0041  -0.0144   0.0131   0.42    0.0
2022/05/29 14:01:15.421    8.851980663    7.742168796   399.9965   4   0   0.0158   0.0175   0.0490   0.0041  -0.0144   0.0131   0.42    0.0
2022/05/29 14:01:16.421    8.851980662    7.742168798   399.9966   4   0   0.0158   0.0175   0.0490   0.0041  -0.0144   0.0131   0.42    0.0
2022/05/29 14:01:17.421    8.851980661    7.742168797   399.9960   4   0   0.0158   0.0175   0.0490   0.0041  -0.0144   0.0131   0.42    0.0
2022/05/29 14:01:18.421    8.851980663    7.742168800   399.9947   4   0   0.0158   0.0175   0.0490   0.0041  -0.0144   0.0131   0.42    0.0
2022/05/29 14:01:19.421    8.851980660    7.742168800   399.9951   4   0   0.0158   0.0175   0.0490   0.0041  -0.0144   0.0131   0.42    0.0
2022/05/29 14:01:20.421    8.851980662    7.742168799   399.9966   4   0   0.0158   0.0175   0.0490   0.0041  -0.0144   0.0131   0.42    0.0
2022/05/29 14:01:21.421    8.851980664    7.742168800   399.9963   4   0   0.0158   0.0175   0.0490   0.0041  -0.0144   0.0131   0.42    0.0
2022/05/29 14:01:22.421    8.851980663    7.742168803   399.9961   4   0   0.0158   0.0175   0.0490   0.0041  -0.0144   0.0131   0.42    0.0
2022/05/29 14:01:23.421    8.851980663    7.742168811   399.9940   4   0   0.0158   0.0175   0.0490   0.0041  -0.0144   0.0131   0.42    0.0
2022/05/29 14:01:24.421    8.851980660    7.742168803   399.9921   4   0   0.0158   0.0175   0.0490   0.0041  -0.0144   0.0131   0.42    0.0
2022/05/29 14:01:25.421    8.851980660    7.742168803   399.9956   4   0   0.0158   0.0175   0.0490   0.0041  -0.0144   0.0131   0.42    0.0
2022/05/29 14:01:26.421    8.851980658    7.742168811   399.9914   4   0   0.0158   0.0175   0.0490   0.0041  -0.0144   0.0131   0.42    0.0
2022/05/29 14:01:27.421    8.851980659    7.742168805   399.9958   4   0   0.0158   0.0175   0.0490   0.0041  -0.0144   0.0131   0.42    0.0
2022/05/29 14:01:28.421    8.851980661    7.742168812   399.9918   4   0   0.0158   0.0175   0.0490   0.0041  -0.0144   0.0131   0.42    0.0
2022/05/29 14:01:29.421    8.851980660    7.742168811   399.9913   4   0   0.0158   0.0175   0.0490   0.0041  -0.0144   0.0131   0.42    0.0
2022/05/29 14:01:30.421    8.851980661    7.742168811   399.9903   4   0   0.0158   0.0175   0.0490   0.0041  -0.0144   0.0131   0.42    0.0
2022/05/29 14:01:31.421    8.851980660    7.742168812   399.9914   4   0   0.0158   0.0175   0.0490   0.0041  -0.0144   0.0131   0.42    0.0
2022/05/29 14:01:32.421    8.851980652    7.742168805   399.9943   4   0   0.0158   0.0175   0.0490   0.0041  -0.0144   0.0131   0.42    0.0
2022/05/29 14:01:33.421    8.851980657    7.742168814   399.9927   4   0   0.0158   0.0175   0.0490   0.0041  -0.0144   0.0131   0.42    0.0
2022/05/29 14:01:34.421    8.851980658    7.742168818   399.9899   4   0   0.0158   0.0175   0.0490   0.0041  -0.0144   0.0131   0.42    0.0
2022/05/29 14:01:35.421    8.851980660    7.742168816   399.9907   4   0   0.0158   0.0175   0.0490   0.0041  -0.0144   0.0131   0.42    0.0
2022/05/29 14:01:36.421    8.851980652    7.742168820   399.9883   4   0   0.0158   0.0175   0.0490   0.0041  -0.0144   0.0131   0.42    0.0
2022/05/29 14:01:37.421    8.851980653    7.742168820   399.9892   4   0   0.0158   0.0175   0.0490   0.0041  -0.0144   0.0131   0.42    0.0
2022/05/29 14:01:38.421    8.851980661    7.742168815   399.9906   4   0   0.0158   0.0175   0.0490   0.0041  -0.0144   0.0131   0.42    0.0
2022/05/29 14:01:39.421    8.851980656    7.742168828   399.9884   4   0   0.0158   0.0175   0.0490   0.0041  -0.0144   0.0131   0.42    0.0
2022/05/29 14:01:40.421    8.851980659    7.742168816   399.9931   4   0   0.0158   0.0175   0.0490   0.0041  -0.0144   0.0131   0.42    0.0
2022/05/29 14:01:41.421    8.851980664    7.742168832   399.9869   4   0   0.0158   0.0175   0.0490   0.0041  -0.0144   0.0131   0.42    0.0
2022/05/29 14:01:42.421    8.851980663    7.742168820   399.9893   4   0   0.0158   0.0175   0.0490   0.0041  -0.0144   0.0131   0.42    0.0
2022/05/29 14:01:43.421    8.851980663    7.742168833   399.9899   4   0   0.0158   0.0175   0.0490   0.0041  -0.0144   0.0131   0.42    0.0
2022/05/29 14:01:44.421    8.851980662    7.742168820   399.9893   4   0   0.0158   0.0175   0.0490   0.0041  -0.0144   0.0131   0.42    0.0
2022/05/29 14:01:45.421    8.851980663    7.742168818   399.9893   4   0   0.0158   0.0175   0.0490   0.0041  -0.0144   0.0131   0.42    0.0
2022/05/29 14:01:46.421    8.851980659    7.742168821   399.9894   4   0   0.0158   0.0175   0.0490   0.0041  -0.0144   0.0131   0.42    0.0
2022/05/29 14:01:47.421    8.851980662    7.742168839   399.9856   4   0   0.0158   0.0175   0.0490   0.0041  -0.0144   0.0131   0.42    0.0
2022/05/29 14:01:48.421    8.851980665    7.742168832   399.9889   4   0   0.0158   0.0175   0.0490   0.0041  -0.0144   0.0131   0.42    0.0
2022/05/29 14:01:49.421    8.851980666    7.742168834   399.9877   4   0   0.0158   0.0175   0.0490   0.0041  -0.0144   0.0131   0.42    0.0
2022/05/29 14:01:50.421    8.851980663    7.742168833   399.9884   4   0   0.0158   0.0175   0.0490   0.0041  -0.0144   0.0131   0.42    0.0
2022/05/29 14:01:51.421    8.851980666    7.742168837   399.9891   4   0   0.0158   0.0175   0.0490   0.0041  -0.0144   0.0131   0.42    0.0
2022/05/29 14:01:52.421    8.851980667    7.742168840   399.9884   4   0   0.0158   0.0175   0.0490   0.0041  -0.0144   0.0131   0.42    0.0
2022/05/29 14:01:53.421    8.851980661    7.742168841   399.9853   4   0   0.0158   0.0175   0.0490   0.0041  -0.0144   0.0131   0.42    0.0
2022/05/29 14:01:54.421    8.851980670    7.742168842   399.9841   4   0   0.0158   0.0175   0.0490   0.0041  -0.0144   0.0131   0.42    0.0
2022/05/29 14:01:55.421    8.851980667    7.742168844   399.9822   4   0   0.0158   0.0175   0.0490   0.0041  -0.0144   0.0131   0.42    0.0
2022/05/29 14:01:56.421    8.851980670    7.742168845   399.9839   4   0   0.0158   0.0175   0.0490   0.0041  -0.0144   0.0131   0.42    0.0
2022/05/29 14:01:57.421    8.851980670    7.742168843   399.9834   4   0   0.0158   0.0175   0.0490   0.0041  -0.0144   0.0131   0.42    0.0
2022/05/29 14:01:58.421    8.851980664    7.742168842   399.9856   4   0   0.0158   0.0175   0.0490   0.0041  -0.0144   0.0131   0.42    0.0
2022/05/29 14:01:59.421    8.851980664    7.742168835   399.9877   4   0   0.0158   0.0175   0.0490   0.0041  -0.0144   0.0131   0.42    0.0
2022/05/29 14:02:00.421    8.851980671    7.742168837   399.9863   4   0   0.0158   0.0175   0.0490   0.0041  -0.0144   0.0131   0.42    0.0
2022/05/29 14:02:01.421    8.851980666    7.742168832   399.9853   4   0   0.0158   0.0175   0.0490   0.0041  -0.0144   0.0131   0.42    0.0
2022/05/29 14:02:02.421    8.851980668    7.742168841   399.9808   4   0   0.0158   0.0175   0.0490   0.0041  -0.0144   0.0131   0.42    0.0
2022/05/29 14:02:03.421    8.851980670    7.742168838   399.9839   4   0   0.0158   0.0175   0.0490   0.0041  -0.0144   0.0131   0.42    0.0
2022/05/29 14:02:04.421    8.851980665    7.742168841   399.9832   4   0   0.0158   0.0175   0.0490   0.0041  -0.0144   0.0131   0.42    0.0
2022/05/29 14:02:05.421    8.851980668    7.742168844   399.9848   4   0   0.0158   0.0175   0.0490   0.0041  -0.0144   0.0131   0.42    0.0
2022/05/29 14:02:06.421    8.851980666    7.742168849   399.9832   4   0   0.0158   0.0175   0.0490   0.0041  -0.0144   0.0131   0.42    0.0
2022/05/29 14:02:07.421    8.851980666    7.742168847   399.9835   4   0   0.0158   0.0175   0.0490   0.0041  -0.0144   0.0131   0.42    0.0
2022/05/29 14:02:08.421    8.851980674    7.742168852   399.9810   4   0   0.0158   0.0175   0.0490   0.0041  -0.0144   0.0131   0.42    0.0
2022/05/29 14:02:09.421    8.851980668    7.742168843   399.9839   4   0   0.0158   0.0175   0.0490   0.0041  -0.0144   0.0131   0.42    0.0
2022/05/29 14:02:10.421    8.851980674    7.742168843   399.9819   4   0   0.0158   0.0175   0.0490   0.0041  -0.0144   0.0131   0.42    0.0
2022/05/29 14:02:11.421    8.851980670    7.742168846   399.9832   4   0   0.0158   0.0175   0.0490   0.0041  -0.0144   0.0131   0.42    0.0
2022/05/29 14:02:12.421    8.851980674    7.742168842   399.9833   4   0   0.0158   0.0175   0.0490   0.0041  -0.0144   0.0131   0.42    0.0
2022/05/29 14:02:13.421    8.851980674    7.742168845   399.9848   4   0   0.0158   0.0175   0.0490   0.0041  -0.0144   0.0131   0.42    0.0
2022/05/29 14:02:14.421    8.851980671    7.742168849   399.9834   4   0   0.0158   0.0175   0.0490   0.0041  -0.0144   0.0131   0.42    0.0
2022/05/29 14:02:15.421    8.851980670    7.742168845   399.9829   4   0   0.0158   0.0175   0.0490   0.0041  -0.0144   0.0131   0.42    0.0
2022/05/29 14:02:16.421    8.851980677    7.742168840   399.9848   4   0   0.0158   0.0175   0.0490   0.0041  -0.0144   0.0131   0.42    0.0
2022/05/29 14:02:17.421    8.851980678    7.742168842   399.9820   4   0   0.0158   0.0175   0.0490   0.0041  -0.0144   0.0131   0.42    0.0
2022/05/29 14:02:18.421    8.851980685    7.742168842   399.9820   4   0   0.0158   0.0175   0.0490   0.0041  -0.0144   0.0131   0.42    0.0
2022/05/29 14:02:19.421    8.851980686    7.742168845   399.9808   4   0   0.0158   0.0175   0.0490   0.0041  -0.0144   0.0131   0.42    0.0
2022/05/29 14:02:20.421    8.851980676    7.742168841   399.9802   4   0   0.0158   0.0175   0.0490   0.0041  -0.0144   0.0131   0.42    0.0
2022/05/29 14:02:21.421    8.851980682    7.742168848   399.9785   4   0   0.0158   0.0175   0.0490   0.0041  -0.0144   0.0131   0.42    0.0
2022/05/29 14:02:22.421    8.851980680    7.742168849   399.9826   4   0   0.0158   0.0175   0.0490   0.0041  -0.0144   0.0131   0.42    0.0
2022/05/29 14:02:23.421    8.851980677    7.742168848   399.9821   4   0   0.0158   0.0175   0.0490   0.0041  -0.0144   0.0131   0.42    0.0
2022/05/29 14:02:24.421    8.851980678    7.742168852   399.9812   4   0   0.0158   0.0175   0.0490   0.0041  -0.0144   0.0131   0.42    0.0
2022/05/29 14:02:25.421    8.851980686    7.742168855   399.9795   4   0   0.0158   0.0175   0.0490   0.0041  -0.0144   0.0131   0.42    0.0
2022/05/29 14:02:26.421    8.851980675    7.742168851   399.9815   4   0   0.0158   0.0175   0.0490   0.0041  -0.0144   0.0131   0.42    0.0
2022/05/29 14:02:27.421    8.851980674    7.742168850   399.9816   4   0   0.0158   0.0175   0.0490   0.0041  -0.0144   0.0131   0.42    0.0
2022/05/29 14:02:28.421    8.851980672    7.742168845   399.9817   4   0   0.0158   0.0175   0.0490   0.0041  -0.0144   0.0131   0.42    0.0
2022/05/29 14:02:29.421    8.851980672    7.742168850   399.9836   4   0   0.0158   0.0175   0.0490   0.0041  -0.0144   0.0131   0.42    0.0
2022/05/29 14:02:30.421    8.851980676    7.742168845   399.9829   4   0   0.0158   0.0175   0.0490   0.0041  -0.0144   0.0131   0.42    0.0
2022/05/29 14:02:31.421    8.851980673    7.742168847   399.9818   4   0   0.0158   0.0175   0.0490   0.0041  -0.0144   0.0131   0.42    0.0
2022/05/29 14:02:32.421    8.851980674    7.742168849   399.9827   4   0   0.0158   0.0175   0.0490   0.0041  -0.0144   0.0131   0.42    0.0
2022/05/29 14:02:33.421    8.851980678    7.742168856   399.9785   4   0   0.0158   0.0175   0.0490   0.0041  -0.0144   0.0131   0.42    0.0
2022/05/29 14:02:34.421    8.851980669    7.742168852   399.9793   4   0   0.0158   0.0175   0.0490   0.0041  -0.0144   0.0131   0.42    0.0
2022/05/29 14:02:35.421    8.851980670    7.742168848   399.9788   4   0   0.0158   0.0175   0.0490   0.0041  -0.0144   0.0131   0.42    0.0
2022/05/29 14:02:36.421    8.851980678    7.742168854   399.9797   4   0   0.0158   0.0175   0.0490   0.0041  -0.0144   0.0131   0.42    0.0
2022/05/29 14:02:37.421    8.851980680    7.742168852   399.9788   4   0   0.0158   0.0175   0.0490   0.0041  -0.0144   0.0131   0.42    0.0
2022/05/29 14:02:38.421    8.851980679    7.742168846   399.9820   4   0   0.0158   0.0175   0.0490   0.0041  -0.0144   0.0131   0.42    0.0
2022/05/29 14:02:39.421    8.851980678    7.742168847   399.9806   4   0   0.0158   0.0175   0.0490   0.0041  -0.0144   0.0131   0.42    0.0
2022/05/29 14:02:40.421    8.851980674    7.742168849   399.9812   4   0   0.0158   0.0175   0.0490   0.0041  -0.0144   0.0131   0.42    0.0
2022/05/29 14:02:41.421    8.851980675    7.742168844   399.9822   4   0   0.0158   0.0175   0.0490   0.0041  -0.0144   0.0131   0.42    0.0
2022/05/29 14:02:42.421    8.851980677    7.742168850   399.9827   4   0   0.0158   0.0175   0.0490   0.0041  -0.0144   0.0131   0.42    0.0
2022/05/29 14:02:43.421    8.851980677    7.742168844   399.9833   4   0   0.0158   0.0175   0.0490   0.0041  -0.0144   0.0131   0.42    0.0
2022/05/29 14:02:44.421    8.851980674    7.742168844   399.9835   4   0   0.0158   0.0175   0.0490   0.0041  -0.0144   0.0131   0.42    0.0
2022/05/29 14:02:45.421    8.851980681    7.742168846   399.9822   4   0   0.0158   0.0175   0.0490   0.0041  -0.0144   0.0131   0.42    0.0
2022/05/29 14:02:46.421    8.851980679    7.742168858   399.9802   4   0   0.0158   0.0175   0.0490   0.0041  -0.0144   0.0131   0.42    0.0
2022/05/29 14:02:47.421    8.851980678    7.742168850   399.9829   4   0   0.0158   0.0175   0.0490   0.0041  -0.0144   0.0131   0.42    0.0
2022/05/29 14:02:48.421    8.851980677    7.742168853   399.9821   4   0   0.0158   0.0175   0.0490   0.0041  -0.0144   0.0131   0.42    0.0
2022/05/29 14:02:49.421    8.851980684    7.742168847   399.9842   4   0   0.0158   0.0175   0.0490   0.0041  -0.0144   0.0131   0.42    0.0
2022/05/29 14:02:50.421    8.851980677    7.742168848   399.9830   4   0   0.0158   0.0175   0.0490   0.0041  -0.0144   0.0131   0.42    0.0
2022/05/29 14:02:51.421    8.851980680    7.742168851   399.9827   4   0   0.0158   0.0175   0.0490   0.0041  -0.0144   0.0131   0.42    0.0
2022/05/29 14:02:52.421    8.851980670    7.742168850   399.9819   4   0   0.0158   0.0175   0.0490   0.0041  -0.0144   0.0131   0.42    0.0
2022/05/29 14:02:53.421    8.851980678    7.742168851   399.9825   4   0   0.0158   0.0175   0.0490   0.0041  -0.0144   0.0131   0.42    0.0
2022/05/29 14:02:54.421    8.851980676    7.742168852   399.9830   4   0   0.0158   0.0175   0.0490   0.0041  -0.0144   0.0131   0.42    0.0
2022/05/29 14:02:55.421    8.851980678    7.742168852   399.9822   4   0   0.0158   0.0175   0.0490   0.0041  -0.0144   0.0131   0.42    0.0
2022/05/29 14:02:56.421    8.851980678    7.742168850   399.9823   4   0   0.0158   0.0175   0.0490   0.0041  -0.0144   0.0131   0.42    0.0
2022/05/29 14:02:57.421    8.851980676    7.742168852   399.9822   4   0   0.0158   0.0175   0.0490   0.0041  -0.0144   0.0131   0.42    0.0
2022/05/29 14:02:58.421    8.851980673    7.742168850   399.9816   4   0   0.0158   0.0175   0.0490   0.0041  -0.0144   0.0131   0.42    0.0
2022/05/29 14:02:59.421    8.851980675    7.742168848   399.9827   4   0   0.0158   0.0175   0.0490   0.0041  -0.0144   0.0131   0.42    0.0
2022/05/29 14:03:00.421    8.851980689    7.742168853   399.9812   4   0   0.0158   0.0175   0.0490   0.0041  -0.0144   0.0131   0.42    0.0
2022/05/29 14:03:01.421    8.851980673    7.742168850   399.9792   4   0   0.0158   0.0175   0.0490   0.0041  -0.0144   0.0131   0.42    0.0
2022/05/29 14:03:02.421    8.851980671    7.742168844   399.9865   4   0   0.0158   0.0175   0.0490   0.0041  -0.0144   0.0131   0.42    0.0
2022/05/29 14:03:03.421    8.851980678    7.742168851   399.9814   4   0   0.0158   0.0175   0.0490   0.0041  -0.0144   0.0131   0.42    0.0
2022/05/29 14:03:04.421    8.851980682    7.742168856   399.9788   4   0   0.0158   0.0175   0.0490   0.0041  -0.0144   0.0131   0.42    0.0
2022/05/29 14:03:05.421    8.851980687    7.742168849   399.9817   4   0   0.0158   0.0175   0.0490   0.0041  -0.0144   0.0131   0.42    0.0
2022/05/29 14:03:06.421    8.851980676    7.742168841   399.9836   4   0   0.0158   0.0175   0.0490   0.0041  -0.0144   0.0131   0.42    0.0
2022/05/29 14:03:07.421    8.851980683    7.742168853   399.9799   4   0   0.0158   0.0175   0.0490   0.0041  -0.0144   0.0131   0.42    0.0
2022/05/29 14:03:08.421    8.851980674    7.742168846   399.9825   4   0   0.0158   0.0175   0.0490   0.0041  -0.0144   0.0131   0.42    0.0
2022/05/29 14:03:09.421    8.851980686    7.742168851   399.9803   4   0   0.0158   0.0175   0.0490   0.0041  -0.0144   0.0131   0.42    0.0
2022/05/29 14:03:10.421    8.851980675    7.742168856   399.9764   4   0   0.0158   0.0175   0.0490   0.0041  -0.0144   0.0131   0.42    0.0
2022/05/29 14:03:11.421    8.851980671    7.742168850   399.9804   4   0   0.0158   0.0175   0.0490   0.0041  -0.0144   0.0131   0.42    0.0
2022/05/29 14:03:12.421    8.851980677    7.742168855   399.9788   4   0   0.0158   0.0175   0.0490   0.0041  -0.0144   0.0131   0.42    0.0
2022/05/29 14:03:13.421    8.851980668    7.742168845   399.9820   4   0   0.0158   0.0175   0.0490   0.0041  -0.0144   0.0131   0.42    0.0
2022/05/29 14:03:14.421    8.851980682    7.742168857   399.9790   4   0   0.0158   0.0175   0.0490   0.0041  -0.0144   0.0131   0.42    0.0
2022/05/29 14:03:15.421    8.851980675    7.742168855   399.9807   4   0   0.0158   0.0175   0.0490   0.0041  -0.0144   0.0131   0.42    0.0
2022/05/29 14:03:16.421    8.851980676    7.742168860   399.9806   4   0   0.0158   0.0175   0.0490   0.0041  -0.0144   0.0131   0.42    0.0
2022/05/29 14:03:17.421    8.851980671    7.742168852   399.9809   4   0   0.0158   0.0175   0.0490   0.0041  -0.0144   0.0131   0.42    0.0
2022/05/29 14:03:18.421    8.851980670    7.742168856   399.9803   4   0   0.0158   0.0175   0.0490   0.0041  -0.0144   0.0131   0.42    0.0
2022/05/29 14:03:19.421    8.851980679    7.742168862   399.9802   4   0   0.0158   0.0175   0.0490   0.0041  -0.0144   0.0131   0.42    0.0
2022/05/29 14:03:20.421    8.851980677    7.742168852   399.9815   4   0   0.0158   0.0175   0.0490   0.0041  -0.0144   0.0131   0.42    0.0
2022/05/29 14:03:21.421    8.851980679    7.742168856   399.9809   4   0   0.0158   0.0175   0.0490   0.0041  -0.0144   0.0131   0.42    0.0
2022/05/29 14:03:22.421    8.851980677    7.742168848   399.9794   4   0   0.0158   0.0175   0.0490   0.0041  -0.0144   0.0131   0.42    0.0
2022/05/29 14:03:23.421    8.851980682    7.742168844   399.9820   4   0   0.0158   0.0175   0.0490   0.0041  -0.0144   0.0131   0.42    0.0
2022/05/29 14:03:24.421    8.851980675    7.742168847   399.9819   4   0   0.0158   0.0175   0.0490   0.0041  -0.0144   0.0131   0.42    0.0
2022/05/29 14:03:25.421    8.851980688    7.742168852   399.9799   4   0   0.0158   0.0175   0.0490   0.0041  -0.0144   0.0131   0.42    0.0
2022/05/29 14:03:26.421    8.851980682    7.742168855   399.9775   4   0   0.0158   0.0175   0.0490   0.0041  -0.0144   0.0131   0.42    0.0
2022/05/29 14:03:27.421    8.851980685    7.742168866   399.9774   4   0   0.0158   0.0175   0.0490   0.0041  -0.0144   0.0131   0.42    0.0
2022/05/29 14:03:28.421    8.851980687    7.742168868   399.9752   4   0   0.0158   0.0175   0.0490   0.0041  -0.0144   0.0131   0.42    0.0
2022/05/29 14:03:29.421    8.851980686    7.742168857   399.9800   4   0   0.0158   0.0175   0.0490   0.0041  -0.0144   0.0131   0.42    0.0
2022/05/29 14:03:30.421    8.851980677    7.742168857   399.9772   4   0   0.0158   0.0175   0.0490   0.0041  -0.0144   0.0131   0.42    0.0
2022/05/29 14:03:31.421    8.851980678    7.742168858   399.9772   4   0   0.0158   0.0175   0.0490   0.0041  -0.0144   0.0131   0.42    0.0
2022/05/29 14:03:32.421    8.851980691    7.742168866   399.9772   4   0   0.0158   0.0175   0.0490   0.0041  -0.0144   0.0131   0.42    0.0
2022/05/29 14:03:33.421    8.851980693    7.742168870   399.9768   4   0   0.0158   0.0175   0.0490   0.0041  -0.0144   0.0131   0.42    0.0
2022/05/29 14:03:34.421    8.851980691    7.742168869   399.9752   4   0   0.0158   0.0175   0.0490   0.0041  -0.0144   0.0131   0.42    0.0
2022/05/29 14:03:35.421    8.851980685    7.742168869   399.9746   4   0   0.0158   0.0175   0.0490   0.0041  -0.0144   0.0131   0.42    0.0
2022/05/29 14:03:36.421    8.851980689    7.742168868   399.9775   4   0   0.0158   0.0175   0.0490   0.0041  -0.0144   0.0131   0.42    0.0
2022/05/29 14:03:37.421    8.851980690    7.742168866   399.9768   4   0   0.0158   0.0175   0.0490   0.0041  -0.0144   0.0131   0.42    0.0
2022/05/29 14:03:38.421    8.851980688    7.742168867   399.9745   4   0   0.0158   0.0175   0.0490   0.0041  -0.0144   0.0131   0.42    0.0
2022/05/29 14:03:39.421    8.851980689    7.742168866   399.9762   4   0   0.0158   0.0175   0.0490   0.0041  -0.0144   0.0131   0.42    0.0
2022/05/29 14:03:40.421    8.851980695    7.742168873   399.9767   4   0   0.0158   0.0175   0.0490   0.0041  -0.0144   0.0131   0.42    0.0
2022/05/29 14:03:41.421    8.851980693    7.742168875   399.9758   4   0   0.0158   0.0175   0.0490   0.0041  -0.0144   0.0131   0.42    0.0
2022/05/29 14:03:42.421    8.851980697    7.742168877   399.9751   4   0   0.0158   0.0175   0.0490   0.0041  -0.0144   0.0131   0.42    0.0
2022/05/29 14:03:43.421    8.851980697    7.742168876   399.9748   4   0   0.0158   0.0175   0.0490   0.0041  -0.0144   0.0131   0.42    0.0
2022/05/29 14:03:44.421    8.851980695    7.742168881   399.9748   4   0   0.0158   0.0175   0.0490   0.0041  -0.0144   0.0131   0.42    0.0
2022/05/29 14:03:45.421    8.851980698    7.742168872   399.9758   4   0   0.0158   0.0175   0.0490   0.0041  -0.0144   0.0131   0.42    0.0
2022/05/29 14:03:46.421    8.851980702    7.742168878   399.9754   4   0   0.0158   0.0175   0.0490   0.0041  -0.0144   0.0131   0.42    0.0
2022/05/29 14:03:47.421    8.851980690    7.742168879   399.9734   4   0   0.0158   0.0175   0.0490   0.0041  -0.0144   0.0131   0.42    0.0
2022/05/29 14:03:48.421    8.851980712    7.742168885   399.9735   4   0   0.0158   0.0175   0.0490   0.0041  -0.0144   0.0131   0.42    0.0
2022/05/29 14:03:49.421    8.851980705    7.742168880   399.9742   4   0   0.0158   0.0175   0.0490   0.0041  -0.0144   0.0131   0.42    0.0
2022/05/29 14:03:50.421    8.851980708    7.742168879   399.9762   4   0   0.0158   0.0175   0.0490   0.0041  -0.0144   0.0131   0.42    0.0
2022/05/29 14:03:51.421    8.851980708    7.742168885   399.9714   4   0   0.0158   0.0175   0.0490   0.0041  -0.0144   0.0131   0.42    0.0
2022/05/29 14:03:52.421    8.851980712    7.742168892   399.9708   4   0   0.0158   0.0175   0.0490   0.0041  -0.0144   0.0131   0.42    0.0
2022/05/29 14:03:53.421    8.851980705    7.742168881   399.9753   4   0   0.0158   0.0175   0.0490   0.0041  -0.0144   0.0131   0.42    0.0
2022/05/29 14:03:54.421    8.851980715    7.742168890   399.9724   4   0   0.0158   0.0175   0.0490   0.0041  -0.0144   0.0131   0.42    0.0
2022/05/29 14:03:55.421    8.851980708    7.742168891   399.9719   4   0   0.0158   0.0175   0.0490   0.0041  -0.0144   0.0131   0.42    0.0
2022/05/29 14:03:56.421    8.851980706    7.742168883   399.9725   4   0   0.0158   0.0175   0.0490   0.0041  -0.0144   0.0131   0.42    0.0
2022/05/29 14:03:57.421    8.851980714    7.742168889   399.9725   4   0   0.0158   0.0175   0.0490   0.0041  -0.0144   0.0131   0.42    0.0
2022/05/29 14:03:58.421    8.851980708    7.742168884   399.9728   4   0   0.0158   0.0175   0.0490   0.0041  -0.0144   0.0131   0.42    0.0
2022/05/29 14:03:59.421    8.851980716    7.742168884   399.9731   4   0   0.0158   0.0175   0.0490   0.0041  -0.0144   0.0131   0.42    0.0
2022/05/29 14:04:00.421    8.851980706    7.742168876   399.9771   4   0   0.0158   0.0175   0.0490   0.0041  -0.0144   0.0131   0.42    0.0
2022/05/29 14:04:01.421    8.851980709    7.742168878   399.9780   4   0   0.0158   0.0175   0.0490   0.0041  -0.0144   0.0131   0.42    0.0
2022/05/29 14:04:02.421    8.851980713    7.742168876   399.9785   4   0   0.0158   0.0175   0.0490   0.0041  -0.0144   0.0131   0.42    0.0
2022/05/29 14:04:03.421    8.851980707    7.742168875   399.9780   4   0   0.0158   0.0175   0.0490   0.0041  -0.0144   0.0131   0.42    0.0
2022/05/29 14:04:04.421    8.851980709    7.742168875   399.9761   4   0   0.0158   0.0175   0.0490   0.0041  -0.0144   0.0131   0.42    0.0
2022/05/29 14:04:05.421    8.851980710    7.742168877   399.9750   4   0   0.0158   0.0175   0.0490   0.0041  -0.0144   0.0131   0.42    0.0
2022/05/29 14:04:06.421    8.851980710    7.742168884   399.9735   4   0   0.0158   0.0175   0.0490   0.0041  -0.0144   0.0131   0.42    0.0
2022/05/29 14:04:07.421    8.851980711    7.742168880   399.9723   4   0   0.0158   0.0175   0.0490   0.0041  -0.0144   0.0131   0.42    0.0
2022/05/29 14:04:08.421    8.851980710    7.742168885   399.9704   4   0   0.0158   0.0175   0.0490   0.0041  -0.0144   0.0131   0.42    0.0
2022/05/29 14:04:09.421    8.851980718    7.742168881   399.9734   4   0   0.0158   0.0175   0.0490   0.0041  -0.0144   0.0131   0.42    0.0
2022/05/29 14:04:10.421    8.851980718    7.742168878   399.9744   4   0   0.0158   0.0175   0.0490   0.0041  -0.0144   0.0131   0.42    0.0
2022/05/29 14:04:11.421    8.851980720    7.742168894   399.9696   4   0   0.0158   0.0175   0.0490   0.0041  -0.0144   0.0131   0.42    0.0
2022/05/29 14:04:12.421    8.851980724    7.742168893   399.9719   4   0   0.0158   0.0175   0.0490   0.0041  -0.0144   0.0131   0.42    0.0
2022/05/29 14:04:13.421    8.851980719    7.742168881   399.9733   4   0   0.0158   0.0175   0.0490   0.0041  -0.0144   0.0131   0.42    0.0
2022/05/29 14:04:14.421    8.851980716    7.742168887   399.9738   4   0   0.0158   0.0175   0.0490   0.0041  -0.0144   0.0131   0.42    0.0
2022/05/29 14:04:15.421    8.851980705    7.742168876   399.9760   4   0   0.0158   0.0175   0.0490   0.0041  -0.0144   0.0131   0.42    0.0
2022/05/29 14:04:16.421    8.851980713    7.742168883   399.9741   4   0   0.0158   0.0175   0.0490   0.0041  -0.0144   0.0131   0.42    0.0
2022/05/29 14:04:17.421    8.851980714    7.742168882   399.9732   4   0   0.0158   0.0175   0.0490   0.0041  -0.0144   0.0131   0.42    0.0
2022/05/29 14:04:18.421    8.851980710    7.742168882   399.9732   4   0   0.0158   0.0175   0.0490   0.0041  -0.0144   0.0131   0.42    0.0
2022/05/29 14:04:19.421    8.851980722    7.742168883   399.9737   4   0   0.0158   0.0175   0.0490   0.0041  -0.0144   0.0131   0.42    0.0
2022/05/29 14:04:20.421    8.851980714    7.742168878   399.9711   4   0   0.0158   0.0175   0.0490   0.0041  -0.0144   0.0131   0.42    0.0
2022/05/29 14:04:21.421    8.851980715    7.742168887   399.9719   4   0   0.0158   0.0175   0.0490   0.0041  -0.0144   0.0131   0.42    0.0
2022/05/29 14:04:22.421    8.851980714    7.742168883   399.9707   4   0   0.0158   0.0175   0.0490   0.0041  -0.0144   0.0131   0.42    0.0
2022/05/29 14:04:23.421    8.851980718    7.742168887   399.9719   4   0   0.0158   0.0175   0.0490   0.0041  -0.0144   0.0131   0.42    0.0
2022/05/29 14:04:24.421    8.851980720    7.742168888   399.9726   4   0   0.0158   0.0175   0.0490   0.0041  -0.0144   0.0131   0.42    0.0
2022/05/29 14:04:25.421    8.851980718    7.742168880   399.9717   4   0   0.0158   0.0175   0.0490   0.0041  -0.0144   0.0131   0.42    0.0
2022/05/29 14:04:26.421    8.851980721    7.742168881   399.9722   4   0   0.0158   0.0175   0.0490   0.0041  -0.0144   0.0131   0.42    0.0
2022/05/29 14:04:27.421    8.851980716    7.742168881   399.9702   4   0   0.0158   0.0175   0.0490   0.0041  -0.0144   0.0131   0.42    0.0
2022/05/29 14:04:28.421    8.851980718    7.742168887   399.9690   4   0   0.0158   0.0175   0.0490   0.0041  -0.0144   0.0131   0.42    0.0
2022/05/29 14:04:29.421    8.851980719    7.742168888   399.9704   4   0   0.0158   0.0175   0.0490   0.0041  -0.0144   0.0131   0.42    0.0
2022/05/29 14:04:30.421    8.851980720    7.742168895   399.9664   4   0   0.0158   0.0175   0.0490   0.0041  -0.0144   0.0131   0.42    0.0
2022/05/29 14:04:31.421    8.851980714    7.742168890   399.9673   4   0   0.0158   0.0175   0.0490   0.0041  -0.0144   0.0131   0.42    0.0
2022/05/29 14:04:32.421    8.851980710    7.742168888   399.9692   4   0   0.0158   0.0175   0.0490   0.0041  -0.0144   0.0131   0.42    0.0
2022/05/29 14:04:33.421    8.851980709    7.742168889   399.9694   4   0   0.0158   0.0175   0.0490   0.0041  -0.0144   0.0131   0.42    0.0
2022/05/29 14:04:34.421    8.851980716    7.742168885   399.9697   4   0   0.0158   0.0175   0.0490   0.0041  -0.0144   0.0131   0.42    0.0
2022/05/29 14:04:35.421    8.851980712    7.742168890   399.9695   4   0   0.0158   0.0175   0.0490   0.0041  -0.0144   0.0131   0.42    0.0
2022/05/29 14:04:36.421    8.851980711    7.742168897   399.9712   4   0   0.0158   0.0175   0.0490   0.0041  -0.0144   0.0131   0.42    0.0
2022/05/29 14:04:37.421    8.851980721    7.742168888   399.9684   4   0   0.0158   0.0175   0.0490   0.0041  -0.0144   0.0131   0.42    0.0
2022/05/29 14:04:38.421    8.851980725    7.742168901   399.9682   4   0   0.0158   0.0175   0.0490   0.0041  -0.0144   0.0131   0.42    0.0
2022/05/29 14:04:39.421    8.851980724    7.742168896   399.9700   4   0   0.0158   0.0175   0.0490   0.0041  -0.0144   0.0131   0.42    0.0
2022/05/29 14:04:40.421    8.851980723    7.742168901   399.9687   4   0   0.0158   0.0175   0.0490   0.0041  -0.0144   0.0131   0.42    0.0
2022/05/29 14:04:41.421    8.851980727    7.742168897   399.9693   4   0   0.0158   0.0175   0.0490   0.0041  -0.0144   0.0131   0.42    0.0
2022/05/29 14:04:42.421    8.851980726    7.742168892   399.9691   4   0   0.0158   0.0175   0.0490   0.0041  -0.0144   0.0131   0.42    0.0
2022/05/29 14:04:43.421    8.851980729    7.742168902   399.9683   4   0   0.0158   0.0175   0.0490   0.0041  -0.0144   0.0131   0.42    0.0
2022/05/29 14:04:44.421    8.851980725    7.742168890   399.9697   4   0   0.0158   0.0175   0.0490   0.0041  -0.0144   0.0131   0.42    0.0
2022/05/29 14:04:45.421    8.851980723    7.742168892   399.9676   4   0   0.0158   0.0175   0.0490   0.0041  -0.0144   0.0131   0.42    0.0
2022/05/29 14:04:46.421    8.851980718    7.742168888   399.9721   4   0   0.0158   0.0175   0.0490   0.0041  -0.0144   0.0131   0.42    0.0
2022/05/29 14:04:47.421    8.851980724    7.742168893   399.9703   4   0   0.0158   0.0175   0.0490   0.0041  -0.0144   0.0131   0.42    0.0
2022/05/29 14:04:48.421    8.851980725    7.742168894   399.9699   4   0   0.0158   0.0175   0.0490   0.0041  -0.0144   0.0131   0.42    0.0
2022/05/29 14:04:49.421    8.851980729    7.742168896   399.9684   4   0   0.0158   0.0175   0.0490   0.0041  -0.0144   0.0131   0.42    0.0
2022/05/29 14:04:50.421    8.851980733    7.742168903   399.9671   4   0   0.0158   0.0175   0.0490   0.0041  -0.0144   0.0131   0.42    0.0
2022/05/29 14:04:51.421    8.851980726    7.742168903   399.9647   4   0   0.0158   0.0175   0.0490   0.0041  -0.0144   0.0131   0.42    0.0
2022/05/29 14:04:52.421    8.851980725    7.742168902   399.9672   4   0   0.0158   0.0175   0.0490   0.0041  -0.0144   0.0131   0.42    0.0
2022/05/29 14:04:53.421    8.851980729    7.742168902   399.9680   4   0   0.0158   0.0175   0.0490   0.0041  -0.0144   0.0131   0.42    0.0
2022/05/29 14:04:54.421    8.851980721    7.742168901   399.9662   4   0   0.0158   0.0175   0.0490   0.0041  -0.0144   0.0131   0.42    0.0
2022/05/29 14:04:55.421    8.851980725    7.742168899   399.9687   4   0   0.0158   0.0175   0.0490   0.0041  -0.0144   0.0131   0.42    0.0
2022/05/29 14:04:56.421    8.851980726    7.742168901   399.9698   4   0   0.0158   0.0175   0.0490   0.0041  -0.0144   0.0131   0.42    0.0
2022/05/29 14:04:57.421    8.851980726    7.742168900   399.9701   4   0   0.0158   0.0175   0.0490   0.0041  -0.0144   0.0131   0.42    0.0
2022/05/29 14:04:58.421    8.851980717    7.742168903   399.9665   4   0   0.0158   0.0175   0.0490   0.0041  -0.0144   0.0131   0.42    0.0
2022/05/29 14:04:59.421    8.851980724    7.742168900   399.9673   4   0   0.0158   0.0175   0.0490   0.0041  -0.0144   0.0131   0.42    0.0
2022/05/29 14:05:00.421    8.851980717    7.742168898   399.9689   4   0   0.0158   0.0175   0.0490   0.0041  -0.0144   0.0131   0.42    0.0
2022/05/29 14:05:01.421    8.851980732    7.742168906   399.9664   4   0   0.0158   0.0175   0.0490   0.0041  -0.0144   0.0131   0.42    0.0
2022/05/29 14:05:02.421    8.851980728    7.742168905   399.9672   4   0   0.0158   0.0175   0.0490   0.0041  -0.0144   0.0131   0.42    0.0
2022/05/29 14:05:03.421    8.851980720    7.742168904   399.9670   4   0   0.0158   0.0175   0.0490   0.0041  -0.0144   0.0131   0.42    0.0
2022/05/29 14:05:04.421    8.851980726    7.742168904   399.9669   4   0   0.0158   0.0175   0.0490   0.0041  -0.0144   0.0131   0.42    0.0
2022/05/29 14:05:05.421    8.851980723    7.742168901   399.9665   4   0   0.0158   0.0175   0.0490   0.0041  -0.0144   0.0131   0.42    0.0
2022/05/29 14:05:06.421    8.851980732    7.742168913   399.9647   4   0   0.0158   0.0175   0.0490   0.0041  -0.0144   0.0131   0.42    0.0
2022/05/29 14:05:07.421    8.851980733    7.742168913   399.9625   4   0   0.0158   0.0175   0.0490   0.0041  -0.0144   0.0131   0.42    0.0
2022/05/29 14:05:08.421    8.851980731    7.742168916   399.9608   4   0   0.0158   0.0175   0.0490   0.0041  -0.0144   0.0131   0.42    0.0
2022/05/29 14:05:09.421    8.851980737    7.742168913   399.9641   4   0   0.0158   0.0175   0.0490   0.0041  -0.0144   0.0131   0.42    0.0
2022/05/29 14:05:10.421    8.851980732    7.742168912   399.9640   4   0   0.0158   0.0175   0.0490   0.0041  -0.0144   0.0131   0.42    0.0
2022/05/29 14:05:11.421    8.851980736    7.742168914   399.9651   4   0   0.0158   0.0175   0.0490   0.0041  -0.0144   0.0131   0.42    0.0
2022/05/29 14:05:12.421    8.851980735    7.742168909   399.9657   4   0   0.0158   0.0175   0.0490   0.0041  -0.0144   0.0131   0.42    0.0
2022/05/29 14:05:13.421    8.851980729    7.742168916   399.9645   4   0   0.0158   0.0175   0.0490   0.0041  -0.0144   0.0131   0.42    0.0
2022/05/29 14:05:14.421    8.851980729    7.742168914   399.9642   4   0   0.0158   0.0175   0.0490   0.0041  -0.0144   0.0131   0.42    0.0
2022/05/29 14:05:15.421    8.851980729    7.742168916   399.9641   4   0   0.0158   0.0175   0.0490   0.0041  -0.0144   0.0131   0.42    0.0
2022/05/29 14:05:16.421    8.851980726    7.742168913   399.9647   4   0   0.0158   0.0175   0.0490   0.0041  -0.0144   0.0131   0.42    0.0
2022/05/29 14:05:17.421    8.851980729    7.742168924   399.9624   4   0   0.0158   0.0175   0.0490   0.0041  -0.0144   0.0131   0.42    0.0
2022/05/29 14:05:18.421    8.851980728    7.742168919   399.9620   4   0   0.0158   0.0175   0.0490   0.0041  -0.0144   0.0131   0.42    0.0
2022/05/29 14:05:19.421    8.851980729    7.742168914   399.9627   4   0   0.0158   0.0175   0.0490   0.0041  -0.0144   0.0131   0.42    0.0
2022/05/29 14:05:20.421    8.851980729    7.742168914   399.9611   4   0   0.0158   0.0175   0.0490   0.0041  -0.0144   0.0131   0.42    0.0
2022/05/29 14:05:21.421    8.851980728    7.742168930   399.9596   4   0   0.0158   0.0175   0.0490   0.0041  -0.0144   0.0131   0.42    0.0
2022/05/29 14:05:22.421    8.851980729    7.742168927   399.9620   4   0   0.0158   0.0175   0.0490   0.0041  -0.0144   0.0131   0.42    0.0
2022/05/29 14:05:23.421    8.851980728    7.742168928   399.9609   4   0   0.0158   0.0175   0.0490   0.0041  -0.0144   0.0131   0.42    0.0
2022/05/29 14:05:24.421    8.851980728    7.742168930   399.9608   4   0   0.0158   0.0175   0.0490   0.0041  -0.0144   0.0131   0.42    0.0
2022/05/29 14:05:25.421    8.851980733    7.742168926   399.9616   4   0   0.0158   0.0175   0.0490   0.0041  -0.0144   0.0131   0.42    0.0
2022/05/29 14:05:26.421    8.851980727    7.742168932   399.9603   4   0   0.0158   0.0175   0.0490   0.0041  -0.0144   0.0131   0.42    0.0
2022/05/29 14:05:27.421    8.851980726    7.742168928   399.9601   4   0   0.0158   0.0175   0.0490   0.0041  -0.0144   0.0131   0.42    0.0
2022/05/29 14:05:28.421    8.851980729    7.742168922   399.9619   4   0   0.0158   0.0175   0.0490   0.0041  -0.0144   0.0131   0.42    0.0
2022/05/29 14:05:29.421    8.851980723    7.742168919   399.9625   4   0   0.0158   0.0175   0.0490   0.0041  -0.0144   0.0131   0.42    0.0
2022/05/29 14:05:30.421    8.851980726    7.742168924   399.9609   4   0   0.0158   0.0175   0.0490   0.0041  -0.0144   0.0131   0.42    0.0
2022/05/29 14:05:31.421    8.851980723    7.742168923   399.9597   4   0   0.0158   0.0175   0.0490   0.0041  -0.0144   0.0131   0.42    0.0
2022/05/29 14:05:32.421    8.851980723    7.742168925   399.9586   4   0   0.0158   0.0175   0.0490   0.0041  -0.0144   0.0131   0.42    0.0
2022/05/29 14:05:33.421    8.851980718    7.742168923   399.9620   4   0   0.0158   0.0175   0.0490   0.0041  -0.0144   0.0131   0.42    0.0
2022/05/29 14:05:34.421    8.851980724    7.742168925   399.9575   4   0   0.0158   0.0175   0.0490   0.0041  -0.0144   0.0131   0.42    0.0
2022/05/29 14:05:35.421    8.851980724    7.742168918   399.9619   4   0   0.0158   0.0175   0.0490   0.0041  -0.0144   0.0131   0.42    0.0
2022/05/29 14:05:36.421    8.851980719    7.742168930   399.9570   4   0   0.0158   0.0175   0.0490   0.0041  -0.0144   0.0131   0.42    0.0
2022/05/29 14:05:37.421    8.851980728    7.742168919   399.9603   4   0   0.0158   0.0175   0.0490   0.0041  -0.0144   0.0131   0.42    0.0
2022/05/29 14:05:38.421    8.851980730    7.742168924   399.9559   4   0   0.0158   0.0175   0.0490   0.0041  -0.0144   0.0131   0.42    0.0
2022/05/29 14:05:39.421    8.851980728    7.742168926   399.9580   4   0   0.0158   0.0175   0.0490   0.0041  -0.0144   0.0131   0.42    0.0
2022/05/29 14:05:40.421    8.851980727    7.742168924   399.9608   4   0   0.0158   0.0175   0.0490   0.0041  -0.0144   0.0131   0.42    0.0
2022/05/29 14:05:41.421    8.851980725    7.742168923   399.9577   4   0   0.0158   0.0175   0.0490   0.0041  -0.0144   0.0131   0.42    0.0
2022/05/29 14:05:42.421    8.851980734    7.742168920   399.9607   4   0   0.0158   0.0175   0.0490   0.0041  -0.0144   0.0131   0.42    0.0
2022/05/29 14:05:43.421    8.851980728    7.742168926   399.9600   4   0   0.0158   0.0175   0.0490   0.0041  -0.0144   0.0131   0.42    0.0
2022/05/29 14:05:44.421    8.851980727    7.742168920   399.9594   4   0   0.0158   0.0175   0.0490   0.0041  -0.0144   0.0131   0.42    0.0
2022/05/29 14:05:45.421    8.851980730    7.742168923   399.9611   4   0   0.0158   0.0175   0.0490   0.0041  -0.0144   0.0131   0.42    0.0
2022/05/29 14:05:46.421    8.851980734    7.742168927   399.9593   4   0   0.0158   0.0175   0.0490   0.0041  -0.0144   0.0131   0.42    0.0
2022/05/29 14:05:47.421    8.851980730    7.742168925   399.9585   4   0   0.0158   0.0175   0.0490   0.0041  -0.0144   0.0131   0.42    0.0
2022/05/29 14:05:48.421    8.851980739    7.742168925   399.9605   4   0   0.0158   0.0175   0.0490   0.0041  -0.0144   0.0131   0.42    0.0
2022/05/29 14:05:49.421    8.851980733    7.742168928   399.9581   4   0   0.0158   0.0175   0.0490   0.0041  -0.0144   0.0131   0.42    0.0
2022/05/29 14:05:50.421    8.851980730    7.742168915   399.9610   4   0   0.0158   0.0175   0.0490   0.0041  -0.0144   0.0131   0.42    0.0
2022/05/29 14:05:51.421    8.851980725    7.742168920   399.9626   4   0   0.0158   0.0175   0.0490   0.0041  -0.0144   0.0131   0.42    0.0
2022/05/29 14:05:52.421    8.851980733    7.742168919   399.9620   4   0   0.0158   0.0175   0.0490   0.0041  -0.0144   0.0131   0.42    0.0
2022/05/29 14:05:53.421    8.851980732    7.742168930   399.9582   4   0   0.0158   0.0175   0.0490   0.0041  -0.0144   0.0131   0.42    0.0
2022/05/29 14:05:54.421    8.851980732    7.742168924   399.9584   4   0   0.0158   0.0175   0.0490   0.0041  -0.0144   0.0131   0.42    0.0
2022/05/29 14:05:55.421    8.851980732    7.742168923   399.9600   4   0   0.0158   0.0175   0.0490   0.0041  -0.0144   0.0131   0.42    0.0
2022/05/29 14:05:56.421    8.851980734    7.742168931   399.9584   4   0   0.0158   0.0175   0.0490   0.0041  -0.0144   0.0131   0.42    0.0
2022/05/29 14:05:57.421    8.851980729    7.742168923   399.9581   4   0   0.0158   0.0175   0.0490   0.0041  -0.0144   0.0131   0.42    0.0
2022/05/29 14:05:58.421    8.851980739    7.742168929   399.9588   4   0   0.0158   0.0175   0.0490   0.0041  -0.0144   0.0131   0.42    0.0
2022/05/29 14:05:59.421    8.851980737    7.742168929   399.9614   4   0   0.0158   0.0175   0.0490   0.0041  -0.0144   0.0131   0.42    0.0
2022/05/29 14:06:00.421    8.851980738    7.742168923   399.9618   4   0   0.0158   0.0175   0.0490   0.0041  -0.0144   0.0131   0.42    0.0
2022/05/29 14:06:01.421    8.851980735    7.742168930   399.9600   4   0   0.0158   0.0175   0.0490   0.0041  -0.0144   0.0131   0.42    0.0
2022/05/29 14:06:02.421    8.851980737    7.742168930   399.9605   4   0   0.0158   0.0175   0.0490   0.0041  -0.0144   0.0131   0.42    0.0
2022/05/29 14:06:03.421    8.851980733    7.742168922   399.9598   4   0   0.0158   0.0175   0.0490   0.0041  -0.0144   0.0131   0.42    0.0
2022/05/29 14:06:04.421    8.851980736    7.742168932   399.9594   4   0   0.0158   0.0175   0.0490   0.0041  -0.0144   0.0131   0.42    0.0
2022/05/29 14:06:05.421    8.851980732    7.742168925   399.9609   4   0   0.0158   0.0175   0.0490   0.0041  -0.0144   0.0131   0.42    0.0
2022/05/29 14:06:06.421    8.851980739    7.742168929   399.9610   4   0   0.0158   0.0175   0.0490   0.0041  -0.0144   0.0131   0.42    0.0
2022/05/29 14:06:07.421    8.851980736    7.742168930   399.9623   4   0   0.0158   0.0175   0.0490   0.0041  -0.0144   0.0131   0.42    0.0
2022/05/29 14:06:08.421    8.851980735    7.742168921   399.9624   4   0   0.0158   0.0175   0.0490   0.0041  -0.0144   0.0131   0.42    0.0
2022/05/29 14:06:09.421    8.851980736    7.742168931   399.9608   4   0   0.0158   0.0175   0.0490   0.0041  -0.0144   0.0131   0.42    0.0
2022/05/29 14:06:10.421    8.851980732    7.742168926   399.9613   4   0   0.0158   0.0175   0.0490   0.0041  -0.0144   0.0131   0.42    0.0
2022/05/29 14:06:11.421    8.851980737    7.742168923   399.9612   4   0   0.0158   0.0175   0.0490   0.0041  -0.0144   0.0131   0.42    0.0
2022/05/29 14:06:12.421    8.851980742    7.742168929   399.9620   4   0   0.0158   0.0175   0.0490   0.0041  -0.0144   0.0131   0.42    0.0
2022/05/29 14:06:13.421    8.851980739    7.742168922   399.9616   4   0   0.0158   0.0175   0.0490   0.0041  -0.0144   0.0131   0.42    0.0
2022/05/29 14:06:14.421    8.851980742    7.742168928   399.9611   4   0   0.0158   0.0175   0.0490   0.0041  -0.0144   0.0131   0.42    0.0
2022/05/29 14:06:15.421    8.851980739    7.742168928   399.9614   4   0   0.0158   0.0175   0.0490   0.0041  -0.0144   0.0131   0.42    0.0
2022/05/29 14:06:16.421    8.851980746    7.742168926   399.9637   4   0   0.0158   0.0175   0.0490   0.0041  -0.0144   0.0131   0.42    0.0
2022/05/29 14:06:17.421    8.851980737    7.742168925   399.9616   4   0   0.0158   0.0175   0.0490   0.0041  -0.0144   0.0131   0.42    0.0
2022/05/29 14:06:18.421    8.851980739    7.742168927   399.9606   4   0   0.0158   0.0175   0.0490   0.0041  -0.0144   0.0131   0.42    0.0
2022/05/29 14:06:19.421    8.851980732    7.742168929   399.9600   4   0   0.0158   0.0175   0.0490   0.0041  -0.0144   0.0131   0.42    0.0
2022/05/29 14:06:20.421    8.851980738    7.742168928   399.9606   4   0   0.0158   0.0175   0.0490   0.0041  -0.0144   0.0131   0.42    0.0
2022/05/29 14:06:21.421    8.851980736    7.742168931   399.9609   4   0   0.0158   0.0175   0.0490   0.0041  -0.0144   0.0131   0.42    0.0
2022/05/29 14:06:22.421    8.851980735    7.742168926   399.9593   4   0   0.0158   0.0175   0.0490   0.0041  -0.0144   0.0131   0.42    0.0
2022/05/29 14:06:23.421    8.851980739    7.742168927   399.9602   4   0   0.0158   0.0175   0.0490   0.0041  -0.0144   0.0131   0.42    0.0
2022/05/29 14:06:24.421    8.851980738    7.742168925   399.9606   4   0   0.0158   0.0175   0.0490   0.0041  -0.0144   0.0131   0.42    0.0
