% program   : RTKPOST ver.demo5 b34g
% inp file  : C:\Users\Abdullateef\Documents\PHD\Research on Precision Agriculture Navigation Technology\nav data\sensorlogSlim\gnss_log_2022_05_29_14_51_17.22o
% inp file  : C:\Users\Abdullateef\Documents\PHD\Research on Precision Agriculture Navigation Technology\nav data\sensorlogSlim\BRDM00DLR_S_20221490000_01D_MN.rnx\BRDM00DLR_S_20221490000_01D_MN.rnx
% obs start : 2022/05/29 13:51:35.4 GPST (week2212  49895.4s)
% obs end   : 2022/05/29 14:52:19.4 GPST (week2212  53539.4s)
% pos mode  : Single
% elev mask : 30.0 deg
% ionos opt : Broadcast
% tropo opt : Saastamoinen
% ephemeris : Broadcast
% navi sys  : GPS GLONASS Galileo BDS
%
% (lat/lon/height=WGS84/ellipsoidal,Q=1:fix,2:float,3:sbas,4:dgps,5:single,6:ppp,ns=# of satellites)
%  GPST                  latitude(deg) longitude(deg)  height(m)   Q  ns   sdn(m)   sde(m)   sdu(m)  sdne(m)  sdeu(m)  sdun(m) age(s)  ratio
2022/05/29 13:51:35.421    8.851946311    7.742149485   394.4335   5  13   4.2345   3.7531   9.4310  -2.8306   3.5208  -4.1030   0.00    0.0
2022/05/29 13:51:36.421    8.851917942    7.742171168   402.7076   5  14   4.0117   3.3544   9.3926  -2.3940   3.7204  -4.2432   0.00    0.0
2022/05/29 13:51:37.421    8.851908196    7.742155877   401.4099   5  13   4.2354   3.7542   9.4320  -2.8323   3.5218  -4.1052   0.00    0.0
2022/05/29 13:51:38.421    8.851909341    7.742178953   411.0143   5  13   4.2358   3.7548   9.4325  -2.8331   3.5222  -4.1063   0.00    0.0
2022/05/29 13:51:39.421    8.851926753    7.742146873   396.2791   5  14   4.0130   3.3555   9.3942  -2.3966   3.7216  -4.2462   0.00    0.0
2022/05/29 13:51:40.421    8.851985207    7.742163520   388.3217   5  14   4.1909   3.7529   9.3416  -2.8185   3.5509  -4.2066   0.00    0.0
2022/05/29 13:51:41.421    8.852057804    7.742130094   389.4517   5  15   3.9844   3.3561   9.3143  -2.4006   3.7186  -4.3180   0.00    0.0
2022/05/29 13:51:42.421    8.851989476    7.742167049   382.5482   5  15   3.9848   3.3564   9.3150  -2.4014   3.7191  -4.3190   0.00    0.0
2022/05/29 13:51:43.421    8.852050985    7.742096051   371.7493   5  15   3.9852   3.3568   9.3158  -2.4022   3.7196  -4.3199   0.00    0.0
2022/05/29 13:51:44.421    8.851973093    7.742168862   390.0903   5  15   3.9856   3.3571   9.3165  -2.4030   3.7200  -4.3208   0.00    0.0
2022/05/29 13:51:45.421    8.851970220    7.742194044   400.4912   5  14   4.0156   3.3575   9.3974  -2.4017   3.7239  -4.2523   0.00    0.0
2022/05/29 13:51:46.421    8.851972329    7.742160334   390.1512   5  15   3.9864   3.3578   9.3180  -2.4047   3.7209  -4.3227   0.00    0.0
2022/05/29 13:51:47.421    8.852008842    7.742236425   424.5076   5  15   3.9868   3.3582   9.3187  -2.4055   3.7214  -4.3236   0.00    0.0
2022/05/29 13:51:48.421    8.852160158    7.742162471   355.3360   5  13   4.2401   3.7602   9.4373  -2.8418   3.5271  -4.1176   0.00    0.0
2022/05/29 13:51:49.421    8.851964993    7.742222760   372.9791   5  14   4.1945   3.7576   9.3481  -2.8259   3.5554  -4.2157   0.00    0.0
2022/05/29 13:51:50.421    8.852033926    7.742368437   432.5606   5  14   4.0149   4.6237  10.7614  -2.0798   5.5630  -4.0280   0.00    0.0
2022/05/29 13:51:51.421    8.851928294    7.742201035   421.2434   5  14   4.0153   4.6234  10.7615  -2.0810   5.5626  -4.0293   0.00    0.0
2022/05/29 13:51:52.421    8.852135573    7.742306629   428.4128   5  13   4.0574   4.6612  10.9858  -1.9977   5.6791  -3.8684   0.00    0.0
2022/05/29 13:51:53.421    8.852092152    7.742245736   419.3366   5  13   4.0577   4.6608  10.9853  -1.9992   5.6784  -3.8699   0.00    0.0
2022/05/29 13:51:54.421    8.852020885    7.742169460   393.7368   5  13   4.3759   3.3622   9.4218  -2.4453   3.7358  -4.3830   0.00    0.0
2022/05/29 13:51:55.421    8.851972438    7.742217921   431.8676   5  15   3.9901   3.3609   9.3247  -2.4120   3.7251  -4.3312   0.00    0.0
2022/05/29 13:51:56.421    8.852065560    7.742190019   412.3185   5  13   3.9951   3.7520  10.4658  -2.4781   4.2169  -4.3814   0.00    0.0
2022/05/29 13:51:57.421    8.852073480    7.742201846   410.3709   5  14   3.9941   3.6465  10.2188  -2.4600   4.4481  -4.4094   0.00    0.0
2022/05/29 13:51:58.421    8.852102999    7.742115918   379.2866   5  14   3.9928   3.4832   9.5794  -2.4350   3.4492  -4.3064   0.00    0.0
2022/05/29 13:51:59.421    8.852108787    7.742235455   406.3427   5  15   3.9917   3.3623   9.3277  -2.4153   3.7270  -4.3349   0.00    0.0
2022/05/29 13:52:00.421    8.851979343    7.742269972   434.4806   5  14   3.9937   3.4840   9.5806  -2.4368   3.4501  -4.3080   0.00    0.0
2022/05/29 13:52:01.421    8.851984556    7.742322880   434.6647   5  14   4.3315   3.3646   9.3556  -2.4524   3.7376  -4.4710   0.00    0.0
2022/05/29 13:52:02.421    8.852021023    7.742299905   403.8597   5  13   4.3335   3.4866   9.6063  -2.4761   3.4620  -4.4415   0.00    0.0
2022/05/29 13:52:03.421    8.851935819    7.742245788   392.1267   5  14   4.3321   3.3653   9.3570  -2.4541   3.7385  -4.4724   0.00    0.0
2022/05/29 13:52:04.421    8.852181344    7.742182365   396.9876   5  14   3.9954   3.4857   9.5829  -2.4405   3.4521  -4.3113   0.00    0.0
2022/05/29 13:52:05.421    8.851937673    7.742225348   439.8978   5  14   4.3327   3.3660   9.3583  -2.4557   3.7394  -4.4738   0.00    0.0
2022/05/29 13:52:06.421    8.851947869    7.742161242   460.1846   5  13   4.3349   3.4883   9.6083  -2.4800   3.4639  -4.4437   0.00    0.0
2022/05/29 13:52:07.421    8.852165151    7.742221793   457.8586   5  15   3.9950   3.3651   9.3336  -2.4219   3.7307  -4.3424   0.00    0.0
2022/05/29 13:52:08.421    8.852128728    7.742204174   412.2068   5  15   3.9955   3.3655   9.3344  -2.4227   3.7312  -4.3434   0.00    0.0
2022/05/29 13:52:09.421    8.852088962    7.742100230   404.2906   5  15   3.9959   3.3659   9.3351  -2.4235   3.7317  -4.3443   0.00    0.0
2022/05/29 13:52:10.421    8.852030631    7.742094498   383.2206   5  14   4.3343   3.3678   9.3617  -2.4600   3.7418  -4.4774   0.00    0.0
2022/05/29 13:52:11.421    8.851999833    7.742136411   392.6397   5  15   3.9967   3.3666   9.3366  -2.4252   3.7326  -4.3462   0.00    0.0
2022/05/29 13:52:12.421    8.852047232    7.742174539   390.3977   5  15   3.9971   3.3669   9.3373  -2.4260   3.7331  -4.3471   0.00    0.0
2022/05/29 13:52:13.421    8.852023551    7.742190748   408.4118   5  15   3.9975   3.3673   9.3381  -2.4268   3.7335  -4.3481   0.00    0.0
2022/05/29 13:52:14.421    8.852030932    7.742173958   386.7793   5  13   4.4473   3.3735   9.4799  -2.4971   3.7101  -4.3140   0.00    0.0
2022/05/29 13:52:15.421    8.851951793    7.742170785   405.4714   5  14   4.3359   3.3696   9.3650  -2.4642   3.7441  -4.4809   0.00    0.0
2022/05/29 13:52:16.421    8.852004156    7.742174446   414.0433   5  13   4.3382   3.4927   9.6132  -2.4896   3.4688  -4.4494   0.00    0.0
2022/05/29 13:52:17.421    8.851981916    7.742152736   390.7761   5  15   3.9992   3.3687   9.3411  -2.4301   3.7354  -4.3518   0.00    0.0
2022/05/29 13:52:18.421    8.852006036    7.742188221   417.1223   5  15   3.9996   3.3690   9.3418  -2.4309   3.7359  -4.3528   0.00    0.0
2022/05/29 13:52:19.421    8.852108196    7.742196148   412.1331   5  14   4.0741   3.3730   9.4711  -2.4563   3.7039  -4.2133   0.00    0.0
2022/05/29 13:52:20.421    8.851964324    7.742210915   411.3154   5  14   4.3375   3.3714   9.3683  -2.4683   3.7464  -4.4845   0.00    0.0
2022/05/29 13:52:21.421    8.851977104    7.742194504   429.2664   5  14   4.0026   3.4930   9.5927  -2.4561   3.4603  -4.3253   0.00    0.0
2022/05/29 13:52:22.421    8.852124666    7.742248320   410.0436   5  15   4.0012   3.3705   9.3448  -2.4342   3.7378  -4.3565   0.00    0.0
2022/05/29 13:52:23.421    8.851999879    7.742191570   390.3586   5  13   4.3406   3.4958   9.6167  -2.4964   3.4721  -4.4533   0.00    0.0
2022/05/29 13:52:24.421    8.851911522    7.742139521   389.3200   5  13   4.4501   3.3771   9.4882  -2.5055   3.7144  -4.3203   0.00    0.0
2022/05/29 13:52:25.421    8.852161514    7.742146170   381.5158   5  13   4.0817   3.5045   9.7654  -2.5013   3.3933  -4.1595   0.00    0.0
2022/05/29 13:52:26.421    8.851967061    7.742187834   404.2780   5  14   4.3394   3.3735   9.3723  -2.4734   3.7492  -4.4887   0.00    0.0
2022/05/29 13:52:27.421    8.851966142    7.742145902   386.6692   5  13   4.4509   3.3782   9.4907  -2.5080   3.7157  -4.3223   0.00    0.0
2022/05/29 13:52:28.421    8.852009254    7.742182537   401.6601   5  14   4.3400   3.3742   9.3737  -2.4751   3.7501  -4.4902   0.00    0.0
2022/05/29 13:52:29.421    8.851943680    7.742115425   380.6260   5  13   4.4514   3.3789   9.4923  -2.5097   3.7166  -4.3235   0.00    0.0
2022/05/29 13:52:30.421    8.851944374    7.742169539   412.2426   5  13   4.3430   3.4988   9.6201  -2.5031   3.4755  -4.4573   0.00    0.0
2022/05/29 13:52:31.421    8.852030985    7.742185759   441.3204   5  13   4.4520   3.3796   9.4940  -2.5113   3.7174  -4.3248   0.00    0.0
2022/05/29 13:52:32.421    8.851965852    7.742145674   423.9027   5  13   4.3437   3.4997   9.6211  -2.5050   3.4765  -4.4584   0.00    0.0
2022/05/29 13:52:33.421    8.852060856    7.742236356   394.9055   5  13   4.3440   3.5002   9.6216  -2.5060   3.4770  -4.4590   0.00    0.0
2022/05/29 13:52:34.421    8.851990131    7.742144735   400.2338   5  14   4.3419   3.3764   9.3777  -2.4801   3.7529  -4.4944   0.00    0.0
2022/05/29 13:52:35.421    8.852055357    7.742172922   384.1454   5  12   4.4607   3.5122   9.7819  -2.5635   3.4067  -4.2563   0.00    0.0
2022/05/29 13:52:36.421    8.852153709    7.742156307   383.0834   5  15   4.0070   3.3755   9.3551  -2.4456   3.7444  -4.3697   0.00    0.0
2022/05/29 13:52:37.421    8.852089415    7.742169624   385.7469   5  14   4.0386   3.3758   9.4252  -2.4462   3.7452  -4.3048   0.00    0.0
2022/05/29 13:52:38.421    8.852231520    7.742139993   384.6899   5  13   4.1212   3.3798   9.5749  -2.4732   3.7102  -4.1427   0.00    0.0
2022/05/29 13:52:39.421    8.852206250    7.742135849   359.3843   5  14   4.0395   3.3765   9.4263  -2.4479   3.7460  -4.3068   0.00    0.0
2022/05/29 13:52:40.421    8.851984676    7.742100941   374.4704   5  14   4.0399   3.3769   9.4268  -2.4488   3.7464  -4.3078   0.00    0.0
2022/05/29 13:52:41.421    8.851922624    7.742170927   409.3549   5  12   4.5185   3.3834   9.5831  -2.5236   3.7173  -4.2214   0.00    0.0
2022/05/29 13:52:42.421    8.852031818    7.742149342   410.2201   5  14   4.0408   3.3776   9.4279  -2.4505   3.7473  -4.3098   0.00    0.0
2022/05/29 13:52:43.421    8.851947244    7.742112875   398.8465   5  12   4.5192   3.3841   9.5843  -2.5254   3.7181  -4.2229   0.00    0.0
2022/05/29 13:52:44.421    8.851843886    7.742173003   415.3849   5  14   4.0417   3.3783   9.4289  -2.4522   3.7481  -4.3118   0.00    0.0
2022/05/29 13:52:45.421    8.851919664    7.742196963   402.1476   5  13   4.3942   3.3804   9.4462  -2.4907   3.7566  -4.4237   0.00    0.0
2022/05/29 13:52:46.421    8.852111579    7.742143760   386.3288   5  14   4.0841   3.3827   9.4952  -2.4782   3.7160  -4.2381   0.00    0.0
2022/05/29 13:52:47.421    8.852001912    7.742216023   420.7638   5  14   4.3461   3.3811   9.3863  -2.4910   3.7590  -4.5037   0.00    0.0
2022/05/29 13:52:48.421    8.851957866    7.742220406   416.8981   5  12   4.5207   3.3860   9.5875  -2.5299   3.7199  -4.2267   0.00    0.0
2022/05/29 13:52:49.421    8.852179174    7.742145398   420.6863   5  15   4.0125   3.3802   9.3647  -2.4562   3.7505  -4.3819   0.00    0.0
2022/05/29 13:52:50.421    8.852146741    7.742144507   377.3610   5  14   4.0444   3.3805   9.4322  -2.4573   3.7506  -4.3179   0.00    0.0
2022/05/29 13:52:51.421    8.852204898    7.742181448   362.0694   5  14   4.0449   3.3809   9.4327  -2.4582   3.7510  -4.3189   0.00    0.0
2022/05/29 13:52:52.421    8.852063734    7.742179483   362.1189   5  14   4.3477   3.3830   9.3897  -2.4952   3.7614  -4.5072   0.00    0.0
2022/05/29 13:52:53.421    8.851995928    7.742236303   394.1640   5  13   4.3971   3.3834   9.4501  -2.4978   3.7599  -4.4302   0.00    0.0
2022/05/29 13:52:54.421    8.852028163    7.742206652   390.3017   5  13   4.3974   3.3837   9.4506  -2.4986   3.7603  -4.4310   0.00    0.0
2022/05/29 13:52:55.421    8.851999165    7.742211532   385.7373   5  13   4.3978   3.3841   9.4511  -2.4995   3.7608  -4.4318   0.00    0.0
2022/05/29 13:52:56.421    8.852106833    7.742179620   402.2024   5  15   4.0154   3.3827   9.3699  -2.4619   3.7539  -4.3884   0.00    0.0
2022/05/29 13:52:57.421    8.852003025    7.742113286   380.1504   5  13   4.3985   3.3848   9.4521  -2.5013   3.7616  -4.4334   0.00    0.0
2022/05/29 13:52:58.421    8.851987701    7.742171618   395.6639   5  12   4.5240   3.3897   9.5939  -2.5388   3.7237  -4.2342   0.00    0.0
2022/05/29 13:52:59.421    8.851986011    7.742170888   387.4399   5  13   4.3993   3.3856   9.4530  -2.5031   3.7624  -4.4350   0.00    0.0
2022/05/29 13:53:00.421    8.852108940    7.742173404   391.7970   5  14   4.0489   3.3842   9.4376  -2.4659   3.7548  -4.3280   0.00    0.0
2022/05/29 13:53:01.421    8.851958402    7.742201592   418.6494   5  13   4.4000   3.3863   9.4540  -2.5048   3.7633  -4.4366   0.00    0.0
2022/05/29 13:53:02.421    8.852052320    7.742168282   409.3411   5  14   4.0498   3.3849   9.4386  -2.4676   3.7557  -4.3300   0.00    0.0
2022/05/29 13:53:03.421    8.851966362    7.742164224   400.0213   5  14   4.0503   3.3853   9.4392  -2.4684   3.7561  -4.3310   0.00    0.0
2022/05/29 13:53:04.421    8.851944924    7.742235153   420.5186   5  13   4.4011   3.3874   9.4555  -2.5075   3.7645  -4.4390   0.00    0.0
2022/05/29 13:53:05.421    8.852129357    7.742112272   384.5599   5  14   4.0512   3.3860   9.4403  -2.4702   3.7570  -4.3331   0.00    0.0
2022/05/29 13:53:06.421    8.852025432    7.742197504   396.5288   5  13   4.4018   3.3882   9.4564  -2.5093   3.7654  -4.4406   0.00    0.0
2022/05/29 13:53:07.421    8.852034642    7.742163568   393.2262   5  13   4.4022   3.3885   9.4569  -2.5102   3.7658  -4.4414   0.00    0.0
2022/05/29 13:53:08.421    8.851986778    7.742156337   413.0177   5  14   4.0526   3.3871   9.4419  -2.4727   3.7582  -4.3361   0.00    0.0
2022/05/29 13:53:09.421    8.851993076    7.742195636   418.5771   5  13   4.4029   3.3893   9.4579  -2.5119   3.7666  -4.4430   0.00    0.0
2022/05/29 13:53:10.421    8.851980466    7.742157484   406.2457   5  14   4.0535   3.3878   9.4430  -2.4744   3.7591  -4.3381   0.00    0.0
2022/05/29 13:53:11.421    8.852021187    7.742149563   407.3111   5  15   4.0217   3.3882   9.3810  -2.4742   3.7610  -4.4025   0.00    0.0
2022/05/29 13:53:12.421    8.851986760    7.742181144   436.4999   5  14   4.3541   3.3903   9.4030  -2.5119   3.7708  -4.5215   0.00    0.0
2022/05/29 13:53:13.421    8.852005969    7.742168095   406.1902   5  14   4.0548   3.3889   9.4446  -2.4770   3.7604  -4.3411   0.00    0.0
2022/05/29 13:53:14.421    8.851958716    7.742155568   393.6526   5  14   4.0553   3.3893   9.4452  -2.4778   3.7608  -4.3421   0.00    0.0
2022/05/29 13:53:15.421    8.852022411    7.742140823   402.0937   5  14   4.0557   3.3897   9.4457  -2.4787   3.7612  -4.3432   0.00    0.0
2022/05/29 13:53:16.421    8.852056277    7.742160222   386.2326   5  15   4.0238   3.3900   9.3847  -2.4782   3.7634  -4.4072   0.00    0.0
2022/05/29 13:53:17.421    8.852017045    7.742179636   394.7445   5  15   4.0242   3.3904   9.3854  -2.4791   3.7639  -4.4081   0.00    0.0
2022/05/29 13:53:18.421    8.851930240    7.742195752   389.9923   5  15   4.0246   3.3908   9.3861  -2.4799   3.7644  -4.4090   0.00    0.0
2022/05/29 13:53:19.421    8.851922146    7.742246012   416.9977   5  15   4.0250   3.3911   9.3869  -2.4807   3.7649  -4.4099   0.00    0.0
2022/05/29 13:53:20.421    8.851966373    7.742204150   384.2701   5  15   4.0255   3.3915   9.3876  -2.4815   3.7654  -4.4109   0.00    0.0
2022/05/29 13:53:21.421    8.851937094    7.742154360   389.4135   5  15   4.0259   3.3919   9.3884  -2.4823   3.7658  -4.4118   0.00    0.0
2022/05/29 13:53:22.421    8.851958654    7.742150378   401.3445   5  15   4.0263   3.3922   9.3891  -2.4831   3.7663  -4.4127   0.00    0.0
2022/05/29 13:53:23.421    8.851907884    7.742151962   403.1883   5  15   4.0267   3.3926   9.3898  -2.4839   3.7668  -4.4137   0.00    0.0
2022/05/29 13:53:24.421    8.852007623    7.742210315   423.8138   5  15   4.0272   3.3930   9.3905  -2.4848   3.7673  -4.4146   0.00    0.0
2022/05/29 13:53:25.421    8.852031628    7.742228941   406.7221   5  15   4.0276   3.3933   9.3913  -2.4856   3.7677  -4.4156   0.00    0.0
2022/05/29 13:53:26.421    8.852092019    7.742188013   390.7300   5  15   4.0280   3.3937   9.3920  -2.4864   3.7682  -4.4165   0.00    0.0
2022/05/29 13:53:27.421    8.852100875    7.742164759   393.1118   5  15   4.0284   3.3941   9.3928  -2.4872   3.7687  -4.4175   0.00    0.0
2022/05/29 13:53:28.421    8.852131694    7.742237156   406.7386   5  15   4.0289   3.3945   9.3935  -2.4880   3.7692  -4.4184   0.00    0.0
2022/05/29 13:53:29.421    8.851987807    7.742242518   408.4333   5  15   4.0293   3.3948   9.3942  -2.4888   3.7697  -4.4193   0.00    0.0
2022/05/29 13:53:30.421    8.852063814    7.742201277   394.3289   5  15   4.0297   3.3952   9.3950  -2.4896   3.7702  -4.4203   0.00    0.0
2022/05/29 13:53:31.421    8.851972106    7.742231676   426.2430   5  15   4.0301   3.3956   9.3957  -2.4904   3.7706  -4.4212   0.00    0.0
2022/05/29 13:53:32.421    8.851963211    7.742239748   442.5128   5  15   4.0305   3.3959   9.3964  -2.4913   3.7711  -4.4221   0.00    0.0
2022/05/29 13:53:33.421    8.851935802    7.742129867   402.9314   5  15   4.0310   3.3963   9.3972  -2.4921   3.7716  -4.4230   0.00    0.0
2022/05/29 13:53:34.421    8.851938365    7.742182318   418.4463   5  15   4.0314   3.3967   9.3979  -2.4929   3.7721  -4.4240   0.00    0.0
2022/05/29 13:53:35.421    8.851898841    7.742215343   411.5857   5  15   4.0318   3.3971   9.3986  -2.4937   3.7726  -4.4249   0.00    0.0
2022/05/29 13:53:36.421    8.851971726    7.742111304   385.3531   5  15   4.0322   3.3974   9.3994  -2.4945   3.7731  -4.4259   0.00    0.0
2022/05/29 13:53:37.421    8.851922591    7.742193610   406.8490   5  15   4.0327   3.3978   9.4001  -2.4953   3.7735  -4.4268   0.00    0.0
2022/05/29 13:53:38.421    8.852021186    7.742125526   387.5072   5  15   4.0331   3.3982   9.4008  -2.4962   3.7740  -4.4277   0.00    0.0
2022/05/29 13:53:39.421    8.852020016    7.742284572   412.4094   5  15   4.0335   3.3985   9.4016  -2.4970   3.7745  -4.4287   0.00    0.0
2022/05/29 13:53:40.421    8.851863629    7.742320056   435.6411   5  15   4.0339   3.3989   9.4023  -2.4978   3.7750  -4.4296   0.00    0.0
2022/05/29 13:53:41.421    8.851936589    7.742222859   415.4046   5  15   4.0344   3.3993   9.4030  -2.4986   3.7755  -4.4305   0.00    0.0
2022/05/29 13:53:42.421    8.852123406    7.742137071   382.4343   5  15   4.0348   3.3997   9.4038  -2.4994   3.7760  -4.4315   0.00    0.0
2022/05/29 13:53:43.421    8.852106158    7.742184373   382.2816   5  15   4.0352   3.4001   9.4045  -2.5002   3.7764  -4.4324   0.00    0.0
2022/05/29 13:53:44.421    8.851970355    7.742265267   420.9202   5  15   4.0356   3.4004   9.4052  -2.5010   3.7769  -4.4333   0.00    0.0
2022/05/29 13:53:45.421    8.852040113    7.742171478   421.3792   5  15   4.0361   3.4008   9.4059  -2.5018   3.7774  -4.4343   0.00    0.0
2022/05/29 13:53:46.421    8.852120818    7.742184568   427.8736   5  15   4.0365   3.4012   9.4067  -2.5027   3.7779  -4.4352   0.00    0.0
2022/05/29 13:53:47.421    8.852032385    7.742185565   423.1654   5  15   4.0369   3.4016   9.4074  -2.5035   3.7784  -4.4361   0.00    0.0
2022/05/29 13:53:48.421    8.852031406    7.742101951   409.1253   5  15   4.0373   3.4019   9.4081  -2.5043   3.7789  -4.4371   0.00    0.0
2022/05/29 13:53:49.421    8.851964342    7.742258167   438.0127   5  14   4.3661   3.4042   9.4276  -2.5427   3.7883  -4.5479   0.00    0.0
2022/05/29 13:53:50.421    8.852061873    7.742204776   437.8869   5  15   4.0382   3.4027   9.4096  -2.5059   3.7798  -4.4389   0.00    0.0
2022/05/29 13:53:51.421    8.852045709    7.742190064   408.3309   5  14   4.3668   3.4050   9.4290  -2.5443   3.7893  -4.5493   0.00    0.0
2022/05/29 13:53:52.421    8.852083852    7.742198575   407.9301   5  15   4.0391   3.4034   9.4111  -2.5075   3.7808  -4.4408   0.00    0.0
2022/05/29 13:53:53.421    8.851965205    7.742201216   413.7827   5  14   4.3674   3.4057   9.4303  -2.5460   3.7902  -4.5507   0.00    0.0
2022/05/29 13:53:54.421    8.851919970    7.742198292   409.8068   5  14   4.3678   3.4061   9.4310  -2.5468   3.7907  -4.5514   0.00    0.0
2022/05/29 13:53:55.421    8.852031631    7.742177949   419.5842   5  14   4.3681   3.4065   9.4316  -2.5476   3.7912  -4.5522   0.00    0.0
2022/05/29 13:53:56.421    8.851979662    7.742173019   421.0052   5  14   4.3684   3.4069   9.4323  -2.5485   3.7917  -4.5529   0.00    0.0
2022/05/29 13:53:57.421    8.852192647    7.742186059   398.3792   5  15   4.0412   3.4053   9.4147  -2.5116   3.7832  -4.4455   0.00    0.0
2022/05/29 13:53:58.421    8.852132448    7.742118725   408.7007   5  15   4.0416   3.4057   9.4155  -2.5124   3.7837  -4.4464   0.00    0.0
2022/05/29 13:53:59.421    8.852269447    7.742084553   382.3347   5  15   4.0421   3.4061   9.4162  -2.5132   3.7842  -4.4474   0.00    0.0
2022/05/29 13:54:00.421    8.852236596    7.742063122   385.9557   5  15   4.0425   3.4065   9.4169  -2.5140   3.7847  -4.4483   0.00    0.0
2022/05/29 13:54:01.421    8.852008672    7.742164370   372.1729   5  14   4.3701   3.4088   9.4356  -2.5526   3.7941  -4.5565   0.00    0.0
2022/05/29 13:54:02.421    8.852066905    7.742189644   379.7952   5  14   4.3704   3.4092   9.4363  -2.5535   3.7945  -4.5572   0.00    0.0
2022/05/29 13:54:03.421    8.852024532    7.742175150   394.6020   5  14   4.3707   3.4096   9.4370  -2.5543   3.7950  -4.5579   0.00    0.0
2022/05/29 13:54:04.421    8.852095423    7.742185180   362.4952   5  13   4.4233   3.4102   9.4852  -2.5606   3.7903  -4.4876   0.00    0.0
2022/05/29 13:54:05.421    8.852013482    7.742162440   387.8728   5  14   4.3714   3.4103   9.4383  -2.5559   3.7960  -4.5593   0.00    0.0
2022/05/29 13:54:06.421    8.852004422    7.742171025   395.1394   5  13   4.4240   3.4110   9.4861  -2.5623   3.7912  -4.4892   0.00    0.0
2022/05/29 13:54:07.421    8.851958997    7.742240669   427.0242   5  13   4.4244   3.4114   9.4866  -2.5632   3.7916  -4.4900   0.00    0.0
2022/05/29 13:54:08.421    8.851898157    7.742187597   403.7656   5  14   4.3723   3.4115   9.4403  -2.5584   3.7974  -4.5614   0.00    0.0
2022/05/29 13:54:09.421    8.852017904    7.742257224   409.2830   5  13   4.4251   3.4121   9.4876  -2.5650   3.7925  -4.4916   0.00    0.0
2022/05/29 13:54:10.421    8.851994809    7.742225066   405.9239   5  14   4.3730   3.4123   9.4416  -2.5601   3.7983  -4.5629   0.00    0.0
2022/05/29 13:54:11.421    8.851924561    7.742247936   420.3939   5  14   4.3733   3.4126   9.4423  -2.5609   3.7988  -4.5636   0.00    0.0
2022/05/29 13:54:12.421    8.852019541    7.742242888   409.1146   5  14   4.3737   3.4130   9.4429  -2.5617   3.7993  -4.5643   0.00    0.0
2022/05/29 13:54:13.421    8.852078603    7.742106158   367.2889   5  14   4.3740   3.4134   9.4436  -2.5626   3.7998  -4.5651   0.00    0.0
2022/05/29 13:54:14.421    8.852037538    7.742082410   373.9797   5  14   4.3743   3.4138   9.4443  -2.5634   3.8003  -4.5658   0.00    0.0
2022/05/29 13:54:15.421    8.851953050    7.742182307   429.0515   5  14   4.3746   3.4142   9.4449  -2.5642   3.8007  -4.5665   0.00    0.0
2022/05/29 13:54:16.421    8.851998534    7.742148815   423.1289   5  14   4.3750   3.4146   9.4456  -2.5651   3.8012  -4.5672   0.00    0.0
2022/05/29 13:54:17.421    8.851966238    7.742182680   434.4569   5  14   4.3753   3.4150   9.4463  -2.5659   3.8017  -4.5679   0.00    0.0
2022/05/29 13:54:18.421    8.851942170    7.742128407   417.8174   5  14   4.3756   3.4154   9.4469  -2.5667   3.8022  -4.5686   0.00    0.0
2022/05/29 13:54:19.421    8.851909682    7.742159892   442.2525   5  14   4.3759   3.4157   9.4476  -2.5675   3.8027  -4.5693   0.00    0.0
2022/05/29 13:54:20.421    8.851795676    7.742187432   463.9480   5  14   4.3763   3.4161   9.4482  -2.5684   3.8031  -4.5700   0.00    0.0
2022/05/29 13:54:21.421    8.851924968    7.742203099   441.1103   5  14   4.3766   3.4165   9.4489  -2.5692   3.8036  -4.5707   0.00    0.0
2022/05/29 13:54:22.421    8.851842406    7.742143817   421.4626   5  14   4.3769   3.4169   9.4496  -2.5700   3.8041  -4.5714   0.00    0.0
2022/05/29 13:54:23.421    8.851892689    7.742187436   433.9888   5  14   4.3773   3.4173   9.4503  -2.5709   3.8046  -4.5722   0.00    0.0
2022/05/29 13:54:24.421    8.851981867    7.742221393   420.0744   5  14   4.3776   3.4177   9.4509  -2.5717   3.8051  -4.5729   0.00    0.0
2022/05/29 13:54:25.421    8.851965474    7.742160441   430.3332   5  14   4.3779   3.4181   9.4516  -2.5725   3.8056  -4.5736   0.00    0.0
2022/05/29 13:54:26.421    8.852077830    7.742116013   364.0986   5  14   4.3783   3.4185   9.4523  -2.5734   3.8061  -4.5744   0.00    0.0
2022/05/29 13:54:27.421    8.852099116    7.742074357   348.3672   5  14   4.3786   3.4189   9.4530  -2.5742   3.8065  -4.5751   0.00    0.0
2022/05/29 13:54:28.421    8.852439550    7.742091815   350.3122   5  15   4.0545   3.4172   9.4373  -2.5368   3.7984  -4.4745   0.00    0.0
2022/05/29 13:54:29.421    8.852113696    7.742142385   371.9714   5  14   4.3793   3.4196   9.4543  -2.5758   3.8075  -4.5765   0.00    0.0
2022/05/29 13:54:30.421    8.852084165    7.742130265   368.2399   5  14   4.3796   3.4200   9.4549  -2.5767   3.8080  -4.5772   0.00    0.0
2022/05/29 13:54:31.421    8.851993512    7.742251247   430.6515   5  14   4.3799   3.4204   9.4556  -2.5775   3.8084  -4.5779   0.00    0.0
2022/05/29 13:54:32.421    8.851984749    7.742161855   441.2050   5  14   4.3802   3.4208   9.4562  -2.5783   3.8089  -4.5786   0.00    0.0
2022/05/29 13:54:33.421    8.851929520    7.742275412   448.9949   5  14   4.3806   3.4212   9.4569  -2.5791   3.8094  -4.5793   0.00    0.0
2022/05/29 13:54:34.421    8.851890124    7.742239129   456.2323   5  13   4.4345   3.4220   9.5002  -2.5870   3.8036  -4.5120   0.00    0.0
2022/05/29 13:54:35.421    8.851931028    7.742227251   417.7638   5  14   4.3812   3.4220   9.4582  -2.5808   3.8104  -4.5808   0.00    0.0
2022/05/29 13:54:36.421    8.851935566    7.742201137   438.2082   5  14   4.3816   3.4223   9.4589  -2.5816   3.8108  -4.5815   0.00    0.0
2022/05/29 13:54:37.421    8.851912079    7.742161073   461.5947   5  14   4.3819   3.4227   9.4596  -2.5824   3.8113  -4.5822   0.00    0.0
2022/05/29 13:54:38.421    8.851929956    7.742197948   447.0585   5  13   4.4361   3.4236   9.5023  -2.5905   3.8054  -4.5153   0.00    0.0
2022/05/29 13:54:39.421    8.851999041    7.742226472   434.7869   5  13   4.4365   3.4240   9.5028  -2.5914   3.8058  -4.5161   0.00    0.0
2022/05/29 13:54:40.421    8.852065723    7.742200356   427.4689   5  14   4.3829   3.4239   9.4616  -2.5849   3.8128  -4.5844   0.00    0.0
2022/05/29 13:54:41.421    8.851959889    7.742232289   444.7359   5  14   4.3832   3.4243   9.4622  -2.5857   3.8132  -4.5851   0.00    0.0
2022/05/29 13:54:42.421    8.851887836    7.742180114   419.9572   5  14   4.3835   3.4247   9.4629  -2.5866   3.8137  -4.5858   0.00    0.0
2022/05/29 13:54:43.421    8.851869534    7.742262480   487.9349   5  14   4.3839   3.4251   9.4635  -2.5874   3.8142  -4.5865   0.00    0.0
2022/05/29 13:54:44.421    8.851954470    7.742162978   451.9068   5  14   4.3842   3.4255   9.4642  -2.5882   3.8147  -4.5872   0.00    0.0
2022/05/29 13:54:45.421    8.851838345    7.742220048   487.7503   5  14   4.3845   3.4259   9.4649  -2.5890   3.8152  -4.5879   0.00    0.0
2022/05/29 13:54:46.421    8.851902067    7.742157067   466.9920   5  14   4.3849   3.4263   9.4655  -2.5899   3.8157  -4.5886   0.00    0.0
2022/05/29 13:54:47.421    8.851872426    7.742123666   455.7681   5  14   4.3852   3.4267   9.4662  -2.5907   3.8162  -4.5893   0.00    0.0
2022/05/29 13:54:48.421    8.851882481    7.742139646   466.6334   5  14   4.3855   3.4271   9.4669  -2.5915   3.8166  -4.5900   0.00    0.0
2022/05/29 13:54:49.421    8.851948064    7.742185497   425.7443   5  14   4.3859   3.4275   9.4675  -2.5923   3.8171  -4.5908   0.00    0.0
2022/05/29 13:54:50.421    8.852046641    7.742228530   420.8140   5  14   4.3862   3.4278   9.4682  -2.5932   3.8176  -4.5915   0.00    0.0
2022/05/29 13:54:51.421    8.852115597    7.742238841   401.3751   5  14   4.3865   3.4282   9.4689  -2.5940   3.8181  -4.5922   0.00    0.0
2022/05/29 13:54:52.421    8.852073292    7.742184246   410.7965   5  13   5.1820   3.4511  12.4605  -2.3769   3.3765  -6.5906   0.00    0.0
2022/05/29 13:54:53.421    8.852116004    7.742201922   424.0927   5  14   4.1328   3.4308   9.6078  -2.5806   3.7740  -4.3545   0.00    0.0
2022/05/29 13:54:54.421    8.852134263    7.742152726   393.0401   5  15   4.0658   3.4273   9.4561  -2.5578   3.8112  -4.4986   0.00    0.0
2022/05/29 13:54:55.421    8.852043217    7.742176847   384.5921   5  15   4.0662   3.4277   9.4569  -2.5586   3.8117  -4.4995   0.00    0.0
2022/05/29 13:54:56.421    8.852005139    7.742119433   404.6006   5  14   4.1340   3.4320   9.6105  -2.5830   3.7754  -4.3572   0.00    0.0
2022/05/29 13:54:57.421    8.852137499    7.742154580   371.5584   5  14   4.3013   3.4511  11.4624  -2.4500   3.4617  -5.4156   0.00    0.0
2022/05/29 13:54:58.421    8.852035961    7.742199990   403.3533   5  15   4.0675   3.4289   9.4590  -2.5610   3.8132  -4.5023   0.00    0.0
2022/05/29 13:54:59.421    8.851988101    7.742183157   417.8778   5  15   4.0679   3.4293   9.4597  -2.5618   3.8137  -4.5032   0.00    0.0
2022/05/29 13:55:00.421    8.852125463    7.742117551   381.4589   5  15   4.0684   3.4297   9.4605  -2.5626   3.8142  -4.5042   0.00    0.0
2022/05/29 13:55:01.421    8.852038176    7.742160094   401.3504   5  13   5.1865   3.4545  12.4617  -2.3853   3.3830  -6.5962   0.00    0.0
2022/05/29 13:55:02.421    8.852016167    7.742120513   394.5384   5  14   4.3046   3.4530  11.4669  -2.4540   3.4644  -5.4220   0.00    0.0
2022/05/29 13:55:03.421    8.851995751    7.742204351   423.9168   5  14   4.3052   3.4534  11.4678  -2.4548   3.4649  -5.4232   0.00    0.0
2022/05/29 13:55:04.421    8.851983237    7.742194541   406.8232   5  14   4.3059   3.4538  11.4687  -2.4556   3.4655  -5.4245   0.00    0.0
2022/05/29 13:55:05.421    8.851951646    7.742159071   419.0768   5  13   4.3394   3.4616  11.7916  -2.4808   3.3754  -5.2897   0.00    0.0
2022/05/29 13:55:06.421    8.851906017    7.742148497   414.1937   5  14   4.3072   3.4546  11.4706  -2.4572   3.4666  -5.4271   0.00    0.0
2022/05/29 13:55:07.421    8.851964040    7.742170396   406.3382   5  13   4.3406   3.4624  11.7940  -2.4824   3.3764  -5.2924   0.00    0.0
2022/05/29 13:55:08.421    8.852093546    7.742153756   379.0568   5  13   4.3412   3.4628  11.7952  -2.4832   3.3769  -5.2937   0.00    0.0
2022/05/29 13:55:09.421    8.852047869    7.742175828   392.3384   5  14   4.3091   3.4557  11.4733  -2.4596   3.4682  -5.4309   0.00    0.0
2022/05/29 13:55:10.421    8.852107163    7.742212018   385.8339   5  14   4.3098   3.4561  11.4742  -2.4603   3.4688  -5.4322   0.00    0.0
2022/05/29 13:55:11.421    8.852296447    7.742173753   351.0652   5  13   4.3430   3.4640  11.7987  -2.4855   3.3784  -5.2978   0.00    0.0
2022/05/29 13:55:12.421    8.852203694    7.742159744   342.1987   5  14   4.3111   3.4569  11.4760  -2.4620   3.4699  -5.4348   0.00    0.0
2022/05/29 13:55:13.421    8.852200962    7.742217901   366.4447   5  14   4.3118   3.4573  11.4769  -2.4627   3.4704  -5.4361   0.00    0.0
2022/05/29 13:55:14.421    8.852216073    7.742229386   359.2272   5  14   4.3124   3.4577  11.4778  -2.4635   3.4710  -5.4374   0.00    0.0
2022/05/29 13:55:15.421    8.852165618    7.742194756   365.5420   5  14   4.3131   3.4581  11.4787  -2.4643   3.4715  -5.4386   0.00    0.0
2022/05/29 13:55:16.421    8.852052401    7.742148113   379.1328   5  14   4.3137   3.4585  11.4796  -2.4651   3.4721  -5.4399   0.00    0.0
2022/05/29 13:55:17.421    8.852012756    7.742229786   413.3289   5  14   4.3143   3.4589  11.4805  -2.4659   3.4726  -5.4411   0.00    0.0
2022/05/29 13:55:18.421    8.851946363    7.742190578   415.3691   5  14   4.3150   3.4592  11.4814  -2.4667   3.4731  -5.4424   0.00    0.0
2022/05/29 13:55:19.421    8.851863283    7.742244210   429.8906   5  14   4.3156   3.4596  11.4822  -2.4675   3.4737  -5.4437   0.00    0.0
2022/05/29 13:55:20.421    8.851952249    7.742195027   409.5466   5  13   4.3484   3.4675  11.8094  -2.4925   3.3828  -5.3098   0.00    0.0
2022/05/29 13:55:21.421    8.851890362    7.742176459   408.0791   5  14   4.3169   3.4604  11.4840  -2.4691   3.4748  -5.4462   0.00    0.0
2022/05/29 13:55:22.421    8.851895894    7.742127649   391.5965   5  14   4.3176   3.4608  11.4850  -2.4699   3.4754  -5.4475   0.00    0.0
2022/05/29 13:55:23.421    8.851957154    7.742068138   348.6812   5  13   4.3502   3.4687  11.8130  -2.4948   3.3843  -5.3138   0.00    0.0
2022/05/29 13:55:24.421    8.851893315    7.742159868   388.9092   5  14   4.3189   3.4616  11.4867  -2.4715   3.4765  -5.4501   0.00    0.0
2022/05/29 13:55:25.421    8.852067694    7.742111883   335.5422   5  14   4.3196   3.4620  11.4877  -2.4723   3.4770  -5.4514   0.00    0.0
2022/05/29 13:55:26.421    8.852099727    7.742177834   380.5856   5  13   4.3520   3.4699  11.8165  -2.4971   3.3857  -5.3178   0.00    0.0
2022/05/29 13:55:27.421    8.852075967    7.742189002   388.6478   5  13   4.3527   3.4703  11.8176  -2.4979   3.3862  -5.3192   0.00    0.0
2022/05/29 13:55:28.421    8.852072001    7.742221508   367.1785   5  14   4.3215   3.4632  11.4903  -2.4746   3.4786  -5.4552   0.00    0.0
2022/05/29 13:55:29.421    8.852018884    7.742168111   375.9693   5  13   4.3539   3.4711  11.8200  -2.4995   3.3872  -5.3218   0.00    0.0
2022/05/29 13:55:30.421    8.852095170    7.742178152   375.1411   5  13   4.3545   3.4715  11.8212  -2.5003   3.3877  -5.3232   0.00    0.0
2022/05/29 13:55:31.421    8.852008302    7.742242031   398.7279   5  14   4.3235   3.4644  11.4930  -2.4770   3.4803  -5.4590   0.00    0.0
2022/05/29 13:55:32.421    8.852130572    7.742156267   363.9615   5  13   4.3557   3.4723  11.8235  -2.5018   3.3887  -5.3259   0.00    0.0
2022/05/29 13:55:33.421    8.852200668    7.742191210   358.8918   5  13   4.3563   3.4727  11.8247  -2.5026   3.3892  -5.3272   0.00    0.0
2022/05/29 13:55:34.421    8.852136451    7.742136484   349.4963   5  13   4.3569   3.4731  11.8259  -2.5034   3.3897  -5.3285   0.00    0.0
2022/05/29 13:55:35.421    8.852115614    7.742255806   378.8120   5  14   4.3261   3.4659  11.4965  -2.4802   3.4825  -5.4641   0.00    0.0
2022/05/29 13:55:36.421    8.851978666    7.742135643   376.6137   5  12   4.3891   3.4757  11.9266  -2.5168   3.3649  -5.2559   0.00    0.0
2022/05/29 13:55:37.421    8.852224547    7.742173841   344.3726   5  12   4.3898   3.4762  11.9275  -2.5176   3.3653  -5.2574   0.00    0.0
2022/05/29 13:55:38.421    8.852069170    7.742233333   414.6661   5  13   4.3593   3.4747  11.8306  -2.5065   3.3917  -5.3338   0.00    0.0
2022/05/29 13:55:39.421    8.852135493    7.742226975   388.3073   5  14   4.3288   3.4675  11.5000  -2.4834   3.4847  -5.4692   0.00    0.0
2022/05/29 13:55:40.421    8.852115057    7.742170812   388.0672   5  13   4.3605   3.4755  11.8329  -2.5080   3.3927  -5.3365   0.00    0.0
2022/05/29 13:55:41.421    8.852127047    7.742190118   375.9161   5  14   4.3301   3.4683  11.5018  -2.4850   3.4858  -5.4717   0.00    0.0
2022/05/29 13:55:42.421    8.852130517    7.742207788   393.3110   5  13   4.3617   3.4763  11.8352  -2.5096   3.3937  -5.3392   0.00    0.0
2022/05/29 13:55:43.421    8.852085697    7.742194378   355.3562   5  13   4.3569   3.4704  11.5692  -2.4954   3.4704  -5.4211   0.00    0.0
2022/05/29 13:55:44.421    8.852052958    7.742222467   387.4315   5  13   4.3576   3.4708  11.5697  -2.4962   3.4709  -5.4224   0.00    0.0
2022/05/29 13:55:45.421    8.852065708    7.742221520   379.5974   5  13   4.3583   3.4712  11.5703  -2.4971   3.4715  -5.4237   0.00    0.0
2022/05/29 13:55:46.421    8.852076032    7.742159133   389.2136   5  12   4.3957   3.4799  11.9348  -2.5249   3.3696  -5.2702   0.00    0.0
2022/05/29 13:55:47.421    8.852050052    7.742315678   420.8558   5  14   4.3340   3.4707  11.5071  -2.4897   3.4891  -5.4793   0.00    0.0
2022/05/29 13:55:48.421    8.852124891    7.742214458   381.9999   5  13   4.3654   3.4787  11.8423  -2.5142   3.3967  -5.3472   0.00    0.0
2022/05/29 13:55:49.421    8.852009361    7.742229691   385.9033   5  15   4.0899   3.4492   9.4956  -2.6022   3.8386  -4.5496   0.00    0.0
2022/05/29 13:55:50.421    8.851972200    7.742183398   405.7407   5  14   4.3360   3.4719  11.5097  -2.4921   3.4908  -5.4831   0.00    0.0
2022/05/29 13:55:51.421    8.851981789    7.742156865   389.4544   5  14   4.3366   3.4723  11.5106  -2.4929   3.4914  -5.4843   0.00    0.0
2022/05/29 13:55:52.421    8.851825155    7.742223024   440.7437   5  13   4.3678   3.4803  11.8469  -2.5173   3.3987  -5.3524   0.00    0.0
2022/05/29 13:55:53.421    8.851931928    7.742233346   408.0945   5  13   4.3640   3.4744  11.5750  -2.5037   3.4758  -5.4344   0.00    0.0
2022/05/29 13:55:54.421    8.851951491    7.742199512   409.1428   5  12   4.4009   3.4832  11.9413  -2.5315   3.3734  -5.2815   0.00    0.0
2022/05/29 13:55:55.421    8.852042524    7.742194248   381.5099   5  13   4.3696   3.4815  11.8504  -2.5197   3.4002  -5.3565   0.00    0.0
2022/05/29 13:55:56.421    8.852054918    7.742218352   377.5143   5  14   4.3399   3.4743  11.5150  -2.4969   3.4942  -5.4907   0.00    0.0
2022/05/29 13:55:57.421    8.851997341    7.742200643   412.4537   5  13   4.3709   3.4823  11.8527  -2.5212   3.4012  -5.3591   0.00    0.0
2022/05/29 13:55:58.421    8.851946328    7.742274254   458.4013   5  13   4.3715   3.4827  11.8538  -2.5220   3.4016  -5.3604   0.00    0.0
2022/05/29 13:55:59.421    8.852038425    7.742224392   404.0239   5  14   4.3419   3.4755  11.5176  -2.4993   3.4958  -5.4944   0.00    0.0
2022/05/29 13:56:00.421    8.851885577    7.742140336   414.2899   5  13   4.3727   3.4835  11.8562  -2.5235   3.4027  -5.3631   0.00    0.0
2022/05/29 13:56:01.421    8.851790577    7.742130210   440.0696   5  13   4.3733   3.4839  11.8573  -2.5243   3.4032  -5.3644   0.00    0.0
2022/05/29 13:56:02.421    8.851956875    7.742147192   411.6062   5  14   4.1601   3.4585   9.6685  -2.6358   3.8065  -4.4177   0.00    0.0
2022/05/29 13:56:03.421    8.851992313    7.742208966   399.3276   5  13   4.5120   3.4623   9.6720  -2.6862   3.8115  -4.4635   0.00    0.0
2022/05/29 13:56:04.421    8.851951933    7.742226419   413.9458   5  14   4.1609   3.4594   9.6702  -2.6374   3.8075  -4.4195   0.00    0.0
2022/05/29 13:56:05.421    8.852012184    7.742227622   386.0837   5  14   4.1613   3.4598   9.6711  -2.6382   3.8080  -4.4205   0.00    0.0
2022/05/29 13:56:06.421    8.851950169    7.742282993   412.1171   5  14   4.1617   3.4602   9.6720  -2.6390   3.8084  -4.4214   0.00    0.0
2022/05/29 13:56:07.421    8.851989376    7.742204584   380.3123   5  14   4.1621   3.4606   9.6728  -2.6398   3.8089  -4.4223   0.00    0.0
2022/05/29 13:56:08.421    8.851979470    7.742244391   376.1031   5  14   4.1625   3.4610   9.6737  -2.6406   3.8094  -4.4232   0.00    0.0
2022/05/29 13:56:09.421    8.852024648    7.742187454   373.2782   5  14   4.1629   3.4614   9.6746  -2.6414   3.8099  -4.4241   0.00    0.0
2022/05/29 13:56:10.421    8.852001307    7.742185870   395.7692   5  14   4.1633   3.4618   9.6755  -2.6422   3.8103  -4.4250   0.00    0.0
2022/05/29 13:56:11.421    8.852043443    7.742191297   396.0933   5  14   4.1637   3.4622   9.6763  -2.6430   3.8108  -4.4260   0.00    0.0
2022/05/29 13:56:12.421    8.852103591    7.742219479   400.0752   5  13   4.3800   3.4884  11.8700  -2.5329   3.4087  -5.3790   0.00    0.0
2022/05/29 13:56:13.421    8.852028583    7.742179260   414.2599   5  14   4.1645   3.4631   9.6781  -2.6446   3.8118  -4.4278   0.00    0.0
2022/05/29 13:56:14.421    8.851958560    7.742199436   400.2882   5  13   4.3812   3.4892  11.8723  -2.5344   3.4098  -5.3816   0.00    0.0
2022/05/29 13:56:15.421    8.851948600    7.742202625   421.7232   5  14   4.1653   3.4639   9.6798  -2.6462   3.8127  -4.4296   0.00    0.0
2022/05/29 13:56:16.421    8.851923501    7.742254138   419.5714   5  12   5.2664   3.4911  12.7314  -2.4857   3.3521  -6.5115   0.00    0.0
2022/05/29 13:56:17.421    8.851896002    7.742271017   418.0967   5  13   5.2242   3.4842  12.4695  -2.4560   3.4383  -6.6428   0.00    0.0
2022/05/29 13:56:18.421    8.851957133    7.742164633   386.3452   5  13   4.5163   3.4685   9.6847  -2.6984   3.8184  -4.4734   0.00    0.0
2022/05/29 13:56:19.421    8.851969712    7.742235227   404.2435   5  13   4.5166   3.4689   9.6856  -2.6992   3.8188  -4.4741   0.00    0.0
2022/05/29 13:56:20.421    8.851941459    7.742157777   380.8633   5  13   4.5169   3.4694   9.6864  -2.7000   3.8193  -4.4748   0.00    0.0
2022/05/29 13:56:21.421    8.851973108    7.742248940   399.3897   5  13   4.5172   3.4698   9.6873  -2.7008   3.8197  -4.4754   0.00    0.0
2022/05/29 13:56:22.421    8.851939835    7.742216547   395.0945   5  13   4.5175   3.4702   9.6881  -2.7016   3.8202  -4.4761   0.00    0.0
2022/05/29 13:56:23.421    8.852047131    7.742263296   374.7794   5  13   4.5178   3.4706   9.6890  -2.7024   3.8206  -4.4768   0.00    0.0
2022/05/29 13:56:24.421    8.852004728    7.742219702   390.3702   5  13   4.5181   3.4710   9.6898  -2.7033   3.8211  -4.4774   0.00    0.0
2022/05/29 13:56:25.421    8.852040495    7.742199172   373.8622   5  13   4.5184   3.4714   9.6907  -2.7041   3.8216  -4.4781   0.00    0.0
2022/05/29 13:56:26.421    8.851996157    7.742211184   399.6926   5  13   4.5187   3.4719   9.6915  -2.7049   3.8220  -4.4788   0.00    0.0
2022/05/29 13:56:27.421    8.852064258    7.742188532   412.6249   5  14   4.1701   3.4689   9.6903  -2.6558   3.8185  -4.4406   0.00    0.0
2022/05/29 13:56:28.421    8.851979751    7.742204964   400.5550   5  13   4.5193   3.4727   9.6932  -2.7065   3.8229  -4.4801   0.00    0.0
2022/05/29 13:56:29.421    8.851889417    7.742154080   409.1405   5  13   4.5195   3.4731   9.6940  -2.7073   3.8234  -4.4807   0.00    0.0
2022/05/29 13:56:30.421    8.851946347    7.742270399   431.7968   5  13   4.5198   3.4735   9.6949  -2.7081   3.8238  -4.4814   0.00    0.0
2022/05/29 13:56:31.421    8.852000912    7.742218667   403.7223   5  12   5.2731   3.4972  12.7366  -2.4993   3.3623  -6.5205   0.00    0.0
2022/05/29 13:56:32.421    8.852022399    7.742193553   382.4047   5  12   5.2736   3.4976  12.7369  -2.5003   3.3630  -6.5211   0.00    0.0
2022/05/29 13:56:33.421    8.852063947    7.742147871   366.0367   5  12   5.2740   3.4980  12.7373  -2.5012   3.3637  -6.5217   0.00    0.0
2022/05/29 13:56:34.421    8.851971925    7.742325830   437.2621   5  12   5.2744   3.4984  12.7375  -2.5020   3.3643  -6.5223   0.00    0.0
2022/05/29 13:56:35.421    8.852012962    7.742113406   375.5049   5  13   4.5213   3.4757   9.6991  -2.7122   3.8262  -4.4847   0.00    0.0
2022/05/29 13:56:36.421    8.852135502    7.742131076   360.0020   5  13   4.5216   3.4761   9.7000  -2.7130   3.8266  -4.4854   0.00    0.0
2022/05/29 13:56:37.421    8.852148566    7.742116816   335.0104   5  13   4.5219   3.4765   9.7008  -2.7139   3.8271  -4.4861   0.00    0.0
2022/05/29 13:56:38.421    8.852054493    7.742199730   376.4482   5  12   5.2762   3.5000  12.7389  -2.5057   3.3670  -6.5247   0.00    0.0
2022/05/29 13:56:39.421    8.851983178    7.742162891   377.8456   5  11   5.3581   3.7754  13.4061  -2.7566   4.1530  -6.8164   0.00    0.0
2022/05/29 13:56:40.421    8.852014091    7.742121806   366.2547   5  12   5.2771   3.5008  12.7396  -2.5075   3.3684  -6.5259   0.00    0.0
2022/05/29 13:56:41.421    8.851983900    7.742203486   394.5440   5  11   5.3591   3.7763  13.4083  -2.7586   4.1552  -6.8182   0.00    0.0
2022/05/29 13:56:42.421    8.851947953    7.742209267   391.0172   5  11   5.3596   3.7768  13.4093  -2.7596   4.1563  -6.8191   0.00    0.0
2022/05/29 13:56:43.421    8.852042481    7.742144090   398.8336   5  12   5.2784   3.5021  12.7406  -2.5103   3.3705  -6.5276   0.00    0.0
2022/05/29 13:56:44.421    8.851893837    7.742242732   419.7313   5  11   5.3606   3.7778  13.4115  -2.7616   4.1585  -6.8208   0.00    0.0
2022/05/29 13:56:45.421    8.851797123    7.742335114   460.7625   5  12   5.2793   3.5029  12.7412  -2.5120   3.3717  -6.5288   0.00    0.0
2022/05/29 13:56:46.421    8.851913804    7.742225895   423.8216   5  11   5.3617   3.7787  13.4137  -2.7636   4.1607  -6.8226   0.00    0.0
2022/05/29 13:56:47.421    8.851894082    7.742264882   453.3828   5  10   5.3731   3.8558  13.9643  -2.7167   4.5040  -6.7252   0.00    0.0
2022/05/29 13:56:48.421    8.851951058    7.742209373   423.4722   5  11   5.3627   3.7797  13.4158  -2.7655   4.1629  -6.8243   0.00    0.0
2022/05/29 13:56:49.421    8.851914030    7.742232943   431.5269   5  11   5.3411   3.5070  12.7784  -2.5366   3.3557  -6.4724   0.00    0.0
2022/05/29 13:56:50.421    8.851953505    7.742166657   385.5000   5  11   5.3638   3.7806  13.4180  -2.7675   4.1651  -6.8261   0.00    0.0
2022/05/29 13:56:51.421    8.851952560    7.742207813   414.7780   5  11   5.3423   3.5079  12.7786  -2.5386   3.3571  -6.4739   0.00    0.0
2022/05/29 13:56:52.421    8.851888609    7.742351457   424.1640   5  13   4.5263   3.4829   9.7135  -2.7260   3.8339  -4.4960   0.00    0.0
2022/05/29 13:56:53.421    8.851941584    7.742201929   424.2715   5  12   4.6029   3.4857   9.7511  -2.7465   3.8201  -4.4176   0.00    0.0
2022/05/29 13:56:54.421    8.851838064    7.742249004   468.7762   5  11   5.3658   3.7825  13.4223  -2.7715   4.1694  -6.8296   0.00    0.0
2022/05/29 13:56:55.421    8.851880786    7.742243681   448.7425   5  12   4.6036   3.4866   9.7525  -2.7482   3.8210  -4.4192   0.00    0.0
2022/05/29 13:56:56.421    8.851876954    7.742300349   471.2032   5  12   4.6039   3.4870   9.7531  -2.7491   3.8214  -4.4199   0.00    0.0
2022/05/29 13:56:57.421    8.851882676    7.742198566   416.5091   5  13   4.5278   3.4850   9.7177  -2.7301   3.8362  -4.4994   0.00    0.0
2022/05/29 13:56:58.421    8.851903190    7.742315248   484.9640   5  12   4.5090   3.8544  10.5217  -2.8347   4.7108  -4.8189   0.00    0.0
2022/05/29 13:56:59.421    8.851906644    7.742345863   465.3438   5  11   4.6133   3.8548  10.8044  -2.8331   4.7151  -4.5655   0.00    0.0
2022/05/29 13:57:00.421    8.852001190    7.742290930   420.4804   5  12   4.5098   3.8552  10.5233  -2.8365   4.7119  -4.8207   0.00    0.0
2022/05/29 13:57:01.421    8.852092549    7.742234468   378.0495   5  13   4.4918   3.4834   9.5770  -2.7160   3.8724  -4.6335   0.00    0.0
2022/05/29 13:57:02.421    8.852055509    7.742206560   405.2893   5  14   4.4306   3.4820   9.5554  -2.7014   3.8825  -4.6860   0.00    0.0
2022/05/29 13:57:03.421    8.851974919    7.742221244   407.9973   5  14   4.4310   3.4824   9.5561  -2.7022   3.8830  -4.6867   0.00    0.0
2022/05/29 13:57:04.421    8.852033482    7.742192802   414.7320   5  14   4.4313   3.4829   9.5567  -2.7030   3.8835  -4.6875   0.00    0.0
2022/05/29 13:57:05.421    8.852032203    7.742215568   417.5519   5  14   4.4317   3.4833   9.5574  -2.7038   3.8840  -4.6882   0.00    0.0
2022/05/29 13:57:06.421    8.851980882    7.742209020   407.1161   5  14   4.4320   3.4837   9.5580  -2.7046   3.8845  -4.6889   0.00    0.0
2022/05/29 13:57:07.421    8.851947477    7.742256081   431.0798   5  14   4.4323   3.4841   9.5587  -2.7054   3.8849  -4.6896   0.00    0.0
2022/05/29 13:57:08.421    8.852053398    7.742156136   388.0507   5  14   4.4327   3.4846   9.5594  -2.7063   3.8855  -4.6903   0.00    0.0
2022/05/29 13:57:09.421    8.852014630    7.742279049   431.8081   5  14   4.4330   3.4850   9.5600  -2.7070   3.8859  -4.6910   0.00    0.0
2022/05/29 13:57:10.421    8.852037986    7.742224144   424.3349   5  14   4.4334   3.4854   9.5607  -2.7079   3.8864  -4.6917   0.00    0.0
2022/05/29 13:57:11.421    8.851914092    7.742189098   424.4033   5  14   4.1685   3.4848   9.5768  -2.6795   3.8712  -4.5822   0.00    0.0
2022/05/29 13:57:12.421    8.852004024    7.742290046   450.2698   5  14   4.1690   3.4852   9.5773  -2.6804   3.8717  -4.5832   0.00    0.0
2022/05/29 13:57:13.421    8.852030220    7.742214527   427.8313   5  14   4.1695   3.4857   9.5779  -2.6812   3.8722  -4.5842   0.00    0.0
2022/05/29 13:57:14.421    8.852039497    7.742222913   428.7025   5  14   4.1700   3.4861   9.5785  -2.6821   3.8727  -4.5853   0.00    0.0
2022/05/29 13:57:15.421    8.852082850    7.742220744   408.3306   5  14   4.1705   3.4866   9.5791  -2.6829   3.8732  -4.5863   0.00    0.0
2022/05/29 13:57:16.421    8.852063947    7.742159317   396.9324   5  14   4.1710   3.4870   9.5796  -2.6838   3.8738  -4.5873   0.00    0.0
2022/05/29 13:57:17.421    8.852100312    7.742259844   406.8899   5  14   4.1715   3.4874   9.5802  -2.6846   3.8742  -4.5883   0.00    0.0
2022/05/29 13:57:18.421    8.852085418    7.742223927   389.6846   5  15   4.1296   3.4862   9.5584  -2.6736   3.8838  -4.6315   0.00    0.0
2022/05/29 13:57:19.421    8.851967747    7.742159187   385.5003   5  15   4.1300   3.4867   9.5591  -2.6744   3.8843  -4.6324   0.00    0.0
2022/05/29 13:57:20.421    8.852015243    7.742111930   394.4094   5  13   4.2428   3.4934   9.7699  -2.7129   3.8311  -4.4293   0.00    0.0
2022/05/29 13:57:21.421    8.852076032    7.742207899   394.1207   5  13   4.4225   3.5170  11.9478  -2.5864   3.4443  -5.4694   0.00    0.0
2022/05/29 13:57:22.421    8.852135704    7.742173620   382.2192   5  14   4.3969   3.5096  11.5873  -2.5652   3.5431  -5.5977   0.00    0.0
2022/05/29 13:57:23.421    8.852058405    7.742212496   409.5212   5  14   4.3975   3.5100  11.5881  -2.5660   3.5437  -5.5989   0.00    0.0
2022/05/29 13:57:24.421    8.852056402    7.742205345   406.3228   5  14   4.3982   3.5104  11.5889  -2.5668   3.5443  -5.6001   0.00    0.0
2022/05/29 13:57:25.421    8.852084849    7.742185864   411.6063   5  15   4.1328   3.4892   9.5632  -2.6792   3.8874  -4.6379   0.00    0.0
2022/05/29 13:57:26.421    8.852048111    7.742210626   408.2405   5  15   4.1332   3.4896   9.5639  -2.6800   3.8879  -4.6388   0.00    0.0
2022/05/29 13:57:27.421    8.852001161    7.742247714   421.5876   5  15   4.1336   3.4901   9.5646  -2.6808   3.8884  -4.6397   0.00    0.0
2022/05/29 13:57:28.421    8.852046538    7.742185019   389.8891   5  13   4.4324   3.5145  11.6302  -2.5832   3.5294  -5.5606   0.00    0.0
2022/05/29 13:57:29.421    8.851994889    7.742212933   420.1430   5  14   4.4015   3.5125  11.5930  -2.5707   3.5472  -5.6062   0.00    0.0
2022/05/29 13:57:30.421    8.852011285    7.742156510   389.2497   5  14   4.4402   3.4940   9.5738  -2.7241   3.8965  -4.7060   0.00    0.0
2022/05/29 13:57:31.421    8.851960615    7.742189831   406.7070   5  15   4.1355   3.4918   9.5674  -2.6840   3.8905  -4.6433   0.00    0.0
2022/05/29 13:57:32.421    8.852043531    7.742148231   363.1523   5  14   4.4409   3.4949   9.5751  -2.7258   3.8975  -4.7075   0.00    0.0
2022/05/29 13:57:33.421    8.852108539    7.742212546   382.3179   5  13   4.4361   3.5166  11.6331  -2.5874   3.5324  -5.5672   0.00    0.0
2022/05/29 13:57:34.421    8.852085256    7.742193846   378.9123   5  14   4.4049   3.5146  11.5970  -2.5747   3.5501  -5.6124   0.00    0.0
2022/05/29 13:57:35.421    8.851940446    7.742164344   406.1590   5  13   4.4376   3.5175  11.6342  -2.5891   3.5336  -5.5698   0.00    0.0
2022/05/29 13:57:36.421    8.851983326    7.742195281   386.8691   5  14   4.4062   3.5155  11.5986  -2.5763   3.5513  -5.6148   0.00    0.0
2022/05/29 13:57:37.421    8.851921519    7.742175077   415.4240   5  14   4.4068   3.5159  11.5994  -2.5771   3.5519  -5.6160   0.00    0.0
2022/05/29 13:57:38.421    8.852044034    7.742152740   396.6692   5  14   4.4075   3.5163  11.6002  -2.5779   3.5524  -5.6172   0.00    0.0
2022/05/29 13:57:39.421    8.851975710    7.742273810   423.2589   5  14   4.4082   3.5167  11.6010  -2.5787   3.5530  -5.6184   0.00    0.0
2022/05/29 13:57:40.421    8.852083103    7.742204337   399.1981   5  14   4.4089   3.5172  11.6018  -2.5795   3.5536  -5.6197   0.00    0.0
2022/05/29 13:57:41.421    8.852127224    7.742183604   382.9756   5  14   4.4095   3.5176  11.6026  -2.5803   3.5542  -5.6209   0.00    0.0
2022/05/29 13:57:42.421    8.852115498    7.742144608   370.2641   5  14   4.4102   3.5180  11.6034  -2.5811   3.5548  -5.6221   0.00    0.0
2022/05/29 13:57:43.421    8.852082990    7.742220804   393.4027   5  14   4.4109   3.5184  11.6042  -2.5818   3.5553  -5.6233   0.00    0.0
2022/05/29 13:57:44.421    8.852158721    7.742249957   385.7625   5  14   4.4115   3.5188  11.6050  -2.5826   3.5559  -5.6246   0.00    0.0
2022/05/29 13:57:45.421    8.852176297    7.742287086   392.0455   5  14   4.4122   3.5193  11.6057  -2.5834   3.5565  -5.6258   0.00    0.0
2022/05/29 13:57:46.421    8.852231422    7.742187433   348.3115   5  14   4.4129   3.5197  11.6066  -2.5842   3.5571  -5.6270   0.00    0.0
2022/05/29 13:57:47.421    8.852193468    7.742209155   380.5438   5  14   4.4135   3.5201  11.6073  -2.5850   3.5577  -5.6282   0.00    0.0
2022/05/29 13:57:48.421    8.852120068    7.742180879   363.1502   5  14   4.4142   3.5206  11.6081  -2.5858   3.5583  -5.6294   0.00    0.0
2022/05/29 13:57:49.421    8.852096181    7.742226067   376.7762   5  14   4.4149   3.5210  11.6089  -2.5866   3.5588  -5.6306   0.00    0.0
2022/05/29 13:57:50.421    8.852056977    7.742238112   396.3653   5  14   4.4155   3.5214  11.6097  -2.5874   3.5594  -5.6318   0.00    0.0
2022/05/29 13:57:51.421    8.852059788    7.742221195   383.0352   5  14   4.4162   3.5218  11.6105  -2.5882   3.5600  -5.6330   0.00    0.0
2022/05/29 13:57:52.421    8.852056355    7.742227026   377.8536   5  14   4.4169   3.5223  11.6113  -2.5890   3.5606  -5.6343   0.00    0.0
2022/05/29 13:57:53.421    8.852020057    7.742234312   395.3911   5  14   4.4175   3.5227  11.6121  -2.5898   3.5612  -5.6355   0.00    0.0
2022/05/29 13:57:54.421    8.851920365    7.742230099   417.8921   5  14   4.4182   3.5231  11.6129  -2.5906   3.5618  -5.6366   0.00    0.0
2022/05/29 13:57:55.421    8.851965918    7.742175721   391.1199   5  14   4.4189   3.5235  11.6137  -2.5914   3.5624  -5.6379   0.00    0.0
2022/05/29 13:57:56.421    8.851833221    7.742217288   426.9382   5  14   4.4195   3.5240  11.6144  -2.5921   3.5629  -5.6390   0.00    0.0
2022/05/29 13:57:57.421    8.852004929    7.742202115   394.8782   5  12   5.3108   3.5330  12.7637  -2.5771   3.4210  -6.5703   0.00    0.0
2022/05/29 13:57:58.421    8.851832528    7.742178560   423.7284   5  13   4.4455   3.5328  11.9881  -2.6151   3.4639  -5.5172   0.00    0.0
2022/05/29 13:57:59.421    8.852017863    7.742151360   373.4852   5  13   5.2734   3.5262  12.4746  -2.5500   3.5135  -6.7011   0.00    0.0
2022/05/29 13:58:00.421    8.852005252    7.742163228   376.8931   5  13   5.2739   3.5266  12.4746  -2.5509   3.5142  -6.7016   0.00    0.0
2022/05/29 13:58:01.421    8.851805601    7.742255530   429.2221   5  14   4.4228   3.5261  11.6183  -2.5961   3.5659  -5.6451   0.00    0.0
2022/05/29 13:58:02.421    8.851911700    7.742224364   413.5040   5  14   4.4235   3.5265  11.6191  -2.5969   3.5665  -5.6463   0.00    0.0
2022/05/29 13:58:03.421    8.851940335    7.742280813   421.0764   5  13   5.2753   3.5278  12.4746  -2.5536   3.5164  -6.7032   0.00    0.0
2022/05/29 13:58:04.421    8.852025897    7.742287293   402.8254   5  14   4.4249   3.5274  11.6207  -2.5985   3.5676  -5.6488   0.00    0.0
2022/05/29 13:58:05.421    8.851975401    7.742312278   425.9484   5  14   4.4255   3.5278  11.6214  -2.5993   3.5682  -5.6499   0.00    0.0
2022/05/29 13:58:06.421    8.852029747    7.742289139   414.3972   5  14   4.4262   3.5282  11.6222  -2.6001   3.5688  -5.6512   0.00    0.0
2022/05/29 13:58:07.421    8.852044240    7.742246513   403.2286   5  14   4.4269   3.5287  11.6230  -2.6009   3.5694  -5.6524   0.00    0.0
2022/05/29 13:58:08.421    8.852041698    7.742197365   406.5951   5  14   4.4275   3.5291  11.6238  -2.6017   3.5700  -5.6536   0.00    0.0
2022/05/29 13:58:09.421    8.852105751    7.742229689   386.9229   5  14   4.4282   3.5295  11.6246  -2.6025   3.5706  -5.6548   0.00    0.0
2022/05/29 13:58:10.421    8.852152332    7.742202123   370.6591   5  14   4.4289   3.5300  11.6254  -2.6033   3.5712  -5.6560   0.00    0.0
2022/05/29 13:58:11.421    8.852201650    7.742254160   366.1324   5  14   4.4296   3.5304  11.6261  -2.6041   3.5718  -5.6572   0.00    0.0
2022/05/29 13:58:12.421    8.852289960    7.742222983   349.1158   5  14   4.4303   3.5308  11.6269  -2.6049   3.5724  -5.6585   0.00    0.0
2022/05/29 13:58:13.421    8.852218346    7.742233220   369.7779   5  14   4.4309   3.5313  11.6277  -2.6057   3.5730  -5.6596   0.00    0.0
2022/05/29 13:58:14.421    8.852142556    7.742238108   382.5296   5  14   4.4316   3.5317  11.6284  -2.6064   3.5735  -5.6608   0.00    0.0
2022/05/29 13:58:15.421    8.852038164    7.742307755   407.1341   5  15   4.1554   3.5109   9.5977  -2.7191   3.9132  -4.6834   0.00    0.0
2022/05/29 13:58:16.421    8.852077661    7.742187729   391.1736   5  15   4.1559   3.5113   9.5983  -2.7200   3.9138  -4.6843   0.00    0.0
2022/05/29 13:58:17.421    8.852005410    7.742170662   403.0201   5  14   4.4336   3.5330  11.6307  -2.6088   3.5753  -5.6644   0.00    0.0
2022/05/29 13:58:18.421    8.851901192    7.742232750   460.8234   5  15   4.1568   3.5122   9.5997  -2.7215   3.9148  -4.6861   0.00    0.0
2022/05/29 13:58:19.421    8.851885845    7.742213678   446.0079   5  14   4.4349   3.5339  11.6323  -2.6104   3.5765  -5.6668   0.00    0.0
2022/05/29 13:58:20.421    8.851947926    7.742163590   425.9017   5  15   4.1577   3.5131   9.6011  -2.7231   3.9159  -4.6879   0.00    0.0
2022/05/29 13:58:21.421    8.852028202    7.742183279   411.4710   5  15   4.1582   3.5135   9.6017  -2.7239   3.9164  -4.6888   0.00    0.0
2022/05/29 13:58:22.421    8.851902369    7.742280956   450.0398   5  14   4.4369   3.5351  11.6345  -2.6128   3.5782  -5.6704   0.00    0.0
2022/05/29 13:58:23.421    8.851860292    7.742218537   462.5970   5  15   4.1591   3.5144   9.6031  -2.7255   3.9174  -4.6906   0.00    0.0
2022/05/29 13:58:24.421    8.851934820    7.742346662   441.9231   5  14   4.4382   3.5360  11.6361  -2.6143   3.5794  -5.6728   0.00    0.0
2022/05/29 13:58:25.421    8.851896797    7.742350814   443.1037   5  14   4.4389   3.5364  11.6368  -2.6151   3.5800  -5.6739   0.00    0.0
2022/05/29 13:58:26.421    8.851828531    7.742195990   473.2534   5  15   4.1604   3.5157   9.6051  -2.7279   3.9190  -4.6933   0.00    0.0
2022/05/29 13:58:27.421    8.851969357    7.742160607   393.5633   5  13   4.5439   3.8257  12.3475  -2.8729   4.3399  -6.0168   0.00    0.0
2022/05/29 13:58:28.421    8.851884775    7.742129961   374.7385   5  14   4.4409   3.5378  11.6392  -2.6176   3.5819  -5.6775   0.00    0.0
2022/05/29 13:58:29.421    8.851947153    7.742150594   378.6099   5  12   4.5459   3.8966  12.8339  -2.8669   4.6277  -6.0020   0.00    0.0
2022/05/29 13:58:30.421    8.851948765    7.742078360   344.9059   5  15   4.1623   3.5175   9.6079  -2.7311   3.9211  -4.6970   0.00    0.0
2022/05/29 13:58:31.421    8.852053741    7.742114866   300.3128   5  14   4.2424   3.8197  10.2263  -2.9463   4.5373  -4.9934   0.00    0.0
2022/05/29 13:58:32.421    8.851942935    7.742205137   381.2723   5  15   4.1632   3.5184   9.6093  -2.7327   3.9221  -4.6988   0.00    0.0
2022/05/29 13:58:33.421    8.852024469    7.742114696   354.5418   5  15   4.1637   3.5189   9.6099  -2.7335   3.9227  -4.6997   0.00    0.0
