% program   : RTKPOST ver.demo5 b34g
% inp file  : C:\Users\Abdullateef\Documents\PHD\Research on Precision Agriculture Navigation Technology\nav data\sensorlogSlim\gnss_log_2022_05_29_14_51_17.22o
% inp file  : C:\Users\Abdullateef\Documents\PHD\Research on Precision Agriculture Navigation Technology\nav data\sensorlogSlim\BRDM00DLR_S_20221490000_01D_MN.rnx\BRDM00DLR_S_20221490000_01D_MN.rnx
% obs start : 2022/05/29 13:51:35.4 GPST (week2212  49895.4s)
% obs end   : 2022/05/29 14:52:19.4 GPST (week2212  53539.4s)
% pos mode  : Single
% elev mask : 15.0 deg
% ionos opt : Estimate TEC
% tropo opt : Saastamoinen
% ephemeris : Broadcast
% navi sys  : GPS GLONASS Galileo BDS
%
% (lat/lon/height=WGS84/ellipsoidal,Q=1:fix,2:float,3:sbas,4:dgps,5:single,6:ppp,ns=# of satellites)
%  GPST                  latitude(deg) longitude(deg)  height(m)   Q  ns   sdn(m)   sde(m)   sdu(m)  sdne(m)  sdeu(m)  sdun(m) age(s)  ratio
2022/05/29 13:51:35.421    8.851943402    7.742148092   408.1970   5  28   1.0483   1.1877   3.5316   0.2249  -1.0546   0.6035   0.00    0.0
2022/05/29 13:51:36.421    8.851950938    7.742153644   413.9837   5  30   1.0451   1.1461   3.2601   0.1715  -0.8422   0.6577   0.00    0.0
2022/05/29 13:51:37.421    8.851932583    7.742137779   417.3798   5  28   1.0483   1.1876   3.5320   0.2245  -1.0545   0.6033   0.00    0.0
2022/05/29 13:51:38.421    8.851949531    7.742143280   415.5611   5  28   1.0482   1.1876   3.5322   0.2244  -1.0545   0.6032   0.00    0.0
2022/05/29 13:51:39.421    8.851943479    7.742133848   411.5787   5  28   1.0479   1.2590   3.3317   0.2094  -0.7465   0.6291   0.00    0.0
2022/05/29 13:51:40.421    8.851954869    7.742152093   408.1732   5  29   1.0317   1.1875   3.5322   0.2312  -1.0540   0.5942   0.00    0.0
2022/05/29 13:51:41.421    8.851987544    7.742143697   409.8744   5  30   1.0314   1.1618   3.2941   0.2174  -0.8931   0.6204   0.00    0.0
2022/05/29 13:51:42.421    8.851958032    7.742174640   402.9393   5  30   1.0313   1.1618   3.2943   0.2172  -0.8931   0.6204   0.00    0.0
2022/05/29 13:51:43.421    8.851953758    7.742162618   396.9424   5  30   1.0313   1.1618   3.2946   0.2169  -0.8931   0.6204   0.00    0.0
2022/05/29 13:51:44.421    8.851957415    7.742154175   407.2195   5  30   1.0313   1.1618   3.2948   0.2167  -0.8930   0.6203   0.00    0.0
2022/05/29 13:51:45.421    8.851973028    7.742178261   406.8796   5  28   1.0527   1.2426   3.4137   0.2974  -1.0913   0.5519   0.00    0.0
2022/05/29 13:51:46.421    8.851982493    7.742165747   403.8914   5  30   1.0313   1.1618   3.2952   0.2163  -0.8930   0.6203   0.00    0.0
2022/05/29 13:51:47.421    8.851999334    7.742184749   416.6864   5  30   1.0312   1.1617   3.2954   0.2161  -0.8930   0.6203   0.00    0.0
2022/05/29 13:51:48.421    8.852026621    7.742180877   393.6043   5  28   1.0480   1.1875   3.5343   0.2226  -1.0543   0.6019   0.00    0.0
2022/05/29 13:51:49.421    8.851969562    7.742156533   405.6430   5  29   1.0315   1.1874   3.5341   0.2297  -1.0538   0.5936   0.00    0.0
2022/05/29 13:51:50.421    8.851973005    7.742201933   420.9588   5  28   1.0824   1.2517   3.3129   0.3474  -0.9197   0.5263   0.00    0.0
2022/05/29 13:51:51.421    8.851971781    7.742160740   426.2215   5  29   1.0683   1.2310   3.3054   0.4001  -0.9470   0.5624   0.00    0.0
2022/05/29 13:51:52.421    8.852065260    7.742173972   421.3700   5  28   1.0862   1.2309   3.3059   0.3996  -0.9469   0.5703   0.00    0.0
2022/05/29 13:51:53.421    8.852049604    7.742186248   416.2305   5  28   1.0862   1.2309   3.3061   0.3995  -0.9469   0.5703   0.00    0.0
2022/05/29 13:51:54.421    8.852058924    7.742196978   429.1469   5  28   1.0912   1.1620   3.3107   0.2193  -0.8963   0.5515   0.00    0.0
2022/05/29 13:51:55.421    8.852012419    7.742168749   421.9600   5  29   1.1158   1.1628   3.4881   0.1556  -0.9248   0.9328   0.00    0.0
2022/05/29 13:51:56.421    8.852043881    7.742186250   422.0593   5  27   1.1227   1.2330   3.6242  -0.1495  -1.0033   0.9794   0.00    0.0
2022/05/29 13:51:57.421    8.852043067    7.742177295   417.1205   5  29   1.1110   1.1485   3.5647   0.0686  -0.8446   0.9630   0.00    0.0
2022/05/29 13:51:58.421    8.852018833    7.742156445   408.1307   5  28   1.1224   1.2295   3.5346  -0.1579  -1.0398   0.9692   0.00    0.0
2022/05/29 13:51:59.421    8.852050467    7.742196382   414.6815   5  29   1.1157   1.1628   3.4893   0.1541  -0.9249   0.9329   0.00    0.0
2022/05/29 13:52:00.421    8.852030731    7.742173324   424.5395   5  28   1.1224   1.2294   3.5352  -0.1586  -1.0399   0.9693   0.00    0.0
2022/05/29 13:52:01.421    8.852014022    7.742163374   423.1214   5  28   1.1639   1.1628   3.4959   0.1677  -0.9265   0.8961   0.00    0.0
2022/05/29 13:52:02.421    8.852005856    7.742170281   408.7729   5  27   1.1711   1.2294   3.5409  -0.1538  -1.0404   0.9358   0.00    0.0
2022/05/29 13:52:03.421    8.851991208    7.742176927   401.0038   5  28   1.1639   1.1628   3.4965   0.1669  -0.9265   0.8963   0.00    0.0
2022/05/29 13:52:04.421    8.852077932    7.742157415   414.4610   5  28   1.1223   1.2294   3.5364  -0.1602  -1.0399   0.9695   0.00    0.0
2022/05/29 13:52:05.421    8.851989623    7.742173110   416.2816   5  28   1.1639   1.1628   3.4970   0.1661  -0.9265   0.8965   0.00    0.0
2022/05/29 13:52:06.421    8.852028147    7.742168182   434.3200   5  27   1.1726   1.2263   3.5267  -0.1529  -1.0245   0.9404   0.00    0.0
2022/05/29 13:52:07.421    8.852080872    7.742193449   429.2443   5  29   1.1155   1.1627   3.4918   0.1511  -0.9251   0.9332   0.00    0.0
2022/05/29 13:52:08.421    8.852025959    7.742187076   414.1436   5  27   1.1418   1.2046   3.5275   0.1012  -0.9587   0.8771   0.00    0.0
2022/05/29 13:52:09.421    8.852019490    7.742182721   416.1059   5  29   1.1154   1.1627   3.4924   0.1503  -0.9251   0.9333   0.00    0.0
2022/05/29 13:52:10.421    8.852013474    7.742157150   416.3556   5  28   1.0836   1.1830   3.3497   0.2910  -0.9547   0.4698   0.00    0.0
2022/05/29 13:52:11.421    8.851958111    7.742119278   418.7133   5  29   1.1168   1.1602   3.4793   0.1526  -0.9101   0.9371   0.00    0.0
2022/05/29 13:52:12.421    8.852008416    7.742161436   406.6913   5  27   1.1917   1.1840   3.6293   0.2051  -0.9926   1.0709   0.00    0.0
2022/05/29 13:52:13.421    8.851983026    7.742181916   409.0964   5  28   1.1244   1.1836   3.5247   0.2318  -0.9796   0.8972   0.00    0.0
2022/05/29 13:52:14.421    8.852025842    7.742184078   414.2028   5  28   1.1077   1.1641   3.3154   0.1683  -0.8989   0.5676   0.00    0.0
2022/05/29 13:52:15.421    8.851964430    7.742184140   404.8433   5  26   1.1757   1.2808   3.7355   0.2891  -1.2486   0.8218   0.00    0.0
2022/05/29 13:52:16.421    8.852031882    7.742155434   423.0028   5  27   1.0839   1.2470   3.3697   0.2706  -1.0252   0.4801   0.00    0.0
2022/05/29 13:52:17.421    8.851961261    7.742197539   400.4647   5  28   1.1242   1.1836   3.5260   0.2307  -0.9798   0.8973   0.00    0.0
2022/05/29 13:52:18.421    8.852027244    7.742163315   414.7142   5  28   1.1152   1.2503   3.6782   0.1651  -1.1761   0.9260   0.00    0.0
2022/05/29 13:52:19.421    8.852070270    7.742172603   414.6337   5  27   1.1647   1.1862   3.5337   0.1704  -0.9887   0.9342   0.00    0.0
2022/05/29 13:52:20.421    8.852031166    7.742180258   409.5828   5  26   1.1756   1.2807   3.7372   0.2873  -1.2489   0.8228   0.00    0.0
2022/05/29 13:52:21.421    8.852041240    7.742175889   424.1688   5  26   1.1300   1.4231   3.8816  -0.0571  -1.4903   0.9449   0.00    0.0
2022/05/29 13:52:22.421    8.852071612    7.742205212   411.1166   5  27   1.1244   1.2798   3.7278   0.2571  -1.2439   0.8786   0.00    0.0
2022/05/29 13:52:23.421    8.852020867    7.742189685   408.0242   5  25   1.1809   1.4238   3.8918   0.1074  -1.4945   0.8946   0.00    0.0
2022/05/29 13:52:24.421    8.852004036    7.742204747   416.7891   5  25   1.2219   1.2836   3.7457   0.2301  -1.2571   0.8686   0.00    0.0
2022/05/29 13:52:25.421    8.852033278    7.742204417   394.9044   5  28   1.0625   1.2255   3.3220   0.0821  -0.9646   0.6531   0.00    0.0
2022/05/29 13:52:26.421    8.852014432    7.742207582   414.3620   5  28   1.0781   1.2425   3.4389   0.3133  -1.0964   0.4417   0.00    0.0
2022/05/29 13:52:27.421    8.851976041    7.742140237   424.9075   5  27   1.2095   1.1656   3.5101  -0.0532  -0.9366   0.9385   0.00    0.0
2022/05/29 13:52:28.421    8.852017502    7.742190115   429.3242   5  29   1.0722   1.1615   3.3167   0.2191  -0.8946   0.5461   0.00    0.0
2022/05/29 13:52:29.421    8.852003275    7.742188047   427.5281   5  28   1.1076   1.1640   3.3182   0.1629  -0.8986   0.5695   0.00    0.0
2022/05/29 13:52:30.421    8.851993030    7.742183953   429.2774   5  27   1.0781   1.3503   3.4931   0.3082  -1.2344   0.4457   0.00    0.0
2022/05/29 13:52:31.421    8.851988534    7.742117335   435.4045   5  27   1.1839   1.1648   3.3889   0.0875  -0.9154   0.7823   0.00    0.0
2022/05/29 13:52:32.421    8.851971886    7.742195411   422.9813   5  28   1.0727   1.2221   3.3331   0.1831  -0.9606   0.5571   0.00    0.0
2022/05/29 13:52:33.421    8.852002129    7.742202825   396.7628   5  28   1.0727   1.2221   3.3333   0.1827  -0.9605   0.5572   0.00    0.0
2022/05/29 13:52:34.421    8.851969867    7.742152068   414.4215   5  28   1.0780   1.2424   3.4404   0.3114  -1.0961   0.4430   0.00    0.0
2022/05/29 13:52:35.421    8.851990623    7.742177053   395.4755   5  26   1.2187   1.2337   3.5593  -0.2544  -1.0537   0.9848   0.00    0.0
2022/05/29 13:52:36.421    8.851995718    7.742159085   395.3175   5  30   1.0301   1.1613   3.3061   0.2060  -0.8917   0.6187   0.00    0.0
2022/05/29 13:52:37.421    8.852008989    7.742167556   405.4817   5  28   1.1056   1.1916   3.4901   0.3663  -0.7059   0.8887   0.00    0.0
2022/05/29 13:52:38.421    8.852042761    7.742146723   397.4993   5  28   1.1755   1.1499   3.4784  -0.1615  -0.8874   1.0058   0.00    0.0
2022/05/29 13:52:39.421    8.852066169    7.742174170   410.0479   5  29   1.1328   1.1466   3.4698   0.0318  -0.8752   0.9662   0.00    0.0
2022/05/29 13:52:40.421    8.852035487    7.742165528   435.7949   5  29   1.1328   1.1466   3.4701   0.0300  -0.8752   0.9662   0.00    0.0
2022/05/29 13:52:41.421    8.852019021    7.742179020   418.1940   5  26   1.2359   1.1659   3.5167  -0.1086  -0.9390   0.9581   0.00    0.0
2022/05/29 13:52:42.421    8.852010775    7.742148305   413.4996   5  27   1.2300   1.1916   3.7850   0.3712  -0.6979   1.2562   0.00    0.0
2022/05/29 13:52:43.421    8.851956102    7.742140257   405.2175   5  26   1.3774   1.1783   3.7830   0.3602  -0.6379   1.3662   0.00    0.0
2022/05/29 13:52:44.421    8.851982769    7.742192350   418.5083   5  28   1.1348   1.1627   3.5053   0.1175  -0.9274   0.9485   0.00    0.0
2022/05/29 13:52:45.421    8.851947652    7.742159917   408.7329   5  27   1.3133   1.1770   3.7610   0.3906  -0.6197   1.3022   0.00    0.0
2022/05/29 13:52:46.421    8.852050488    7.742182422   419.1796   5  29   1.1498   1.1498   3.4803  -0.1654  -0.8878   0.9982   0.00    0.0
2022/05/29 13:52:47.421    8.852011393    7.742188116   412.0270   5  27   1.2887   1.1917   3.7697   0.4163  -0.6679   1.2639   0.00    0.0
2022/05/29 13:52:48.421    8.852000435    7.742189411   410.5854   5  26   1.3773   1.1783   3.7842   0.3591  -0.6381   1.3664   0.00    0.0
2022/05/29 13:52:49.421    8.852149310    7.742208908   428.7170   5  30   1.1096   1.1465   3.4723  -0.0378  -0.8755   0.9601   0.00    0.0
2022/05/29 13:52:50.421    8.852029490    7.742159012   410.5546   5  28   1.2271   1.1752   3.7577   0.3491  -0.6290   1.2694   0.00    0.0
2022/05/29 13:52:51.421    8.852068039    7.742197381   399.9512   5  28   1.2270   1.1752   3.7578   0.3489  -0.6291   1.2692   0.00    0.0
2022/05/29 13:52:52.421    8.852000030    7.742192420   392.6350   5  27   1.2860   1.1938   3.7833   0.4125  -0.6901   1.2598   0.00    0.0
2022/05/29 13:52:53.421    8.851981176    7.742167050   403.1120   5  27   1.3130   1.1770   3.7625   0.3893  -0.6198   1.3020   0.00    0.0
2022/05/29 13:52:54.421    8.851986275    7.742153929   407.2061   5  28   1.1838   1.1465   3.4776   0.0152  -0.8756   0.9376   0.00    0.0
2022/05/29 13:52:55.421    8.852010148    7.742192711   412.6561   5  29   1.0867   1.1452   3.2869   0.1582  -0.8404   0.5880   0.00    0.0
2022/05/29 13:52:56.421    8.852052030    7.742188438   419.9480   5  30   1.1094   1.1464   3.4743  -0.0466  -0.8756   0.9603   0.00    0.0
2022/05/29 13:52:57.421    8.851982564    7.742147375   417.5642   5  28   1.1837   1.1465   3.4784  -0.0124  -0.8756   0.9378   0.00    0.0
2022/05/29 13:52:58.421    8.852010018    7.742184273   421.4710   5  28   1.1242   1.1481   3.2892   0.0380  -0.8455   0.6141   0.00    0.0
2022/05/29 13:52:59.421    8.852016553    7.742154502   422.8017   5  29   1.0867   1.1452   3.2876   0.1570  -0.8402   0.5880   0.00    0.0
2022/05/29 13:53:00.421    8.852023104    7.742179669   415.4401   5  30   1.0429   1.1452   3.2778   0.1499  -0.8392   0.6510   0.00    0.0
2022/05/29 13:53:01.421    8.852021709    7.742172944   434.7552   5  29   1.0866   1.1452   3.2880   0.1563  -0.8401   0.5879   0.00    0.0
2022/05/29 13:53:02.421    8.852062743    7.742169115   422.8776   5  30   1.0429   1.1452   3.2782   0.1494  -0.8391   0.6508   0.00    0.0
2022/05/29 13:53:03.421    8.852021531    7.742172453   420.4579   5  30   1.0428   1.1451   3.2784   0.1491  -0.8390   0.6507   0.00    0.0
2022/05/29 13:53:04.421    8.851998980    7.742173813   418.5517   5  28   1.0900   1.1612   3.3233   0.2019  -0.8933   0.5516   0.00    0.0
2022/05/29 13:53:05.421    8.852028157    7.742150133   408.9720   5  28   1.1340   1.1626   3.5114   0.1070  -0.9278   0.9484   0.00    0.0
2022/05/29 13:53:06.421    8.852010447    7.742177935   408.3343   5  28   1.1836   1.1464   3.4808  -0.0361  -0.8757   0.9383   0.00    0.0
2022/05/29 13:53:07.421    8.852016098    7.742144248   414.8663   5  29   1.0865   1.1451   3.2891   0.1544  -0.8399   0.5879   0.00    0.0
2022/05/29 13:53:08.421    8.851982546    7.742132639   433.8591   5  30   1.0427   1.1451   3.2795   0.1477  -0.8389   0.6503   0.00    0.0
2022/05/29 13:53:09.421    8.852021375    7.742170644   431.1847   5  29   1.0865   1.1451   3.2894   0.1538  -0.8398   0.5878   0.00    0.0
2022/05/29 13:53:10.421    8.852010957    7.742165154   423.7288   5  29   1.1010   1.1752   3.4649   0.3394  -0.6389   0.9043   0.00    0.0
2022/05/29 13:53:11.421    8.852031097    7.742166820   435.5944   5  31   1.0241   1.1450   3.2799   0.1402  -0.8385   0.6555   0.00    0.0
2022/05/29 13:53:12.421    8.852014863    7.742170069   444.3260   5  28   1.1490   1.1937   3.4934   0.3980  -0.7069   0.8633   0.00    0.0
2022/05/29 13:53:13.421    8.852000461    7.742168941   412.0748   5  29   1.1316   1.1463   3.4795  -0.0511  -0.8756   0.9657   0.00    0.0
2022/05/29 13:53:14.421    8.851994810    7.742152783   411.2156   5  30   1.0426   1.1450   3.2807   0.1461  -0.8386   0.6498   0.00    0.0
2022/05/29 13:53:15.421    8.851961031    7.742150145   402.5672   5  29   1.1316   1.1463   3.4800  -0.0531  -0.8756   0.9657   0.00    0.0
2022/05/29 13:53:16.421    8.852038609    7.742178770   422.1784   5  30   1.0292   1.1609   3.3146   0.1974  -0.8905   0.6172   0.00    0.0
2022/05/29 13:53:17.421    8.851983817    7.742160336   416.0645   5  31   1.0240   1.1450   3.2811   0.1385  -0.8383   0.6552   0.00    0.0
2022/05/29 13:53:18.421    8.851974504    7.742190986   410.3645   5  30   1.1089   1.1463   3.4807  -0.0670  -0.8758   0.9609   0.00    0.0
2022/05/29 13:53:19.421    8.851990960    7.742147140   425.3462   5  31   1.0240   1.1449   3.2815   0.1379  -0.8382   0.6551   0.00    0.0
2022/05/29 13:53:20.421    8.851976281    7.742179608   401.6069   5  29   1.1133   1.1622   3.5139   0.1205  -0.9267   0.9357   0.00    0.0
2022/05/29 13:53:21.421    8.851994767    7.742181633   419.0796   5  29   1.0854   1.1916   3.4942   0.3625  -0.7043   0.8725   0.00    0.0
2022/05/29 13:53:22.421    8.851960860    7.742176915   409.2060   5  29   1.1133   1.1622   3.5145   0.1196  -0.9268   0.9357   0.00    0.0
2022/05/29 13:53:23.421    8.851953125    7.742156225   419.5149   5  30   1.0796   1.1750   3.4663   0.3303  -0.6387   0.9002   0.00    0.0
2022/05/29 13:53:24.421    8.852040431    7.742163874   427.6383   5  30   1.0290   1.1608   3.3162   0.1956  -0.8903   0.6169   0.00    0.0
2022/05/29 13:53:25.421    8.852081119    7.742206211   421.3722   5  31   1.0238   1.1449   3.2827   0.1361  -0.8379   0.6549   0.00    0.0
2022/05/29 13:53:26.421    8.852030518    7.742176316   403.6759   5  29   1.1132   1.1622   3.5157   0.1177  -0.9269   0.9358   0.00    0.0
2022/05/29 13:53:27.421    8.852035714    7.742155659   415.4959   5  29   1.1131   1.1622   3.5160   0.1172  -0.9269   0.9359   0.00    0.0
2022/05/29 13:53:28.421    8.852065566    7.742180981   409.2910   5  28   1.2024   1.1917   3.7876   0.3652  -0.6989   1.2312   0.00    0.0
2022/05/29 13:53:29.421    8.852066324    7.742212808   429.2292   5  29   1.1131   1.1622   3.5166   0.1163  -0.9269   0.9359   0.00    0.0
2022/05/29 13:53:30.421    8.852100622    7.742220188   447.4805   5  30   1.1086   1.1462   3.4841  -0.0758  -0.8759   0.9611   0.00    0.0
2022/05/29 13:53:31.421    8.852033844    7.742198418   432.5185   5  29   1.1130   1.1622   3.5172   0.1153  -0.9270   0.9360   0.00    0.0
2022/05/29 13:53:32.421    8.852043415    7.742162943   439.8163   5  30   1.0288   1.1608   3.3179   0.1938  -0.8901   0.6166   0.00    0.0
2022/05/29 13:53:33.421    8.852020022    7.742190599   438.7420   5  30   1.0288   1.1608   3.3181   0.1936  -0.8900   0.6166   0.00    0.0
2022/05/29 13:53:34.421    8.852049272    7.742193389   453.5109   5  30   1.0288   1.1607   3.3183   0.1934  -0.8900   0.6165   0.00    0.0
2022/05/29 13:53:35.421    8.851967816    7.742173117   425.3287   5  30   1.0791   1.1750   3.4677   0.3288  -0.6382   0.8988   0.00    0.0
2022/05/29 13:53:36.421    8.851983710    7.742133621   422.6847   5  29   1.0848   1.1917   3.4961   0.3607  -0.7038   0.8709   0.00    0.0
2022/05/29 13:53:37.421    8.851988994    7.742159670   432.2381   5  29   1.0847   1.1917   3.4962   0.3606  -0.7038   0.8707   0.00    0.0
2022/05/29 13:53:38.421    8.851991298    7.742137508   425.8740   5  29   1.0847   1.1917   3.4963   0.3605  -0.7037   0.8706   0.00    0.0
2022/05/29 13:53:39.421    8.852042837    7.742195896   412.4907   5  28   1.0953   1.2139   3.5255   0.4062  -0.7744   0.8301   0.00    0.0
2022/05/29 13:53:40.421    8.851960490    7.742180081   406.3511   5  28   1.2017   1.1917   3.7898   0.3633  -0.6993   1.2304   0.00    0.0
2022/05/29 13:53:41.421    8.851982205    7.742160496   409.1990   5  28   1.2016   1.1917   3.7900   0.3631  -0.6993   1.2303   0.00    0.0
2022/05/29 13:53:42.421    8.852041025    7.742190237   402.2734   5  28   1.2016   1.1917   3.7902   0.3629  -0.6994   1.2303   0.00    0.0
2022/05/29 13:53:43.421    8.852045106    7.742185798   405.9371   5  29   1.0845   1.1917   3.4969   0.3599  -0.7036   0.8701   0.00    0.0
2022/05/29 13:53:44.421    8.852003891    7.742181503   411.8991   5  28   1.2014   1.1917   3.7906   0.3626  -0.6994   1.2301   0.00    0.0
2022/05/29 13:53:45.421    8.852018384    7.742146523   421.9493   5  28   1.2014   1.1917   3.7908   0.3624  -0.6994   1.2300   0.00    0.0
2022/05/29 13:53:46.421    8.852055008    7.742166834   424.8244   5  28   1.2013   1.1917   3.7910   0.3623  -0.6995   1.2300   0.00    0.0
2022/05/29 13:53:47.421    8.852046569    7.742179440   434.9524   5  30   1.0285   1.1606   3.3210   0.1905  -0.8896   0.6160   0.00    0.0
2022/05/29 13:53:48.421    8.852018680    7.742159632   433.0364   5  30   1.0284   1.1606   3.3212   0.1903  -0.8895   0.6159   0.00    0.0
2022/05/29 13:53:49.421    8.852034990    7.742179135   445.4828   5  29   1.0712   1.1607   3.3313   0.1991  -0.8912   0.5500   0.00    0.0
2022/05/29 13:53:50.421    8.852090580    7.742206979   440.7073   5  29   1.0376   1.1812   3.3589   0.2575  -0.9491   0.5572   0.00    0.0
2022/05/29 13:53:51.421    8.852008109    7.742188452   408.7659   5  28   1.1482   1.1937   3.4980   0.3933  -0.7049   0.8621   0.00    0.0
2022/05/29 13:53:52.421    8.852083764    7.742208010   445.0911   5  30   1.0284   1.1606   3.3220   0.1894  -0.8894   0.6157   0.00    0.0
2022/05/29 13:53:53.421    8.851999872    7.742188245   415.8605   5  29   1.0712   1.1606   3.3320   0.1980  -0.8910   0.5502   0.00    0.0
2022/05/29 13:53:54.421    8.851947172    7.742175429   406.8932   5  28   1.1481   1.1937   3.4983   0.3929  -0.7047   0.8620   0.00    0.0
2022/05/29 13:53:55.421    8.852020401    7.742148486   411.7965   5  29   1.0711   1.1606   3.3324   0.1975  -0.8909   0.5503   0.00    0.0
2022/05/29 13:53:56.421    8.851993077    7.742155417   426.2305   5  29   1.0711   1.1606   3.3325   0.1972  -0.8909   0.5503   0.00    0.0
2022/05/29 13:53:57.421    8.852088265    7.742185456   413.0993   5  30   1.0282   1.1605   3.3231   0.1882  -0.8892   0.6155   0.00    0.0
2022/05/29 13:53:58.421    8.852035934    7.742160526   443.0611   5  30   1.0282   1.1605   3.3233   0.1880  -0.8892   0.6155   0.00    0.0
2022/05/29 13:53:59.421    8.852066098    7.742178475   421.9138   5  29   1.0839   1.1917   3.4988   0.3580  -0.7031   0.8682   0.00    0.0
2022/05/29 13:54:00.421    8.852052011    7.742162111   413.4173   5  29   1.0374   1.1811   3.3613   0.2557  -0.9490   0.5565   0.00    0.0
2022/05/29 13:54:01.421    8.852002310    7.742190239   399.9719   5  29   1.0711   1.1606   3.3334   0.1959  -0.8907   0.5506   0.00    0.0
2022/05/29 13:54:02.421    8.852017562    7.742190836   397.3678   5  29   1.0711   1.1606   3.3336   0.1957  -0.8906   0.5506   0.00    0.0
2022/05/29 13:54:03.421    8.852000306    7.742188578   401.2801   5  29   1.0711   1.1605   3.3338   0.1954  -0.8906   0.5506   0.00    0.0
2022/05/29 13:54:04.421    8.852002130    7.742211666   388.8904   5  28   1.0891   1.1607   3.3339   0.1859  -0.8906   0.5513   0.00    0.0
2022/05/29 13:54:05.421    8.851968189    7.742171650   408.6208   5  29   1.0710   1.1605   3.3341   0.1949  -0.8905   0.5507   0.00    0.0
2022/05/29 13:54:06.421    8.851970990    7.742172817   402.1962   5  28   1.0890   1.1607   3.3343   0.1853  -0.8905   0.5513   0.00    0.0
2022/05/29 13:54:07.421    8.852002615    7.742174876   418.2708   5  28   1.0890   1.1606   3.3345   0.1851  -0.8904   0.5513   0.00    0.0
2022/05/29 13:54:08.421    8.851960567    7.742164291   413.7294   5  29   1.0710   1.1605   3.3346   0.1941  -0.8903   0.5509   0.00    0.0
2022/05/29 13:54:09.421    8.852012213    7.742195223   413.9989   5  28   1.0890   1.1606   3.3348   0.1845  -0.8903   0.5513   0.00    0.0
2022/05/29 13:54:10.421    8.851981133    7.742178737   406.1726   5  28   1.1623   1.1620   3.5316   0.1037  -0.9281   0.9101   0.00    0.0
2022/05/29 13:54:11.421    8.851947596    7.742165330   415.8024   5  28   1.1623   1.1620   3.5319   0.1030  -0.9281   0.9102   0.00    0.0
2022/05/29 13:54:12.421    8.851992974    7.742194845   412.9148   5  28   1.1623   1.1620   3.5322   0.1024  -0.9281   0.9103   0.00    0.0
2022/05/29 13:54:13.421    8.851989660    7.742181273   396.2130   5  28   1.1623   1.1620   3.5325   0.1017  -0.9281   0.9104   0.00    0.0
2022/05/29 13:54:14.421    8.851929127    7.742161444   399.8305   5  28   1.1622   1.1620   3.5327   0.1011  -0.9281   0.9105   0.00    0.0
2022/05/29 13:54:15.421    8.851964575    7.742155117   418.2348   5  28   1.1622   1.1620   3.5330   0.1004  -0.9281   0.9106   0.00    0.0
2022/05/29 13:54:16.421    8.852017823    7.742173615   429.1406   5  28   1.1622   1.1620   3.5333   0.0997  -0.9281   0.9107   0.00    0.0
2022/05/29 13:54:17.421    8.852016020    7.742152415   431.0029   5  29   1.0709   1.1604   3.3362   0.1917  -0.8899   0.5513   0.00    0.0
2022/05/29 13:54:18.421    8.852041538    7.742163257   439.9644   5  28   1.1622   1.1619   3.5338   0.0984  -0.9281   0.9109   0.00    0.0
2022/05/29 13:54:19.421    8.851991528    7.742165513   436.5660   5  29   1.0709   1.1604   3.3366   0.1912  -0.8898   0.5514   0.00    0.0
2022/05/29 13:54:20.421    8.852009622    7.742171833   452.0292   5  29   1.0709   1.1604   3.3367   0.1909  -0.8898   0.5514   0.00    0.0
2022/05/29 13:54:21.421    8.852034725    7.742199685   440.3439   5  29   1.0709   1.1604   3.3369   0.1906  -0.8898   0.5514   0.00    0.0
2022/05/29 13:54:22.421    8.852015405    7.742195023   433.8919   5  29   1.0709   1.1604   3.3371   0.1904  -0.8897   0.5515   0.00    0.0
2022/05/29 13:54:23.421    8.851974813    7.742156780   420.5775   5  28   1.1474   1.1937   3.5016   0.3893  -0.7032   0.8609   0.00    0.0
2022/05/29 13:54:24.421    8.851986540    7.742174190   422.7234   5  28   1.1474   1.1937   3.5017   0.3892  -0.7032   0.8609   0.00    0.0
2022/05/29 13:54:25.421    8.852010761    7.742180688   417.7784   5  28   1.1474   1.1937   3.5018   0.3891  -0.7031   0.8609   0.00    0.0
2022/05/29 13:54:26.421    8.851991963    7.742145129   403.2121   5  28   1.1474   1.1937   3.5019   0.3890  -0.7031   0.8608   0.00    0.0
2022/05/29 13:54:27.421    8.851978035    7.742150193   397.4565   5  27   1.2156   1.1939   3.5926   0.3999  -0.6905   1.0309   0.00    0.0
2022/05/29 13:54:28.421    8.852139304    7.742218727   396.4545   5  29   1.0827   1.1918   3.5021   0.3546  -0.7021   0.8647   0.00    0.0
2022/05/29 13:54:29.421    8.852015400    7.742182640   413.5873   5  27   1.2155   1.1939   3.5927   0.3997  -0.6905   1.0307   0.00    0.0
2022/05/29 13:54:30.421    8.852004195    7.742179635   412.5805   5  27   1.2154   1.1939   3.5927   0.3995  -0.6904   1.0306   0.00    0.0
2022/05/29 13:54:31.421    8.852002193    7.742188257   428.5667   5  27   1.2154   1.1939   3.5928   0.3994  -0.6904   1.0305   0.00    0.0
2022/05/29 13:54:32.421    8.852053741    7.742170744   435.7838   5  29   1.0707   1.1603   3.3388   0.1877  -0.8893   0.5519   0.00    0.0
2022/05/29 13:54:33.421    8.852014296    7.742193619   433.2831   5  28   1.1199   1.1605   3.3952   0.1643  -0.8977   0.7117   0.00    0.0
2022/05/29 13:54:34.421    8.851992797    7.742149344   436.8368   5  27   1.1683   1.1937   3.5033   0.3875  -0.7027   0.8678   0.00    0.0
2022/05/29 13:54:35.421    8.851999271    7.742189325   426.0359   5  29   1.0707   1.1603   3.3393   0.1868  -0.8891   0.5520   0.00    0.0
2022/05/29 13:54:36.421    8.852030852    7.742189097   434.5930   5  29   1.0707   1.1603   3.3395   0.1866  -0.8891   0.5521   0.00    0.0
2022/05/29 13:54:37.421    8.852019196    7.742145961   442.3097   5  28   1.1198   1.1605   3.3958   0.1630  -0.8975   0.7116   0.00    0.0
2022/05/29 13:54:38.421    8.852026313    7.742186842   438.8154   5  28   1.0886   1.1604   3.3399   0.1763  -0.8889   0.5511   0.00    0.0
2022/05/29 13:54:39.421    8.852057093    7.742197322   432.9552   5  27   1.1401   1.1607   3.3961   0.1491  -0.8977   0.7156   0.00    0.0
2022/05/29 13:54:40.421    8.852049900    7.742197383   422.2225   5  29   1.0707   1.1602   3.3402   0.1855  -0.8889   0.5522   0.00    0.0
2022/05/29 13:54:41.421    8.852019429    7.742178032   426.8133   5  28   1.1470   1.1937   3.5036   0.3871  -0.7023   0.8602   0.00    0.0
2022/05/29 13:54:42.421    8.852038165    7.742178726   441.1677   5  29   1.0706   1.1602   3.3405   0.1849  -0.8888   0.5523   0.00    0.0
2022/05/29 13:54:43.421    8.852053600    7.742189421   460.1112   5  29   1.0706   1.1602   3.3407   0.1846  -0.8887   0.5524   0.00    0.0
2022/05/29 13:54:44.421    8.852056793    7.742163821   460.3120   5  29   1.0706   1.1602   3.3409   0.1844  -0.8887   0.5524   0.00    0.0
2022/05/29 13:54:45.421    8.852036231    7.742153302   452.6278   5  29   1.0706   1.1602   3.3411   0.1841  -0.8886   0.5524   0.00    0.0
2022/05/29 13:54:46.421    8.852034653    7.742135426   443.0009   5  28   1.1469   1.1937   3.5041   0.3865  -0.7020   0.8600   0.00    0.0
2022/05/29 13:54:47.421    8.852012273    7.742136898   447.8837   5  29   1.0706   1.1602   3.3414   0.1835  -0.8886   0.5525   0.00    0.0
2022/05/29 13:54:48.421    8.851986414    7.742119139   445.1887   5  28   1.1469   1.1937   3.5043   0.3863  -0.7019   0.8600   0.00    0.0
2022/05/29 13:54:49.421    8.852023178    7.742160233   426.3702   5  28   1.1469   1.1937   3.5044   0.3861  -0.7019   0.8599   0.00    0.0
2022/05/29 13:54:50.421    8.852030493    7.742165563   427.6038   5  29   1.0706   1.1601   3.3419   0.1827  -0.8884   0.5526   0.00    0.0
2022/05/29 13:54:51.421    8.852040497    7.742185631   407.6512   5  27   1.1601   1.2164   3.5363   0.4357  -0.7765   0.8103   0.00    0.0
2022/05/29 13:54:52.421    8.852037296    7.742174662   409.8292   5  27   1.1728   1.2299   3.9575   0.4707  -1.0183   0.5367   0.00    0.0
2022/05/29 13:54:53.421    8.852044962    7.742184574   426.3340   5  27   1.1287   1.2152   3.5433   0.3755  -0.7830   0.8568   0.00    0.0
2022/05/29 13:54:54.421    8.852034626    7.742190637   413.1756   5  28   1.0921   1.2138   3.5366   0.3976  -0.7745   0.8193   0.00    0.0
2022/05/29 13:54:55.421    8.852010068    7.742196861   401.1377   5  28   1.0921   1.2137   3.5367   0.3974  -0.7745   0.8191   0.00    0.0
2022/05/29 13:54:56.421    8.851993522    7.742173491   410.5610   5  27   1.1286   1.2152   3.5437   0.3751  -0.7831   0.8565   0.00    0.0
2022/05/29 13:54:57.421    8.852046207    7.742192064   400.9177   5  27   1.1022   1.2496   3.9849   0.4496  -1.0701   0.6296   0.00    0.0
2022/05/29 13:54:58.421    8.851999726    7.742145190   413.3849   5  29   1.0815   1.1919   3.5054   0.3510  -0.7011   0.8610   0.00    0.0
2022/05/29 13:54:59.421    8.851995930    7.742169023   418.0922   5  28   1.0919   1.2137   3.5373   0.3970  -0.7745   0.8185   0.00    0.0
2022/05/29 13:55:00.421    8.851999744    7.742142508   414.0789   5  29   1.0815   1.1919   3.5056   0.3507  -0.7010   0.8608   0.00    0.0
2022/05/29 13:55:01.421    8.851985099    7.742152156   412.9735   5  26   1.1922   1.2617   4.0297   0.5304  -1.1178   0.3507   0.00    0.0
2022/05/29 13:55:02.421    8.851958123    7.742116028   409.1459   5  28   1.0434   1.2121   3.8770   0.3068  -1.1938   0.2589   0.00    0.0
2022/05/29 13:55:03.421    8.852017821    7.742194505   428.3936   5  28   1.0434   1.2121   3.8772   0.3067  -1.1937   0.2584   0.00    0.0
2022/05/29 13:55:04.421    8.851978701    7.742203002   422.0394   5  28   1.0433   1.2121   3.8774   0.3066  -1.1937   0.2579   0.00    0.0
2022/05/29 13:55:05.421    8.851996337    7.742219332   436.7639   5  27   1.0758   1.2145   3.8799   0.2715  -1.1980   0.3183   0.00    0.0
2022/05/29 13:55:06.421    8.851961185    7.742171803   425.0256   5  28   1.0433   1.2120   3.8778   0.3063  -1.1936   0.2570   0.00    0.0
2022/05/29 13:55:07.421    8.852022309    7.742187993   424.2958   5  27   1.0758   1.2145   3.8803   0.2712  -1.1979   0.3178   0.00    0.0
2022/05/29 13:55:08.421    8.852035151    7.742195995   416.1829   5  27   1.0757   1.2145   3.8805   0.2710  -1.1979   0.3176   0.00    0.0
2022/05/29 13:55:09.421    8.852013204    7.742220446   408.9429   5  29   1.0336   1.1818   3.7891   0.2355  -1.0963   0.4274   0.00    0.0
2022/05/29 13:55:10.421    8.852053594    7.742222872   418.9805   5  28   1.0433   1.2120   3.8786   0.3058  -1.1934   0.2551   0.00    0.0
2022/05/29 13:55:11.421    8.852112025    7.742210695   412.7053   5  29   1.0582   1.1687   3.7482   0.0983  -1.0498   0.5422   0.00    0.0
2022/05/29 13:55:12.421    8.852047413    7.742171958   408.1515   5  29   1.0322   1.1858   3.8053   0.2356  -1.1117   0.4224   0.00    0.0
2022/05/29 13:55:13.421    8.852069191    7.742151683   420.4349   5  29   1.0336   1.1817   3.7898   0.2350  -1.0960   0.4262   0.00    0.0
2022/05/29 13:55:14.421    8.852053392    7.742202393   397.4026   5  28   1.0432   1.2119   3.8793   0.3054  -1.1933   0.2533   0.00    0.0
2022/05/29 13:55:15.421    8.852055853    7.742221812   411.1296   5  29   1.0335   1.1816   3.7901   0.2347  -1.0959   0.4257   0.00    0.0
2022/05/29 13:55:16.421    8.852020602    7.742187354   410.0043   5  29   1.0322   1.1857   3.8059   0.2350  -1.1114   0.4215   0.00    0.0
2022/05/29 13:55:17.421    8.852001927    7.742152949   421.5472   5  29   1.0335   1.1816   3.7904   0.2344  -1.0958   0.4252   0.00    0.0
2022/05/29 13:55:18.421    8.851973779    7.742144115   428.6743   5  29   1.0321   1.1857   3.8061   0.2347  -1.1112   0.4211   0.00    0.0
2022/05/29 13:55:19.421    8.851986671    7.742208834   421.8481   5  29   1.0335   1.1816   3.7907   0.2341  -1.0957   0.4246   0.00    0.0
2022/05/29 13:55:20.421    8.851970997    7.742187187   411.6055   5  28   1.0642   1.1885   3.8095   0.1831  -1.1168   0.4656   0.00    0.0
2022/05/29 13:55:21.421    8.851945492    7.742180841   405.0894   5  28   1.0903   1.2172   3.9083   0.3954  -0.9603   0.7140   0.00    0.0
2022/05/29 13:55:22.421    8.851949948    7.742157494   408.3435   5  28   1.0431   1.2117   3.8808   0.3044  -1.1929   0.2496   0.00    0.0
2022/05/29 13:55:23.421    8.851968937    7.742190539   404.2068   5  28   1.0657   1.1843   3.7945   0.1822  -1.1011   0.4681   0.00    0.0
2022/05/29 13:55:24.421    8.851937424    7.742202495   406.3118   5  28   1.0431   1.2117   3.8812   0.3042  -1.1928   0.2486   0.00    0.0
2022/05/29 13:55:25.421    8.851934503    7.742161539   412.8167   5  29   1.0320   1.1856   3.8070   0.2337  -1.1107   0.4195   0.00    0.0
2022/05/29 13:55:26.421    8.852007602    7.742234620   404.5100   5  28   1.0657   1.1843   3.7950   0.1815  -1.1010   0.4676   0.00    0.0
2022/05/29 13:55:27.421    8.851994803    7.742186198   423.5848   5  28   1.0641   1.1885   3.8105   0.1815  -1.1164   0.4648   0.00    0.0
2022/05/29 13:55:28.421    8.852004556    7.742211468   407.3923   5  28   1.0430   1.2116   3.8819   0.3037  -1.1926   0.2467   0.00    0.0
2022/05/29 13:55:29.421    8.851995578    7.742180027   412.9615   5  27   1.0755   1.2141   3.8847   0.2676  -1.1972   0.3130   0.00    0.0
2022/05/29 13:55:30.421    8.852016425    7.742198298   407.0401   5  27   1.0755   1.2141   3.8849   0.2675  -1.1972   0.3128   0.00    0.0
2022/05/29 13:55:31.421    8.852036552    7.742213196   412.3137   5  29   1.0334   1.1813   3.7927   0.2324  -1.0949   0.4212   0.00    0.0
2022/05/29 13:55:32.421    8.852052857    7.742208071   403.0491   5  27   1.0755   1.2141   3.8853   0.2671  -1.1971   0.3123   0.00    0.0
2022/05/29 13:55:33.421    8.852089165    7.742230929   406.3833   5  28   1.0657   1.1841   3.7962   0.1800  -1.1006   0.4665   0.00    0.0
2022/05/29 13:55:34.421    8.852054129    7.742208341   404.1980   5  27   1.0755   1.2140   3.8857   0.2668  -1.1971   0.3118   0.00    0.0
2022/05/29 13:55:35.421    8.852065115    7.742225560   403.5284   5  29   1.0333   1.1812   3.7933   0.2318  -1.0946   0.4201   0.00    0.0
2022/05/29 13:55:36.421    8.851992290    7.742198513   415.7949   5  26   1.0886   1.2155   3.8869   0.2466  -1.1991   0.3326   0.00    0.0
2022/05/29 13:55:37.421    8.852070615    7.742221952   398.9153   5  26   1.0885   1.2155   3.8871   0.2464  -1.1990   0.3323   0.00    0.0
2022/05/29 13:55:38.421    8.852074395    7.742236295   421.1402   5  28   1.0656   1.1841   3.7971   0.1789  -1.1004   0.4657   0.00    0.0
2022/05/29 13:55:39.421    8.852073762    7.742223983   421.9472   5  28   1.0429   1.2114   3.8839   0.3024  -1.1921   0.2413   0.00    0.0
2022/05/29 13:55:40.421    8.852092954    7.742243018   406.4504   5  28   1.0656   1.1840   3.7975   0.1784  -1.1003   0.4654   0.00    0.0
2022/05/29 13:55:41.421    8.852098738    7.742264677   412.6015   5  29   1.0333   1.1811   3.7943   0.2309  -1.0942   0.4184   0.00    0.0
2022/05/29 13:55:42.421    8.852097624    7.742223312   411.4382   5  27   1.0754   1.2139   3.8872   0.2655  -1.1968   0.3100   0.00    0.0
2022/05/29 13:55:43.421    8.852085134    7.742254166   399.0612   5  27   1.0918   1.2170   3.8860   0.3754  -1.2005  -0.3047   0.00    0.0
2022/05/29 13:55:44.421    8.852041989    7.742215830   407.8132   5  27   1.0545   1.2126   3.8855   0.2865  -1.1936   0.2613   0.00    0.0
2022/05/29 13:55:45.421    8.852062596    7.742247973   407.7514   5  26   1.1015   1.2559   3.9965   0.4314  -1.3154  -0.4792   0.00    0.0
2022/05/29 13:55:46.421    8.852056586    7.742215152   418.3245   5  26   1.0884   1.2153   3.8888   0.2449  -1.1986   0.3295   0.00    0.0
2022/05/29 13:55:47.421    8.852039512    7.742245236   409.9123   5  27   1.0888   1.2550   3.9968   0.4402  -1.3146  -0.4872   0.00    0.0
2022/05/29 13:55:48.421    8.852060015    7.742214594   398.2053   5  28   1.0656   1.1839   3.7988   0.1767  -1.0999   0.4641   0.00    0.0
2022/05/29 13:55:49.421    8.852003957    7.742197375   404.1451   5  28   1.0740   1.2120   3.4399   0.3678  -1.0320   0.3562   0.00    0.0
2022/05/29 13:55:50.421    8.851974111    7.742165732   421.2948   5  29   1.0317   1.1852   3.8102   0.2299  -1.1088   0.4137   0.00    0.0
2022/05/29 13:55:51.421    8.851952673    7.742170470   420.8313   5  29   1.0637   1.1968   3.8284   0.3257  -1.1373   0.1671   0.00    0.0
2022/05/29 13:55:52.421    8.851952146    7.742182867   431.5596   5  27   1.0955   1.2281   3.9123   0.3347  -1.2304  -0.1177   0.00    0.0
2022/05/29 13:55:53.421    8.851980728    7.742197177   422.7215   5  27   1.0904   1.2218   3.9042   0.3749  -1.2163  -0.3142   0.00    0.0
2022/05/29 13:55:54.421    8.851974086    7.742182097   420.9151   5  26   1.1145   1.2281   3.9141   0.3342  -1.2303  -0.1882   0.00    0.0
2022/05/29 13:55:55.421    8.852002941    7.742187486   417.2185   5  27   1.0954   1.2281   3.9129   0.3343  -1.2303  -0.1195   0.00    0.0
2022/05/29 13:55:56.421    8.852021171    7.742247380   403.2823   5  29   1.0636   1.1967   3.8291   0.3251  -1.1370   0.1634   0.00    0.0
2022/05/29 13:55:57.421    8.852031972    7.742225801   413.6781   5  27   1.0954   1.2281   3.9133   0.3340  -1.2303  -0.1208   0.00    0.0
2022/05/29 13:55:58.421    8.852027734    7.742229165   418.4036   5  27   1.0954   1.2281   3.9134   0.3339  -1.2303  -0.1214   0.00    0.0
2022/05/29 13:55:59.421    8.852024741    7.742198528   423.7438   5  29   1.0636   1.1967   3.8296   0.3248  -1.1368   0.1611   0.00    0.0
2022/05/29 13:56:00.421    8.851990903    7.742177720   424.6116   5  27   1.0953   1.2280   3.9138   0.3336  -1.2302  -0.1225   0.00    0.0
2022/05/29 13:56:01.421    8.851964474    7.742177785   431.8377   5  26   1.1453   1.2340   4.0281   0.2658  -1.2763   0.5509   0.00    0.0
2022/05/29 13:56:02.421    8.852026252    7.742175195   427.4589   5  28   1.0848   1.1935   3.4024   0.2595  -0.9766   0.5273   0.00    0.0
2022/05/29 13:56:03.421    8.852020869    7.742194154   419.1600   5  27   1.1916   1.1784   3.4563   0.0972  -0.9584   0.7462   0.00    0.0
2022/05/29 13:56:04.421    8.852015841    7.742207400   421.0495   5  28   1.0847   1.1935   3.4028   0.2591  -0.9767   0.5273   0.00    0.0
2022/05/29 13:56:05.421    8.852049684    7.742228595   411.1783   5  27   1.1385   1.1975   3.4936   0.1826  -1.0153   0.7425   0.00    0.0
2022/05/29 13:56:06.421    8.852020495    7.742222174   423.1866   5  28   1.0847   1.1935   3.4033   0.2587  -0.9767   0.5272   0.00    0.0
2022/05/29 13:56:07.421    8.852026715    7.742212186   414.4479   5  28   1.0847   1.1935   3.4035   0.2585  -0.9767   0.5272   0.00    0.0
2022/05/29 13:56:08.421    8.852013341    7.742198611   415.4986   5  28   1.0846   1.1935   3.4038   0.2583  -0.9767   0.5272   0.00    0.0
2022/05/29 13:56:09.421    8.852037812    7.742227977   410.4840   5  29   1.0781   1.1744   3.3634   0.2035  -0.9179   0.5832   0.00    0.0
2022/05/29 13:56:10.421    8.851980199    7.742177128   407.2742   5  27   1.1469   1.2291   3.5573   0.4195  -0.8068   0.8141   0.00    0.0
2022/05/29 13:56:11.421    8.852032665    7.742197362   409.6521   5  27   1.1383   1.1975   3.4948   0.1808  -1.0153   0.7422   0.00    0.0
2022/05/29 13:56:12.421    8.852111316    7.742232956   426.6542   5  26   1.1451   1.2339   4.0295   0.2640  -1.2759   0.5484   0.00    0.0
2022/05/29 13:56:13.421    8.852013093    7.742155507   413.5353   5  28   1.1392   1.2088   3.5240   0.3827  -0.7364   0.8523   0.00    0.0
2022/05/29 13:56:14.421    8.851991505    7.742186378   405.5103   5  25   1.2270   1.2712   4.1559   0.4520  -1.1477   0.8650   0.00    0.0
2022/05/29 13:56:15.421    8.852037496    7.742204548   428.1627   5  28   1.0845   1.1935   3.4054   0.2569  -0.9767   0.5271   0.00    0.0
2022/05/29 13:56:16.421    8.852017370    7.742194477   408.3967   5  25   1.2737   1.2834   4.0552   0.5783  -1.1618   0.0813   0.00    0.0
2022/05/29 13:56:17.421    8.852082766    7.742220723   421.0391   5  28   1.1283   1.1997   3.9048   0.3713  -1.1647  -0.5110   0.00    0.0
2022/05/29 13:56:18.421    8.852085510    7.742193531   425.3249   5  27   1.1385   1.1936   3.4143   0.2689  -0.9791   0.4425   0.00    0.0
2022/05/29 13:56:19.421    8.852001497    7.742157420   411.8799   5  26   1.2287   1.2323   3.5586   0.4622  -0.8073   0.8119   0.00    0.0
2022/05/29 13:56:20.421    8.851974705    7.742161493   402.2460   5  26   1.2286   1.2323   3.5588   0.4621  -0.8073   0.8119   0.00    0.0
2022/05/29 13:56:21.421    8.852050843    7.742193315   420.9545   5  27   1.1385   1.1936   3.4149   0.2682  -0.9790   0.4429   0.00    0.0
2022/05/29 13:56:22.421    8.852051664    7.742203968   423.4274   5  26   1.1989   1.1975   3.5011   0.1885  -1.0164   0.6972   0.00    0.0
2022/05/29 13:56:23.421    8.852087277    7.742251386   414.3282   5  26   1.1988   1.1975   3.5013   0.1882  -1.0164   0.6973   0.00    0.0
2022/05/29 13:56:24.421    8.852034491    7.742231493   414.6432   5  27   1.1384   1.1936   3.4155   0.2675  -0.9790   0.4433   0.00    0.0
2022/05/29 13:56:25.421    8.852046939    7.742207463   418.2286   5  26   1.1988   1.1975   3.5017   0.1874  -1.0164   0.6974   0.00    0.0
2022/05/29 13:56:26.421    8.852048605    7.742213172   423.4642   5  26   1.1988   1.1975   3.5019   0.1871  -1.0164   0.6974   0.00    0.0
2022/05/29 13:56:27.421    8.852040833    7.742183216   431.3013   5  28   1.1241   1.1637   3.4249  -0.1371  -0.9112   0.8217   0.00    0.0
2022/05/29 13:56:28.421    8.852136360    7.742141526   448.9123   5  27   1.1384   1.1936   3.4164   0.2666  -0.9790   0.4438   0.00    0.0
2022/05/29 13:56:29.421    8.851981201    7.742126899   425.9905   5  25   1.3131   1.2331   3.6875   0.4384  -0.8329   1.0511   0.00    0.0
2022/05/29 13:56:30.421    8.851981818    7.742156512   418.0997   5  25   1.3130   1.2331   3.6876   0.4382  -0.8329   1.0510   0.00    0.0
2022/05/29 13:56:31.421    8.852010513    7.742162955   410.8875   5  24   1.3519   1.2846   4.1826   0.5549  -1.1852   0.6847   0.00    0.0
2022/05/29 13:56:32.421    8.852049241    7.742174954   412.3007   5  26   1.1674   1.2319   3.9986   0.3865  -1.2615  -0.5828   0.00    0.0
2022/05/29 13:56:33.421    8.852010650    7.742190220   396.4408   5  24   1.3519   1.2846   4.1824   0.5548  -1.1851   0.6843   0.00    0.0
2022/05/29 13:56:34.421    8.852030048    7.742211184   410.0325   5  24   1.3519   1.2846   4.1824   0.5547  -1.1851   0.6841   0.00    0.0
2022/05/29 13:56:35.421    8.851972688    7.742152537   406.0350   5  25   1.3128   1.2331   3.6881   0.4375  -0.8330   1.0507   0.00    0.0
2022/05/29 13:56:36.421    8.851989891    7.742166476   397.0954   5  25   1.3128   1.2331   3.6881   0.4373  -0.8331   1.0506   0.00    0.0
2022/05/29 13:56:37.421    8.851994122    7.742154760   391.6087   5  25   1.3127   1.2331   3.6882   0.4371  -0.8331   1.0506   0.00    0.0
2022/05/29 13:56:38.421    8.851973521    7.742156858   404.1724   5  25   1.2219   1.2372   4.0977   0.3273  -1.3012  -0.1290   0.00    0.0
2022/05/29 13:56:39.421    8.851969189    7.742157423   409.2889   5  23   1.3792   1.2994   4.1863   0.6005  -1.2003   0.6440   0.00    0.0
2022/05/29 13:56:40.421    8.852030324    7.742173133   422.4974   5  25   1.2738   1.2835   4.0553   0.5764  -1.1606   0.0617   0.00    0.0
2022/05/29 13:56:41.421    8.851994303    7.742159902   414.5651   5  23   1.3792   1.2994   4.1861   0.6003  -1.2002   0.6436   0.00    0.0
2022/05/29 13:56:42.421    8.851998397    7.742147363   414.3345   5  24   1.2982   1.2986   4.0623   0.6177  -1.1807  -0.2372   0.00    0.0
2022/05/29 13:56:43.421    8.852055547    7.742207259   444.3057   5  25   1.2219   1.2371   4.0977   0.3263  -1.3008  -0.1297   0.00    0.0
2022/05/29 13:56:44.421    8.851970256    7.742204716   407.0821   5  23   1.3792   1.2994   4.1858   0.6001  -1.1999   0.6431   0.00    0.0
2022/05/29 13:56:45.421    8.851964982    7.742222303   422.1559   5  24   1.3518   1.2847   4.1815   0.5537  -1.1845   0.6817   0.00    0.0
2022/05/29 13:56:46.421    8.851939363    7.742201985   422.1507   5  23   1.3792   1.2994   4.1856   0.5999  -1.1997   0.6428   0.00    0.0
2022/05/29 13:56:47.421    8.852078614    7.742202518   440.9526   5  25   1.1707   1.1970   3.8891   0.2802  -1.1441  -0.3560   0.00    0.0
2022/05/29 13:56:48.421    8.851982763    7.742174783   425.2098   5  25   1.2374   1.2415   3.9605   0.4812  -1.0241   0.5461   0.00    0.0
2022/05/29 13:56:49.421    8.852040388    7.742211184   445.8233   5  26   1.1464   1.1889   3.8802   0.2132  -1.1277  -0.2530   0.00    0.0
2022/05/29 13:56:50.421    8.851985044    7.742184026   433.9365   5  24   1.2983   1.2985   4.0622   0.6171  -1.1800  -0.2380   0.00    0.0
2022/05/29 13:56:51.421    8.852080985    7.742247851   430.5241   5  25   1.1909   1.2316   4.0041   0.3859  -1.2605  -0.6187   0.00    0.0
2022/05/29 13:56:52.421    8.852054485    7.742231635   441.2562   5  27   1.1381   1.1935   3.4213   0.2609  -0.9789   0.4470   0.00    0.0
2022/05/29 13:56:53.421    8.852067874    7.742184628   457.5140   5  26   1.1591   1.1936   3.4221   0.2563  -0.9785   0.4309   0.00    0.0
2022/05/29 13:56:54.421    8.852061245    7.742198920   458.6143   5  25   1.1845   1.2421   4.0110   0.4233  -1.2787  -0.6311   0.00    0.0
2022/05/29 13:56:55.421    8.851994712    7.742191640   444.7410   5  26   1.1591   1.1936   3.4225   0.2558  -0.9785   0.4310   0.00    0.0
2022/05/29 13:56:56.421    8.852045648    7.742208751   452.3858   5  26   1.1591   1.1936   3.4227   0.2556  -0.9785   0.4310   0.00    0.0
2022/05/29 13:56:57.421    8.851996678    7.742188373   443.8790   5  27   1.1380   1.1935   3.4223   0.2597  -0.9788   0.4476   0.00    0.0
2022/05/29 13:56:58.421    8.852015440    7.742139374   450.2089   5  24   1.3079   1.2410   3.6408   0.5365  -0.7966   0.9238   0.00    0.0
2022/05/29 13:56:59.421    8.852013445    7.742216715   429.3257   5  24   1.2322   1.1867   3.4751   0.1079  -0.9719   0.7596   0.00    0.0
2022/05/29 13:57:00.421    8.852037471    7.742240098   412.2132   5  27   1.1062   1.1657   3.3659   0.2050  -0.8895   0.5260   0.00    0.0
2022/05/29 13:57:01.421    8.852016875    7.742222428   403.2960   5  28   1.0866   1.1593   3.3639   0.1289  -0.8813   0.5489   0.00    0.0
2022/05/29 13:57:02.421    8.852043914    7.742185402   420.6257   5  28   1.0800   1.1790   3.4093   0.2295  -0.9470   0.4758   0.00    0.0
2022/05/29 13:57:03.421    8.852025940    7.742165302   408.2361   5  28   1.0800   1.1789   3.4095   0.2292  -0.9470   0.4758   0.00    0.0
2022/05/29 13:57:04.421    8.852018965    7.742175484   416.4758   5  28   1.0800   1.1789   3.4097   0.2290  -0.9470   0.4758   0.00    0.0
2022/05/29 13:57:05.421    8.852046056    7.742185603   415.4615   5  27   1.1255   1.2117   3.4695   0.3757  -1.0374   0.1525   0.00    0.0
2022/05/29 13:57:06.421    8.852016842    7.742171996   420.3477   5  29   1.0711   1.1553   3.3570   0.1413  -0.8695   0.5558   0.00    0.0
2022/05/29 13:57:07.421    8.852045029    7.742190227   425.4624   5  27   1.1255   1.2117   3.4700   0.3754  -1.0373   0.1524   0.00    0.0
2022/05/29 13:57:08.421    8.852039100    7.742201311   420.2826   5  27   1.1255   1.2117   3.4702   0.3752  -1.0373   0.1523   0.00    0.0
2022/05/29 13:57:09.421    8.852062018    7.742191249   431.1504   5  27   1.1255   1.2117   3.4704   0.3750  -1.0373   0.1523   0.00    0.0
2022/05/29 13:57:10.421    8.852060419    7.742177632   424.1519   5  26   1.1621   1.2131   3.5324   0.3518  -1.0555   0.4622   0.00    0.0
2022/05/29 13:57:11.421    8.851991192    7.742172826   433.1134   5  27   1.0838   1.2121   3.4606   0.3454  -1.0333   0.3496   0.00    0.0
2022/05/29 13:57:12.421    8.852027087    7.742180115   418.2312   5  26   1.1178   1.2137   3.5262   0.3195  -1.0535   0.5539   0.00    0.0
2022/05/29 13:57:13.421    8.852036038    7.742181185   425.5797   5  27   1.1103   1.1885   3.4736   0.2651  -0.9801   0.6204   0.00    0.0
2022/05/29 13:57:14.421    8.852053696    7.742189344   423.0238   5  27   1.1102   1.1885   3.4738   0.2649  -0.9801   0.6202   0.00    0.0
2022/05/29 13:57:15.421    8.852045350    7.742201261   414.2718   5  28   1.1069   1.1694   3.4347   0.2278  -0.9219   0.6551   0.00    0.0
2022/05/29 13:57:16.421    8.852063297    7.742230347   401.3056   5  27   1.1101   1.1885   3.4741   0.2646  -0.9800   0.6198   0.00    0.0
2022/05/29 13:57:17.421    8.852098832    7.742215223   409.3865   5  27   1.1101   1.1885   3.4743   0.2644  -0.9800   0.6196   0.00    0.0
2022/05/29 13:57:18.421    8.852067946    7.742203891   416.0355   5  28   1.0920   1.1885   3.4742   0.2676  -0.9801   0.6263   0.00    0.0
2022/05/29 13:57:19.421    8.852023614    7.742181972   411.7192   5  28   1.0920   1.1885   3.4743   0.2674  -0.9801   0.6261   0.00    0.0
2022/05/29 13:57:20.421    8.852055383    7.742160855   419.6089   5  27   1.1536   1.1783   3.4689   0.0655  -0.9588   0.7642   0.00    0.0
2022/05/29 13:57:21.421    8.852002568    7.742154373   419.5879   5  26   1.1437   1.2333   4.0375   0.2528  -1.2735   0.5322   0.00    0.0
2022/05/29 13:57:22.421    8.852050471    7.742163355   412.0413   5  27   1.1013   1.2231   3.9978   0.3356  -1.2378   0.3292   0.00    0.0
2022/05/29 13:57:23.421    8.852044062    7.742154113   421.5811   5  28   1.0933   1.1979   3.9225   0.2828  -1.1580   0.4581   0.00    0.0
2022/05/29 13:57:24.421    8.852046389    7.742139002   419.2163   5  28   1.0933   1.1979   3.9226   0.2827  -1.1580   0.4577   0.00    0.0
2022/05/29 13:57:25.421    8.852038503    7.742150079   412.0616   5  28   1.0918   1.1884   3.4753   0.2664  -0.9799   0.6252   0.00    0.0
2022/05/29 13:57:26.421    8.852022445    7.742163674   410.8848   5  28   1.0918   1.1884   3.4754   0.2662  -0.9799   0.6250   0.00    0.0
2022/05/29 13:57:27.421    8.852013724    7.742187075   419.0422   5  29   1.0857   1.1691   3.4344   0.2151  -0.9201   0.6721   0.00    0.0
2022/05/29 13:57:28.421    8.852024095    7.742170569   416.0022   5  26   1.1200   1.2230   4.0001   0.3359  -1.2375   0.2834   0.00    0.0
2022/05/29 13:57:29.421    8.852069382    7.742165829   427.7480   5  27   1.1011   1.2230   3.9982   0.3349  -1.2372   0.3253   0.00    0.0
2022/05/29 13:57:30.421    8.852013168    7.742168184   411.7553   5  28   1.1395   1.1692   3.4385   0.2214  -0.9207   0.6298   0.00    0.0
2022/05/29 13:57:31.421    8.852017363    7.742182229   424.1960   5  28   1.0916   1.1884   3.4762   0.2654  -0.9798   0.6243   0.00    0.0
2022/05/29 13:57:32.421    8.851986465    7.742172402   415.6703   5  27   1.1469   1.1885   3.4810   0.2769  -0.9814   0.5710   0.00    0.0
2022/05/29 13:57:33.421    8.852050123    7.742184599   423.2721   5  28   1.0833   1.1959   3.8511   0.3278  -1.1351  -0.2294   0.00    0.0
2022/05/29 13:57:34.421    8.852032818    7.742164345   421.8955   5  28   1.0709   1.2203   3.9172   0.3638  -1.2106  -0.3176   0.00    0.0
2022/05/29 13:57:35.421    8.851984215    7.742120490   438.4844   5  27   1.1151   1.1982   3.9301   0.2955  -1.1607   0.3922   0.00    0.0
2022/05/29 13:57:36.421    8.852000898    7.742143801   429.6476   5  28   1.0709   1.2203   3.9175   0.3636  -1.2105  -0.3183   0.00    0.0
2022/05/29 13:57:37.421    8.851978377    7.742132239   431.5905   5  28   1.0709   1.2202   3.9176   0.3635  -1.2104  -0.3187   0.00    0.0
2022/05/29 13:57:38.421    8.852042975    7.742209519   401.9233   5  28   1.0709   1.2202   3.9178   0.3634  -1.2103  -0.3191   0.00    0.0
2022/05/29 13:57:39.421    8.852018802    7.742234554   400.8154   5  27   1.1009   1.2228   3.9988   0.3339  -1.2365   0.3197   0.00    0.0
2022/05/29 13:57:40.421    8.852028425    7.742206403   405.5885   5  26   1.1164   1.2557   4.1017   0.4054  -1.3376  -0.2599   0.00    0.0
2022/05/29 13:57:41.421    8.852059635    7.742207337   413.1986   5  27   1.1008   1.2228   3.9989   0.3337  -1.2363   0.3185   0.00    0.0
2022/05/29 13:57:42.421    8.852055627    7.742199748   406.8669   5  29   1.0623   1.1951   3.8435   0.3139  -1.1300   0.0087   0.00    0.0
2022/05/29 13:57:43.421    8.852010837    7.742174956   419.5473   5  28   1.0929   1.1976   3.9235   0.2806  -1.1563   0.4498   0.00    0.0
2022/05/29 13:57:44.421    8.852072502    7.742216040   400.4155   5  28   1.0708   1.2201   3.9185   0.3628  -1.2100  -0.3215   0.00    0.0
2022/05/29 13:57:45.421    8.852071757    7.742222402   417.6882   5  28   1.0708   1.2201   3.9187   0.3627  -1.2099  -0.3218   0.00    0.0
2022/05/29 13:57:46.421    8.852089386    7.742200935   398.9280   5  29   1.0622   1.1951   3.8440   0.3134  -1.1297  -0.0310   0.00    0.0
2022/05/29 13:57:47.421    8.852081576    7.742208556   411.2714   5  28   1.0708   1.2201   3.9189   0.3625  -1.2098  -0.3226   0.00    0.0
2022/05/29 13:57:48.421    8.852047738    7.742208947   398.7892   5  30   1.0247   1.1631   3.7615   0.1463  -1.0288   0.4693   0.00    0.0
2022/05/29 13:57:49.421    8.852024467    7.742203961   411.6034   5  30   1.0247   1.1631   3.7616   0.1461  -1.0286   0.4691   0.00    0.0
2022/05/29 13:57:50.421    8.852073793    7.742234934   399.0301   5  29   1.0622   1.1950   3.8444   0.3130  -1.1294  -0.0446   0.00    0.0
2022/05/29 13:57:51.421    8.852036350    7.742197666   407.1068   5  30   1.0247   1.1631   3.7618   0.1456  -1.0284   0.4686   0.00    0.0
2022/05/29 13:57:52.421    8.852019371    7.742213594   400.5980   5  29   1.0622   1.1950   3.8447   0.3128  -1.1292  -0.0499   0.00    0.0
2022/05/29 13:57:53.421    8.852014885    7.742187613   412.6725   5  29   1.0622   1.1950   3.8448   0.3127  -1.1292  -0.0524   0.00    0.0
2022/05/29 13:57:54.421    8.851992896    7.742188831   416.1151   5  29   1.0657   1.1636   3.8206   0.0999  -1.0403   0.6435   0.00    0.0
2022/05/29 13:57:55.421    8.851999064    7.742197139   415.0345   5  29   1.0621   1.1949   3.8450   0.3125  -1.1290  -0.0571   0.00    0.0
2022/05/29 13:57:56.421    8.851962175    7.742176179   427.8856   5  30   1.0247   1.1630   3.7622   0.1445  -1.0279   0.4674   0.00    0.0
2022/05/29 13:57:57.421    8.851981263    7.742161129   429.4136   5  27   1.1557   1.2041   3.9181   0.3115  -1.1686  -0.4460   0.00    0.0
2022/05/29 13:57:58.421    8.851963286    7.742166967   424.7703   5  28   1.0857   1.2019   3.8592   0.2613  -1.1473   0.2633   0.00    0.0
2022/05/29 13:57:59.421    8.851996271    7.742157057   424.3635   5  28   1.1285   1.1975   3.9079   0.3577  -1.1531  -0.5192   0.00    0.0
2022/05/29 13:58:00.421    8.851997475    7.742185162   409.7919   5  28   1.1257   1.1643   3.8591   0.1571  -1.0504   0.4636   0.00    0.0
2022/05/29 13:58:01.421    8.851960905    7.742182347   424.4465   5  28   1.0926   1.1973   3.9243   0.2786  -1.1547   0.4423   0.00    0.0
2022/05/29 13:58:02.421    8.852005559    7.742215266   413.8243   5  28   1.0925   1.1973   3.9244   0.2785  -1.1546   0.4418   0.00    0.0
2022/05/29 13:58:03.421    8.852015621    7.742207881   413.6774   5  28   1.1257   1.1642   3.8589   0.1563  -1.0499   0.4629   0.00    0.0
2022/05/29 13:58:04.421    8.852039712    7.742212076   405.5640   5  28   1.0925   1.1972   3.9245   0.2783  -1.1545   0.4409   0.00    0.0
2022/05/29 13:58:05.421    8.852036429    7.742187283   417.8370   5  29   1.0656   1.1635   3.8208   0.0966  -1.0390   0.6405   0.00    0.0
2022/05/29 13:58:06.421    8.852055214    7.742212785   413.2593   5  28   1.0729   1.1789   3.8711   0.1821  -1.0943   0.5759   0.00    0.0
2022/05/29 13:58:07.421    8.852048476    7.742231654   409.0148   5  29   1.0655   1.1634   3.8208   0.0960  -1.0388   0.6399   0.00    0.0
2022/05/29 13:58:08.421    8.852024197    7.742200114   411.1509   5  28   1.0924   1.1972   3.9246   0.2779  -1.1541   0.4392   0.00    0.0
2022/05/29 13:58:09.421    8.852079902    7.742225408   397.6190   5  28   1.0924   1.1972   3.9247   0.2778  -1.1540   0.4388   0.00    0.0
2022/05/29 13:58:10.421    8.852059102    7.742206704   399.4305   5  29   1.0655   1.1634   3.8209   0.0951  -1.0384   0.6391   0.00    0.0
2022/05/29 13:58:11.421    8.852087917    7.742220645   402.5705   5  29   1.0654   1.1634   3.8209   0.0948  -1.0383   0.6388   0.00    0.0
2022/05/29 13:58:12.421    8.852074845    7.742200191   396.4331   5  28   1.0924   1.1971   3.9248   0.2774  -1.1537   0.4375   0.00    0.0
2022/05/29 13:58:13.421    8.852068309    7.742203517   397.6360   5  30   1.0245   1.1627   3.7636   0.1408  -1.0261   0.4634   0.00    0.0
2022/05/29 13:58:14.421    8.852068226    7.742172713   408.9912   5  30   1.0245   1.1627   3.7637   0.1406  -1.0260   0.4631   0.00    0.0
2022/05/29 13:58:15.421    8.852048853    7.742218352   398.2654   5  29   1.0841   1.1688   3.4412   0.2058  -0.9181   0.6647   0.00    0.0
2022/05/29 13:58:16.421    8.852006639    7.742157155   402.9509   5  30   1.0609   1.1428   3.3864  -0.1115  -0.8322   0.7605   0.00    0.0
2022/05/29 13:58:17.421    8.852007442    7.742185537   405.5372   5  26   1.1929   1.2278   4.3244   0.2352  -1.3086   0.9195   0.00    0.0
2022/05/29 13:58:18.421    8.851996614    7.742172390   427.3766   5  28   1.1851   1.1711   3.6937   0.0865  -0.9693   1.0409   0.00    0.0
2022/05/29 13:58:19.421    8.851959355    7.742177834   422.3679   5  28   1.1624   1.1683   4.1493  -0.2053  -1.1191   1.0758   0.00    0.0
2022/05/29 13:58:20.421    8.851994993    7.742162693   427.3722   5  29   1.1619   1.1454   3.6475  -0.2224  -0.8928   1.1043   0.00    0.0
2022/05/29 13:58:21.421    8.851998233    7.742148356   425.4863   5  30   1.1011   1.1447   3.5600  -0.1860  -0.8746   0.9615   0.00    0.0
2022/05/29 13:58:22.421    8.851975221    7.742158417   427.5728   5  29   1.1025   1.1670   4.0451  -0.1480  -1.0957   0.9034   0.00    0.0
2022/05/29 13:58:23.421    8.852002154    7.742147607   443.4509   5  31   1.0185   1.1424   3.3374  -0.0683  -0.8219   0.6366   0.00    0.0
2022/05/29 13:58:24.421    8.852043221    7.742230226   406.6811   5  29   1.0618   1.1945   3.8483   0.3094  -1.1268  -0.1039   0.00    0.0
2022/05/29 13:58:25.421    8.852039209    7.742226382   404.2983   5  29   1.1025   1.1669   4.0455  -0.1488  -1.0955   0.9030   0.00    0.0
2022/05/29 13:58:26.421    8.851969022    7.742159086   438.9493   5  31   1.0184   1.1424   3.3379  -0.0699  -0.8217   0.6364   0.00    0.0
2022/05/29 13:58:27.421    8.851945909    7.742179716   417.5888   5  29   1.0371   1.1731   3.7728   0.2104  -1.0433   0.4146   0.00    0.0
2022/05/29 13:58:28.421    8.851925427    7.742165726   430.2011   5  29   1.0651   1.1631   3.8211   0.0894  -1.0363   0.6340   0.00    0.0
2022/05/29 13:58:29.421    8.851972470    7.742192488   413.8060   5  27   1.1068   1.1748   3.8364   0.2199  -1.0597   0.5470   0.00    0.0
2022/05/29 13:58:30.421    8.851927297    7.742159787   409.6376   5  30   1.0605   1.1427   3.3880  -0.1161  -0.8312   0.7586   0.00    0.0
2022/05/29 13:58:31.421    8.851993007    7.742200906   377.1638   5  30   1.0300   1.1514   3.3416   0.1300  -0.8335   0.6187   0.00    0.0
2022/05/29 13:58:32.421    8.851976660    7.742199655   396.6317   5  31   1.0183   1.1424   3.3388  -0.0731  -0.8213   0.6359   0.00    0.0
