% program   : RTKPOST ver.demo5 b34g
% inp file  : C:\Users\Abdullateef\Documents\PHD\Research on Precision Agriculture Navigation Technology\nav data\sensorlogSlim\gnss_log_2022_05_29_14_51_17.22o
% inp file  : C:\Users\Abdullateef\Documents\PHD\Research on Precision Agriculture Navigation Technology\nav data\sensorlogSlim\BRDM00DLR_S_20221490000_01D_MN.rnx\BRDM00DLR_S_20221490000_01D_MN.rnx
% obs start : 2022/05/29 13:51:35.4 GPST (week2212  49895.4s)
% obs end   : 2022/05/29 14:52:19.4 GPST (week2212  53539.4s)
% pos mode  : Single
% elev mask : 15.0 deg
% ionos opt : OFF
% tropo opt : Saastamoinen
% ephemeris : Broadcast
% navi sys  : GPS GLONASS Galileo BDS
%
% (lat/lon/height=WGS84/ellipsoidal,Q=1:fix,2:float,3:sbas,4:dgps,5:single,6:ppp,ns=# of satellites)
%  GPST                  latitude(deg) longitude(deg)  height(m)   Q  ns   sdn(m)   sde(m)   sdu(m)  sdne(m)  sdeu(m)  sdun(m) age(s)  ratio
2022/05/29 13:51:35.421    8.851945202    7.742150399   407.2258   5  28   1.9184   2.2149   6.6648   0.2908  -2.0304   1.2644   0.00    0.0
2022/05/29 13:51:36.421    8.851960879    7.742153267   411.0310   5  30   1.9103   2.1039   6.0403  -0.1146  -1.5139   1.3667   0.00    0.0
2022/05/29 13:51:37.421    8.851929404    7.742131189   419.8530   5  28   1.9183   2.2148   6.6653   0.2899  -2.0302   1.2641   0.00    0.0
2022/05/29 13:51:38.421    8.851948246    7.742131012   417.9919   5  28   1.9183   2.2148   6.6656   0.2894  -2.0301   1.2639   0.00    0.0
2022/05/29 13:51:39.421    8.851942715    7.742110325   411.7725   5  28   1.9182   2.3274   6.2080   0.2431  -1.4811   1.2841   0.00    0.0
2022/05/29 13:51:40.421    8.851952639    7.742146926   410.7436   5  29   1.8616   2.2141   6.6642   0.3290  -2.0277   1.2336   0.00    0.0
2022/05/29 13:51:41.421    8.852004591    7.742124302   412.2023   5  30   1.8614   2.1598   6.1561   0.3102  -1.6933   1.2582   0.00    0.0
2022/05/29 13:51:42.421    8.851960439    7.742175691   404.4830   5  30   1.8614   2.1598   6.1564   0.3097  -1.6932   1.2582   0.00    0.0
2022/05/29 13:51:43.421    8.851970224    7.742154210   397.6251   5  30   1.8613   2.1598   6.1567   0.3092  -1.6931   1.2583   0.00    0.0
2022/05/29 13:51:44.421    8.851967750    7.742153996   409.3077   5  30   1.8613   2.1597   6.1571   0.3087  -1.6930   1.2583   0.00    0.0
2022/05/29 13:51:45.421    8.851979456    7.742189934   407.0850   5  28   1.9249   2.2984   6.3409   0.4454  -2.0139   1.1880   0.00    0.0
2022/05/29 13:51:46.421    8.851980627    7.742175856   402.1806   5  30   1.8613   2.1597   6.1578   0.3077  -1.6928   1.2584   0.00    0.0
2022/05/29 13:51:47.421    8.852008282    7.742178027   419.3745   5  30   1.8612   2.1597   6.1581   0.3071  -1.6927   1.2585   0.00    0.0
2022/05/29 13:51:48.421    8.852015237    7.742152480   399.8003   5  28   1.9179   2.2146   6.6685   0.2846  -2.0290   1.2622   0.00    0.0
2022/05/29 13:51:49.421    8.851954369    7.742114548   414.0214   5  29   1.8613   2.2139   6.6670   0.3250  -2.0268   1.2336   0.00    0.0
2022/05/29 13:51:50.421    8.851974928    7.742186945   431.5547   5  28   1.9367   2.3095   6.1911   0.4733  -1.7343   1.1170   0.00    0.0
2022/05/29 13:51:51.421    8.851976668    7.742152417   431.1651   5  29   1.9083   2.2621   6.1787   0.6140  -1.7865   1.1743   0.00    0.0
2022/05/29 13:51:52.421    8.852062681    7.742170632   422.3967   5  28   1.9683   2.2622   6.1805   0.6046  -1.7873   1.2017   0.00    0.0
2022/05/29 13:51:53.421    8.852047883    7.742190468   414.7561   5  28   1.9683   2.2621   6.1808   0.6044  -1.7871   1.2016   0.00    0.0
2022/05/29 13:51:54.421    8.852058747    7.742190396   428.2385   5  28   1.9827   2.1603   6.1814   0.2723  -1.6967   1.1887   0.00    0.0
2022/05/29 13:51:55.421    8.852024314    7.742166579   426.2773   5  29   2.0036   2.1626   6.4965   0.0826  -1.7604   1.7649   0.00    0.0
2022/05/29 13:51:56.421    8.852046684    7.742186770   421.6126   5  27   2.0152   2.2832   6.8986  -0.3461  -1.7968   1.8563   0.00    0.0
2022/05/29 13:51:57.421    8.852038202    7.742169107   417.5186   5  29   1.9906   2.1123   6.7827  -0.3178  -1.4649   1.8649   0.00    0.0
2022/05/29 13:51:58.421    8.852005414    7.742130963   407.5157   5  28   2.0140   2.2708   6.5626  -0.3695  -1.9324   1.8179   0.00    0.0
2022/05/29 13:51:59.421    8.852044022    7.742170334   419.8035   5  29   2.0035   2.1625   6.4987   0.0720  -1.7604   1.7656   0.00    0.0
2022/05/29 13:52:00.421    8.852025137    7.742163647   429.2346   5  28   2.0140   2.2708   6.5636  -0.3707  -1.9324   1.8183   0.00    0.0
2022/05/29 13:52:01.421    8.852013135    7.742150048   428.5009   5  28   2.0715   2.1625   6.5089   0.0970  -1.7613   1.7137   0.00    0.0
2022/05/29 13:52:02.421    8.852003982    7.742146714   416.1619   5  27   2.0827   2.2707   6.5728  -0.3749  -1.9320   1.7704   0.00    0.0
2022/05/29 13:52:03.421    8.851978336    7.742162311   402.1347   5  28   2.0715   2.1625   6.5099   0.0921  -1.7613   1.7143   0.00    0.0
2022/05/29 13:52:04.421    8.852068147    7.742156455   413.3825   5  28   2.0139   2.2707   6.5657  -0.3730  -1.9324   1.8190   0.00    0.0
2022/05/29 13:52:05.421    8.852011406    7.742174752   414.6408   5  28   2.0715   2.1625   6.5108   0.0869  -1.7613   1.7149   0.00    0.0
2022/05/29 13:52:06.421    8.852047288    7.742184117   430.4631   5  27   2.0875   2.2586   6.5178  -0.3706  -1.8714   1.7844   0.00    0.0
2022/05/29 13:52:07.421    8.852079884    7.742201704   430.7958   5  29   2.0034   2.1625   6.5029   0.0440  -1.7604   1.7670   0.00    0.0
2022/05/29 13:52:08.421    8.852031675    7.742183562   418.6770   5  27   2.0656   2.2904   6.6288   0.1796  -1.9243   1.6085   0.00    0.0
2022/05/29 13:52:09.421    8.852032805    7.742216646   405.5836   5  29   2.0033   2.1624   6.5039   0.0335  -1.7604   1.7674   0.00    0.0
2022/05/29 13:52:10.421    8.852005842    7.742149938   415.9540   5  28   1.9550   2.2412   6.3189   0.5613  -1.9089   0.9397   0.00    0.0
2022/05/29 13:52:11.421    8.851950929    7.742091839   426.4995   5  29   2.0077   2.1523   6.4531   0.0748  -1.7029   1.7796   0.00    0.0
2022/05/29 13:52:12.421    8.852013252    7.742154212   411.1332   5  27   2.1721   2.2445   6.8538   0.3826  -1.9930   2.0133   0.00    0.0
2022/05/29 13:52:13.421    8.851991331    7.742176931   412.1691   5  28   2.0316   2.2433   6.6250   0.4489  -1.9609   1.6441   0.00    0.0
2022/05/29 13:52:14.421    8.852009173    7.742165992   417.2189   5  28   1.9882   2.1653   6.1890   0.1025  -1.7019   1.2093   0.00    0.0
2022/05/29 13:52:15.421    8.851952254    7.742188625   403.4921   5  26   2.1066   2.4277   6.9972   0.5434  -2.4318   1.5200   0.00    0.0
2022/05/29 13:52:16.421    8.852016444    7.742152513   423.0342   5  27   1.9551   2.3494   6.3488   0.5402  -2.0149   0.9498   0.00    0.0
2022/05/29 13:52:17.421    8.851943110    7.742194414   397.5669   5  28   2.0315   2.2432   6.6276   0.4468  -1.9613   1.6447   0.00    0.0
2022/05/29 13:52:18.421    8.852022462    7.742144715   417.2531   5  28   2.0032   2.3147   6.8036  -0.0491  -2.1761   1.7689   0.00    0.0
2022/05/29 13:52:19.421    8.852058025    7.742170678   416.7896   5  27   2.1106   2.2487   6.6421   0.3286  -1.9783   1.7160   0.00    0.0
2022/05/29 13:52:20.421    8.852035756    7.742177575   409.0722   5  26   2.1065   2.4275   7.0006   0.5401  -2.4323   1.5222   0.00    0.0
2022/05/29 13:52:21.421    8.852044493    7.742178163   424.7100   5  26   2.0394   2.6741   7.2318   0.2223  -2.8264   1.7094   0.00    0.0
2022/05/29 13:52:22.421    8.852057582    7.742208331   415.9935   5  27   2.0320   2.4260   6.9840   0.4935  -2.4239   1.6117   0.00    0.0
2022/05/29 13:52:23.421    8.852014760    7.742182852   408.9020   5  25   2.1137   2.6753   7.2504   0.3057  -2.8339   1.6274   0.00    0.0
2022/05/29 13:52:24.421    8.851983558    7.742200886   412.6922   5  25   2.1948   2.4337   7.0168   0.4254  -2.4484   1.6097   0.00    0.0
2022/05/29 13:52:25.421    8.852037377    7.742210658   390.7313   5  28   1.9232   2.2638   6.1954  -0.2082  -1.7944   1.3184   0.00    0.0
2022/05/29 13:52:26.421    8.852010045    7.742200319   415.4638   5  28   1.9280   2.2972   6.3752   0.4748  -2.0150   1.0484   0.00    0.0
2022/05/29 13:52:27.421    8.851959416    7.742126396   423.6626   5  27   2.1584   2.1694   6.5359  -0.3306  -1.7827   1.7965   0.00    0.0
2022/05/29 13:52:28.421    8.852030125    7.742189978   426.8157   5  29   1.9201   2.1590   6.1896   0.2973  -1.6909   1.1686   0.00    0.0
2022/05/29 13:52:29.421    8.851986409    7.742185193   421.7779   5  28   1.9884   2.1651   6.1934   0.0651  -1.7008   1.2141   0.00    0.0
2022/05/29 13:52:30.421    8.851981331    7.742162230   431.1537   5  27   1.9280   2.4672   6.4439   0.4604  -2.2128   1.0553   0.00    0.0
2022/05/29 13:52:31.421    8.852016386    7.742108109   438.4890   5  27   2.1497   2.1679   6.3624  -0.2941  -1.7471   1.6320   0.00    0.0
2022/05/29 13:52:32.421    8.851991094    7.742197735   418.9837   5  28   1.9210   2.2561   6.2096   0.2196  -1.7817   1.1814   0.00    0.0
2022/05/29 13:52:33.421    8.852015293    7.742200377   399.5504   5  28   1.9210   2.2561   6.2098   0.2187  -1.7816   1.1816   0.00    0.0
2022/05/29 13:52:34.421    8.851980378    7.742150742   412.8352   5  28   1.9279   2.2970   6.3773   0.4706  -2.0140   1.0508   0.00    0.0
2022/05/29 13:52:35.421    8.852005653    7.742178512   392.7160   5  26   2.1735   2.2805   6.6068  -0.5395  -1.9589   1.8644   0.00    0.0
2022/05/29 13:52:36.421    8.851984200    7.742153044   395.1319   5  30   1.8600   2.1589   6.1745   0.2809  -1.6881   1.2606   0.00    0.0
2022/05/29 13:52:37.421    8.852005951    7.742157757   408.9873   5  28   2.0311   2.2117   6.5344   0.6129  -1.3554   1.7569   0.00    0.0
2022/05/29 13:52:38.421    8.852029064    7.742139673   399.0980   5  28   2.1536   2.1139   6.4273  -0.4830  -1.6120   1.9503   0.00    0.0
2022/05/29 13:52:39.421    8.852047485    7.742159352   414.3336   5  29   2.0664   2.1057   6.4083  -0.3482  -1.5829   1.8708   0.00    0.0
2022/05/29 13:52:40.421    8.852021115    7.742133412   439.3832   5  29   2.0663   2.1057   6.4087  -0.3487  -1.5829   1.8708   0.00    0.0
2022/05/29 13:52:41.421    8.852027599    7.742182377   414.4829   5  26   2.2473   2.1709   6.5519  -0.4096  -1.7910   1.8599   0.00    0.0
2022/05/29 13:52:42.421    8.851994172    7.742132295   414.4745   5  27   2.2510   2.2118   7.0618   0.5987  -1.3707   2.3836   0.00    0.0
2022/05/29 13:52:43.421    8.851956424    7.742134704   401.9812   5  26   2.5046   2.1594   7.0203   0.4849  -1.1644   2.6142   0.00    0.0
2022/05/29 13:52:44.421    8.852000325    7.742208136   410.1582   5  28   2.0717   2.1631   6.5298  -0.2198  -1.7664   1.8201   0.00    0.0
2022/05/29 13:52:45.421    8.851945820    7.742155372   412.6958   5  27   2.3770   2.1553   6.9716   0.5819  -1.1163   2.4857   0.00    0.0
2022/05/29 13:52:46.421    8.852042600    7.742153747   423.3973   5  29   2.0677   2.1138   6.4288  -0.4781  -1.6114   1.9223   0.00    0.0
2022/05/29 13:52:47.421    8.852053544    7.742187651   416.3899   5  27   2.2934   2.2052   6.9982   0.6809  -1.2741   2.3655   0.00    0.0
2022/05/29 13:52:48.421    8.852015467    7.742204398   411.6817   5  26   2.5045   2.1594   7.0220   0.4821  -1.1648   2.6146   0.00    0.0
2022/05/29 13:52:49.421    8.852201687    7.742206610   430.2011   5  30   1.9899   2.1056   6.4112  -0.3541  -1.5826   1.8493   0.00    0.0
2022/05/29 13:52:50.421    8.852015580    7.742140729   415.1884   5  28   2.2438   2.1536   6.9619   0.5207  -1.1307   2.4232   0.00    0.0
2022/05/29 13:52:51.421    8.852051994    7.742170219   405.9115   5  28   2.2437   2.1536   6.9621   0.5203  -1.1307   2.4230   0.00    0.0
2022/05/29 13:52:52.421    8.852005290    7.742188831   395.2734   5  27   2.2853   2.2143   7.0472   0.6683  -1.3552   2.3528   0.00    0.0
2022/05/29 13:52:53.421    8.851976407    7.742144952   409.8017   5  27   2.3764   2.1552   6.9735   0.5787  -1.1162   2.4851   0.00    0.0
2022/05/29 13:52:54.421    8.851976927    7.742128783   415.8120   5  28   2.1420   2.1056   6.4193  -0.3723  -1.5808   1.8361   0.00    0.0
2022/05/29 13:52:55.421    8.852006833    7.742187918   416.9742   5  29   1.9724   2.1024   6.0781  -0.2033  -1.5024   1.2828   0.00    0.0
2022/05/29 13:52:56.421    8.852075101    7.742173281   423.0515   5  30   1.9899   2.1055   6.4146  -0.3576  -1.5823   1.8502   0.00    0.0
2022/05/29 13:52:57.421    8.851975832    7.742122025   417.3557   5  28   2.1420   2.1056   6.4206  -0.3740  -1.5807   1.8364   0.00    0.0
2022/05/29 13:52:58.421    8.852003525    7.742174750   424.5884   5  28   2.0484   2.1095   6.0839  -0.3722  -1.5162   1.3350   0.00    0.0
2022/05/29 13:52:59.421    8.852006330    7.742120721   427.9994   5  29   1.9723   2.1023   6.0792  -0.2065  -1.5018   1.2827   0.00    0.0
2022/05/29 13:53:00.421    8.852012576    7.742159717   419.5535   5  30   1.9072   2.1022   6.0670  -0.1913  -1.5033   1.3567   0.00    0.0
2022/05/29 13:53:01.421    8.852018846    7.742164343   437.7782   5  29   1.9723   2.1022   6.0797  -0.2080  -1.5015   1.2826   0.00    0.0
2022/05/29 13:53:02.421    8.852055717    7.742171603   419.5072   5  30   1.9072   2.1022   6.0676  -0.1927  -1.5030   1.3564   0.00    0.0
2022/05/29 13:53:03.421    8.852021664    7.742180280   418.7743   5  30   1.9071   2.1022   6.0679  -0.1934  -1.5029   1.3563   0.00    0.0
2022/05/29 13:53:04.421    8.852000080    7.742182192   419.4491   5  28   1.9813   2.1591   6.1997   0.2210  -1.6880   1.1901   0.00    0.0
2022/05/29 13:53:05.421    8.852019222    7.742143570   405.5795   5  28   2.0707   2.1629   6.5396  -0.2379  -1.7660   1.8208   0.00    0.0
2022/05/29 13:53:06.421    8.852016567    7.742187732   408.0261   5  28   2.1419   2.1055   6.4244  -0.3790  -1.5803   1.8375   0.00    0.0
2022/05/29 13:53:07.421    8.852015547    7.742133878   416.1350   5  29   1.9722   2.1021   6.0813  -0.2126  -1.5007   1.2825   0.00    0.0
2022/05/29 13:53:08.421    8.851977200    7.742116107   438.4765   5  30   1.9070   2.1021   6.0694  -0.1970  -1.5022   1.3557   0.00    0.0
2022/05/29 13:53:09.421    8.852023110    7.742164922   436.1107   5  29   1.9722   2.1021   6.0818  -0.2141  -1.5004   1.2824   0.00    0.0
2022/05/29 13:53:10.421    8.852012496    7.742164891   425.2780   5  29   2.0197   2.1535   6.4368   0.5218  -1.1194   1.8063   0.00    0.0
2022/05/29 13:53:11.421    8.852026169    7.742157863   438.2242   5  31   1.8447   2.1020   6.0700  -0.2127  -1.5016   1.3664   0.00    0.0
2022/05/29 13:53:12.421    8.852024734    7.742159364   451.3994   5  28   2.0596   2.2142   6.5333   0.6641  -1.3512   1.7075   0.00    0.0
2022/05/29 13:53:13.421    8.852001864    7.742163640   411.8102   5  29   2.0650   2.1053   6.4239  -0.3651  -1.5816   1.8710   0.00    0.0
2022/05/29 13:53:14.421    8.851992170    7.742152717   411.6075   5  30   1.9067   2.1020   6.0713  -0.2011  -1.5014   1.3549   0.00    0.0
2022/05/29 13:53:15.421    8.851959401    7.742145381   402.3150   5  29   2.0649   2.1052   6.4248  -0.3660  -1.5815   1.8711   0.00    0.0
2022/05/29 13:53:16.421    8.852018008    7.742168933   424.9272   5  30   1.8590   2.1582   6.1872   0.2577  -1.6841   1.2619   0.00    0.0
2022/05/29 13:53:17.421    8.851981404    7.742146080   421.6980   5  31   1.8446   2.1019   6.0718  -0.2165  -1.5008   1.3665   0.00    0.0
2022/05/29 13:53:18.421    8.851955473    7.742192277   409.7478   5  30   1.9897   2.1052   6.4250  -0.3682  -1.5814   1.8531   0.00    0.0
2022/05/29 13:53:19.421    8.851981781    7.742143984   431.5563   5  31   1.8445   2.1018   6.0724  -0.2178  -1.5005   1.3664   0.00    0.0
2022/05/29 13:53:20.421    8.851970886    7.742165723   403.2794   5  29   2.0020   2.1618   6.5401  -0.1657  -1.7603   1.7791   0.00    0.0
2022/05/29 13:53:21.421    8.851988184    7.742165088   417.5778   5  29   1.9644   2.2116   6.5343   0.6098  -1.3495   1.7102   0.00    0.0
2022/05/29 13:53:22.421    8.851960524    7.742173289   409.9757   5  29   2.0019   2.1617   6.5411  -0.1681  -1.7602   1.7794   0.00    0.0
2022/05/29 13:53:23.421    8.851949541    7.742140168   424.3030   5  30   1.9482   2.1530   6.4375   0.4943  -1.1195   1.7903   0.00    0.0
2022/05/29 13:53:24.421    8.852041794    7.742159766   431.9522   5  30   1.8588   2.1581   6.1897   0.2528  -1.6833   1.2621   0.00    0.0
2022/05/29 13:53:25.421    8.852080404    7.742213385   423.7207   5  31   1.8444   2.1017   6.0741  -0.2215  -1.4997   1.3664   0.00    0.0
2022/05/29 13:53:26.421    8.852022870    7.742169629   405.1001   5  29   2.0019   2.1617   6.5431  -0.1727  -1.7602   1.7800   0.00    0.0
2022/05/29 13:53:27.421    8.852019407    7.742133341   420.6630   5  29   2.0018   2.1617   6.5436  -0.1739  -1.7602   1.7802   0.00    0.0
2022/05/29 13:53:28.421    8.852044019    7.742171354   412.0193   5  28   2.1629   2.2117   7.0516   0.5936  -1.3674   2.3068   0.00    0.0
2022/05/29 13:53:29.421    8.852044158    7.742211722   429.0382   5  29   2.0018   2.1617   6.5446  -0.1762  -1.7602   1.7805   0.00    0.0
2022/05/29 13:53:30.421    8.852059982    7.742197313   451.6751   5  30   1.9896   2.1051   6.4306  -0.3738  -1.5809   1.8545   0.00    0.0
2022/05/29 13:53:31.421    8.852012150    7.742185640   436.7561   5  29   2.0018   2.1617   6.5455  -0.1784  -1.7602   1.7808   0.00    0.0
2022/05/29 13:53:32.421    8.852021272    7.742160882   441.6224   5  30   1.8586   2.1580   6.1922   0.2479  -1.6825   1.2623   0.00    0.0
2022/05/29 13:53:33.421    8.851997160    7.742178368   438.3537   5  30   1.8585   2.1580   6.1925   0.2472  -1.6824   1.2623   0.00    0.0
2022/05/29 13:53:34.421    8.852035152    7.742181080   455.3590   5  30   1.8585   2.1580   6.1928   0.2466  -1.6823   1.2623   0.00    0.0
2022/05/29 13:53:35.421    8.851953139    7.742164743   432.1297   5  30   1.9475   2.1530   6.4387   0.4907  -1.1179   1.7883   0.00    0.0
2022/05/29 13:53:36.421    8.851978107    7.742111946   426.5983   5  29   1.9634   2.2116   6.5361   0.6058  -1.3482   1.7078   0.00    0.0
2022/05/29 13:53:37.421    8.851989749    7.742153195   438.4990   5  29   1.9634   2.2116   6.5362   0.6055  -1.3481   1.7076   0.00    0.0
2022/05/29 13:53:38.421    8.851988253    7.742108944   432.1402   5  29   1.9633   2.2116   6.5363   0.6053  -1.3480   1.7075   0.00    0.0
2022/05/29 13:53:39.421    8.852058913    7.742202488   420.2687   5  28   1.9973   2.2969   6.6453   0.7706  -1.6000   1.5731   0.00    0.0
2022/05/29 13:53:40.421    8.851997418    7.742194336   414.3040   5  28   2.1620   2.2117   7.0548   0.5893  -1.3678   2.3061   0.00    0.0
2022/05/29 13:53:41.421    8.852004211    7.742158667   409.0530   5  28   2.1619   2.2117   7.0551   0.5889  -1.3678   2.3060   0.00    0.0
2022/05/29 13:53:42.421    8.852059662    7.742180438   402.4127   5  28   2.1618   2.2117   7.0553   0.5885  -1.3678   2.3059   0.00    0.0
2022/05/29 13:53:43.421    8.852045251    7.742174284   411.5692   5  29   1.9630   2.2116   6.5368   0.6039  -1.3476   1.7066   0.00    0.0
2022/05/29 13:53:44.421    8.852007371    7.742179124   417.8974   5  28   2.1617   2.2117   7.0558   0.5878  -1.3679   2.3058   0.00    0.0
2022/05/29 13:53:45.421    8.852019504    7.742123626   425.5895   5  28   2.1616   2.2117   7.0561   0.5874  -1.3679   2.3057   0.00    0.0
2022/05/29 13:53:46.421    8.852069222    7.742141603   432.5613   5  28   2.1615   2.2117   7.0564   0.5871  -1.3679   2.3056   0.00    0.0
2022/05/29 13:53:47.421    8.852039344    7.742157812   438.1786   5  30   1.8582   2.1578   6.1967   0.2383  -1.6809   1.2626   0.00    0.0
2022/05/29 13:53:48.421    8.852006047    7.742136994   433.2327   5  30   1.8581   2.1577   6.1970   0.2377  -1.6808   1.2626   0.00    0.0
2022/05/29 13:53:49.421    8.852018287    7.742165685   451.9513   5  29   1.9198   2.1577   6.2108   0.2434  -1.6814   1.1818   0.00    0.0
2022/05/29 13:53:50.421    8.852099538    7.742198764   441.1876   5  29   1.8873   2.2373   6.3366   0.5015  -1.8986   1.0759   0.00    0.0
2022/05/29 13:53:51.421    8.852024702    7.742191458   407.2578   5  28   2.0583   2.2141   6.5377   0.6535  -1.3467   1.7063   0.00    0.0
2022/05/29 13:53:52.421    8.852065996    7.742183544   452.3572   5  30   1.8580   2.1577   6.1982   0.2351  -1.6803   1.2627   0.00    0.0
2022/05/29 13:53:53.421    8.852002013    7.742190852   414.9373   5  29   1.9198   2.1577   6.2118   0.2404  -1.6809   1.1824   0.00    0.0
2022/05/29 13:53:54.421    8.851937507    7.742179956   405.6359   5  28   2.0582   2.2141   6.5380   0.6527  -1.3463   1.7062   0.00    0.0
2022/05/29 13:53:55.421    8.852041372    7.742143376   412.5813   5  29   1.9198   2.1577   6.2123   0.2389  -1.6807   1.1827   0.00    0.0
2022/05/29 13:53:56.421    8.851992246    7.742152041   429.4349   5  29   1.9198   2.1576   6.2125   0.2382  -1.6806   1.1829   0.00    0.0
2022/05/29 13:53:57.421    8.852073477    7.742190723   413.2150   5  30   1.8579   2.1576   6.1997   0.2318  -1.6798   1.2628   0.00    0.0
2022/05/29 13:53:58.421    8.852020006    7.742146763   450.7205   5  30   1.8579   2.1576   6.2000   0.2311  -1.6797   1.2628   0.00    0.0
2022/05/29 13:53:59.421    8.852050591    7.742162390   428.8754   5  29   1.9619   2.2117   6.5385   0.5996  -1.3461   1.7039   0.00    0.0
2022/05/29 13:54:00.421    8.852050853    7.742152798   417.5388   5  29   1.8870   2.2370   6.3407   0.4980  -1.8984   1.0754   0.00    0.0
2022/05/29 13:54:01.421    8.852002694    7.742200398   397.3390   5  29   1.9198   2.1576   6.2138   0.2344  -1.6800   1.1836   0.00    0.0
2022/05/29 13:54:02.421    8.852034503    7.742193691   397.8994   5  29   1.9197   2.1576   6.2140   0.2336  -1.6798   1.1838   0.00    0.0
2022/05/29 13:54:03.421    8.852019215    7.742202223   399.7566   5  29   1.9197   2.1575   6.2143   0.2329  -1.6797   1.1839   0.00    0.0
2022/05/29 13:54:04.421    8.852008048    7.742223586   387.3598   5  28   1.9802   2.1582   6.2146   0.1655  -1.6801   1.1905   0.00    0.0
2022/05/29 13:54:05.421    8.851963551    7.742177346   410.5246   5  29   1.9197   2.1575   6.2148   0.2313  -1.6795   1.1842   0.00    0.0
2022/05/29 13:54:06.421    8.851971977    7.742166154   401.9390   5  28   1.9801   2.1582   6.2151   0.1633  -1.6798   1.1905   0.00    0.0
2022/05/29 13:54:07.421    8.852014925    7.742181836   417.8543   5  28   1.9801   2.1582   6.2153   0.1622  -1.6797   1.1905   0.00    0.0
2022/05/29 13:54:08.421    8.851948010    7.742163731   412.4563   5  29   1.9197   2.1575   6.2155   0.2290  -1.6791   1.1847   0.00    0.0
2022/05/29 13:54:09.421    8.852013045    7.742198770   417.7144   5  28   1.9801   2.1581   6.2158   0.1600  -1.6794   1.1905   0.00    0.0
2022/05/29 13:54:10.421    8.851967294    7.742180509   410.0034   5  28   2.0730   2.1614   6.5684  -0.2243  -1.7594   1.7507   0.00    0.0
2022/05/29 13:54:11.421    8.851924442    7.742165787   420.6224   5  28   2.0730   2.1614   6.5689  -0.2253  -1.7593   1.7510   0.00    0.0
2022/05/29 13:54:12.421    8.851984406    7.742191458   416.1732   5  28   2.0730   2.1614   6.5693  -0.2263  -1.7593   1.7512   0.00    0.0
2022/05/29 13:54:13.421    8.851985508    7.742170741   391.1713   5  28   2.0730   2.1614   6.5698  -0.2273  -1.7593   1.7515   0.00    0.0
2022/05/29 13:54:14.421    8.851917017    7.742154112   398.7843   5  28   2.0731   2.1613   6.5702  -0.2283  -1.7593   1.7518   0.00    0.0
2022/05/29 13:54:15.421    8.851973648    7.742155754   419.1736   5  28   2.0731   2.1613   6.5706  -0.2293  -1.7593   1.7520   0.00    0.0
2022/05/29 13:54:16.421    8.852025101    7.742161526   428.6147   5  28   2.0731   2.1613   6.5711  -0.2303  -1.7592   1.7523   0.00    0.0
2022/05/29 13:54:17.421    8.852026216    7.742141132   432.9996   5  29   1.9197   2.1573   6.2177   0.2219  -1.6780   1.1860   0.00    0.0
2022/05/29 13:54:18.421    8.852044684    7.742150760   435.9781   5  28   2.0731   2.1613   6.5719  -0.2323  -1.7592   1.7528   0.00    0.0
2022/05/29 13:54:19.421    8.851996321    7.742159927   435.8492   5  29   1.9197   2.1573   6.2181   0.2203  -1.6777   1.1863   0.00    0.0
2022/05/29 13:54:20.421    8.852019333    7.742167651   449.0814   5  29   1.9197   2.1573   6.2184   0.2195  -1.6776   1.1864   0.00    0.0
2022/05/29 13:54:21.421    8.852033260    7.742194844   441.0514   5  29   1.9197   2.1573   6.2186   0.2186  -1.6775   1.1866   0.00    0.0
2022/05/29 13:54:22.421    8.852004491    7.742188683   428.7314   5  29   1.9197   2.1573   6.2189   0.2178  -1.6774   1.1867   0.00    0.0
2022/05/29 13:54:23.421    8.851971098    7.742143489   417.7266   5  28   2.0571   2.2141   6.5409   0.6447  -1.3428   1.7050   0.00    0.0
2022/05/29 13:54:24.421    8.851979317    7.742169786   427.3820   5  28   2.0571   2.2141   6.5410   0.6444  -1.3427   1.7049   0.00    0.0
2022/05/29 13:54:25.421    8.852034965    7.742200276   411.0002   5  28   2.0571   2.2141   6.5411   0.6441  -1.3426   1.7049   0.00    0.0
2022/05/29 13:54:26.421    8.851986829    7.742128818   402.9238   5  28   2.0570   2.2141   6.5412   0.6438  -1.3425   1.7048   0.00    0.0
2022/05/29 13:54:27.421    8.851969630    7.742133521   396.0339   5  27   2.2002   2.2142   6.7529   0.6584  -1.3268   2.0533   0.00    0.0
2022/05/29 13:54:28.421    8.852121629    7.742213805   395.4173   5  29   1.9601   2.2117   6.5413   0.5918  -1.3434   1.6989   0.00    0.0
2022/05/29 13:54:29.421    8.852008490    7.742164251   417.3527   5  27   2.2000   2.2142   6.7528   0.6578  -1.3266   2.0528   0.00    0.0
2022/05/29 13:54:30.421    8.851996790    7.742165389   412.5499   5  27   2.1999   2.2142   6.7527   0.6575  -1.3265   2.0526   0.00    0.0
2022/05/29 13:54:31.421    8.852003912    7.742186018   434.5670   5  27   2.1998   2.2142   6.7526   0.6572  -1.3265   2.0524   0.00    0.0
2022/05/29 13:54:32.421    8.852075475    7.742166921   431.4752   5  29   1.9196   2.1571   6.2212   0.2095  -1.6761   1.1882   0.00    0.0
2022/05/29 13:54:33.421    8.852025459    7.742198127   434.5374   5  28   2.0227   2.1581   6.3540   0.0529  -1.7004   1.4950   0.00    0.0
2022/05/29 13:54:34.421    8.852000465    7.742147732   439.3391   5  27   2.1273   2.2141   6.5440   0.6350  -1.3425   1.7311   0.00    0.0
2022/05/29 13:54:35.421    8.851991155    7.742190473   425.1333   5  29   1.9196   2.1571   6.2219   0.2069  -1.6757   1.1886   0.00    0.0
2022/05/29 13:54:36.421    8.852033059    7.742188218   432.1193   5  29   1.9196   2.1571   6.2222   0.2061  -1.6756   1.1888   0.00    0.0
2022/05/29 13:54:37.421    8.852037756    7.742141091   435.8627   5  28   2.0226   2.1580   6.3546   0.0366  -1.6999   1.4950   0.00    0.0
2022/05/29 13:54:38.421    8.852034815    7.742186060   436.1298   5  28   1.9795   2.1577   6.2227   0.1238  -1.6754   1.1903   0.00    0.0
2022/05/29 13:54:39.421    8.852069541    7.742196134   428.6124   5  27   2.0921   2.1588   6.3558  -0.1773  -1.7015   1.5141   0.00    0.0
2022/05/29 13:54:40.421    8.852065505    7.742206480   418.5382   5  29   1.9196   2.1570   6.2231   0.2026  -1.6751   1.1893   0.00    0.0
2022/05/29 13:54:41.421    8.852040363    7.742192938   426.5044   5  28   2.0565   2.2141   6.5425   0.6397  -1.3407   1.7041   0.00    0.0
2022/05/29 13:54:42.421    8.852026930    7.742172836   440.4896   5  29   1.9196   2.1570   6.2236   0.2008  -1.6748   1.1896   0.00    0.0
2022/05/29 13:54:43.421    8.852062877    7.742181870   463.4263   5  29   1.9196   2.1570   6.2238   0.2000  -1.6747   1.1897   0.00    0.0
2022/05/29 13:54:44.421    8.852055786    7.742131388   466.0312   5  29   1.9196   2.1570   6.2240   0.1991  -1.6746   1.1899   0.00    0.0
2022/05/29 13:54:45.421    8.852050705    7.742155455   450.3223   5  29   1.9196   2.1569   6.2243   0.1982  -1.6744   1.1900   0.00    0.0
2022/05/29 13:54:46.421    8.852063434    7.742136841   438.8456   5  28   2.0563   2.2141   6.5429   0.6383  -1.3400   1.7038   0.00    0.0
2022/05/29 13:54:47.421    8.852014714    7.742120883   447.5938   5  29   1.9196   2.1569   6.2247   0.1964  -1.6742   1.1903   0.00    0.0
2022/05/29 13:54:48.421    8.852002621    7.742109239   444.0363   5  28   2.0562   2.2141   6.5431   0.6377  -1.3398   1.7037   0.00    0.0
2022/05/29 13:54:49.421    8.852040936    7.742152378   423.2089   5  28   2.0562   2.2141   6.5432   0.6374  -1.3397   1.7037   0.00    0.0
2022/05/29 13:54:50.421    8.852030421    7.742139769   437.0290   5  29   1.9196   2.1569   6.2254   0.1937  -1.6738   1.1907   0.00    0.0
2022/05/29 13:54:51.421    8.852057549    7.742181303   412.3048   5  27   2.0972   2.3005   6.6610   0.8147  -1.6040   1.5451   0.00    0.0
2022/05/29 13:54:52.421    8.852069672    7.742190398   404.6725   5  27   2.0846   2.2620   7.1477   0.7513  -1.7681   1.3834   0.00    0.0
2022/05/29 13:54:53.421    8.852052697    7.742183888   431.5534   5  27   2.0654   2.2990   6.6758   0.7060  -1.6186   1.6305   0.00    0.0
2022/05/29 13:54:54.421    8.852047610    7.742181191   417.0887   5  28   1.9918   2.2957   6.6614   0.7518  -1.6018   1.5546   0.00    0.0
2022/05/29 13:54:55.421    8.852014860    7.742186661   400.1790   5  28   1.9917   2.2957   6.6616   0.7515  -1.6018   1.5543   0.00    0.0
2022/05/29 13:54:56.421    8.851997738    7.742165589   408.6814   5  27   2.0652   2.2989   6.6765   0.7050  -1.6188   1.6301   0.00    0.0
2022/05/29 13:54:57.421    8.852039796    7.742180295   402.7041   5  27   2.0068   2.3557   7.3213   0.8333  -2.0422   1.2905   0.00    0.0
2022/05/29 13:54:58.421    8.851981063    7.742099156   428.5839   5  29   1.9581   2.2118   6.5437   0.5836  -1.3405   1.6934   0.00    0.0
2022/05/29 13:54:59.421    8.852008628    7.742165120   420.3421   5  28   1.9914   2.2956   6.6624   0.7505  -1.6019   1.5533   0.00    0.0
2022/05/29 13:55:00.421    8.851988808    7.742104684   425.4917   5  29   1.9580   2.2118   6.5438   0.5830  -1.3403   1.6931   0.00    0.0
2022/05/29 13:55:01.421    8.851999589    7.742150639   415.8190   5  26   2.1396   2.3733   7.3687   0.9531  -2.1002   1.0213   0.00    0.0
2022/05/29 13:55:02.421    8.851967278    7.742114124   409.5607   5  28   1.8953   2.2872   7.1162   0.5672  -2.2673   0.7243   0.00    0.0
2022/05/29 13:55:03.421    8.852028221    7.742192074   433.1525   5  28   1.8953   2.2871   7.1165   0.5669  -2.2672   0.7239   0.00    0.0
2022/05/29 13:55:04.421    8.851989895    7.742199330   423.0659   5  28   1.8953   2.2871   7.1168   0.5667  -2.2671   0.7236   0.00    0.0
2022/05/29 13:55:05.421    8.852008444    7.742215653   439.4389   5  27   1.9604   2.2924   7.1225   0.4922  -2.2766   0.8140   0.00    0.0
2022/05/29 13:55:06.421    8.851978043    7.742166831   423.2980   5  28   1.8952   2.2870   7.1173   0.5661  -2.2669   0.7229   0.00    0.0
2022/05/29 13:55:07.421    8.852036828    7.742181176   423.2437   5  27   1.9604   2.2924   7.1231   0.4914  -2.2765   0.8139   0.00    0.0
2022/05/29 13:55:08.421    8.852044189    7.742186862   417.5051   5  27   1.9604   2.2923   7.1234   0.4911  -2.2765   0.8138   0.00    0.0
2022/05/29 13:55:09.421    8.852022448    7.742226539   406.0258   5  29   1.8662   2.1767   6.8241   0.2968  -1.9281   1.0906   0.00    0.0
2022/05/29 13:55:10.421    8.852053847    7.742221042   420.4397   5  28   1.8951   2.2868   7.1185   0.5651  -2.2666   0.7214   0.00    0.0
2022/05/29 13:55:11.421    8.852106026    7.742202523   417.2662   5  29   1.9102   2.1327   6.7072  -0.3583  -1.7786   1.3089   0.00    0.0
2022/05/29 13:55:12.421    8.852031871    7.742153355   413.2791   5  29   1.8617   2.1916   6.8783   0.2958  -1.9845   1.0815   0.00    0.0
2022/05/29 13:55:13.421    8.852043688    7.742119718   434.9490   5  29   1.8662   2.1765   6.8250   0.2951  -1.9275   1.0896   0.00    0.0
2022/05/29 13:55:14.421    8.852043081    7.742196751   402.4070   5  28   1.8951   2.2867   7.1196   0.5640  -2.2662   0.7200   0.00    0.0
2022/05/29 13:55:15.421    8.852042230    7.742213134   416.1221   5  29   1.8662   2.1764   6.8255   0.2942  -1.9272   1.0891   0.00    0.0
2022/05/29 13:55:16.421    8.852023725    7.742192254   409.9288   5  29   1.8617   2.1915   6.8787   0.2939  -1.9837   1.0810   0.00    0.0
2022/05/29 13:55:17.421    8.851998091    7.742150648   429.8804   5  29   1.8661   2.1763   6.8259   0.2934  -1.9269   1.0886   0.00    0.0
2022/05/29 13:55:18.421    8.851966753    7.742122962   437.1201   5  29   1.8616   2.1914   6.8789   0.2930  -1.9834   1.0808   0.00    0.0
2022/05/29 13:55:19.421    8.851996711    7.742214141   423.1657   5  29   1.8661   2.1762   6.8263   0.2925  -1.9266   1.0881   0.00    0.0
2022/05/29 13:55:20.421    8.851982372    7.742177886   415.2360   5  28   1.9257   2.1983   6.8873  -0.0267  -1.9977   1.1545   0.00    0.0
2022/05/29 13:55:21.421    8.851967161    7.742168126   406.8608   5  28   1.9714   2.2379   7.0668   0.6456  -1.6606   1.5308   0.00    0.0
2022/05/29 13:55:22.421    8.851967336    7.742152569   405.6861   5  28   1.8949   2.2863   7.1218   0.5619  -2.2654   0.7173   0.00    0.0
2022/05/29 13:55:23.421    8.851975073    7.742186546   400.4146   5  28   1.9308   2.1829   6.8352  -0.0278  -1.9408   1.1600   0.00    0.0
2022/05/29 13:55:24.421    8.851946909    7.742201015   405.2732   5  28   1.8949   2.2862   7.1223   0.5614  -2.2653   0.7166   0.00    0.0
2022/05/29 13:55:25.421    8.851918939    7.742106173   426.9828   5  29   1.8615   2.1913   6.8797   0.2898  -1.9820   1.0798   0.00    0.0
2022/05/29 13:55:26.421    8.852016164    7.742250915   406.6268   5  28   1.9308   2.1828   6.8360  -0.0409  -1.9405   1.1598   0.00    0.0
2022/05/29 13:55:27.421    8.851984770    7.742150730   437.7984   5  28   1.9257   2.1982   6.8883  -0.0546  -1.9966   1.1547   0.00    0.0
2022/05/29 13:55:28.421    8.851995726    7.742210772   411.5709   5  28   1.8948   2.2861   7.1234   0.5603  -2.2649   0.7151   0.00    0.0
2022/05/29 13:55:29.421    8.851990227    7.742177935   412.5313   5  27   1.9602   2.2916   7.1299   0.4833  -2.2752   0.8123   0.00    0.0
2022/05/29 13:55:30.421    8.852008444    7.742193616   410.3740   5  27   1.9602   2.2915   7.1302   0.4830  -2.2751   0.8122   0.00    0.0
2022/05/29 13:55:31.421    8.852043138    7.742219243   410.6292   5  29   1.8660   2.1758   6.8289   0.2873  -1.9249   1.0849   0.00    0.0
2022/05/29 13:55:32.421    8.852049171    7.742192990   402.1221   5  27   1.9602   2.2915   7.1308   0.4822  -2.2750   0.8120   0.00    0.0
2022/05/29 13:55:33.421    8.852088041    7.742229238   407.1349   5  28   1.9308   2.1825   6.8377  -0.0614  -1.9397   1.1591   0.00    0.0
2022/05/29 13:55:34.421    8.852052954    7.742193921   400.6955   5  27   1.9602   2.2914   7.1314   0.4815  -2.2749   0.8118   0.00    0.0
2022/05/29 13:55:35.421    8.852065806    7.742227589   402.9758   5  29   1.8660   2.1756   6.8298   0.2856  -1.9243   1.0839   0.00    0.0
2022/05/29 13:55:36.421    8.851989855    7.742190282   415.3406   5  26   2.0064   2.2973   7.1356   0.4002  -2.2830   0.8695   0.00    0.0
2022/05/29 13:55:37.421    8.852065360    7.742214710   400.0489   5  26   2.0064   2.2973   7.1358   0.3998  -2.2829   0.8692   0.00    0.0
2022/05/29 13:55:38.421    8.852082153    7.742241599   424.2756   5  28   1.9309   2.1824   6.8389  -0.0726  -1.9391   1.1587   0.00    0.0
2022/05/29 13:55:39.421    8.852084080    7.742222302   429.2161   5  28   1.8946   2.2856   7.1264   0.5574  -2.2638   0.7110   0.00    0.0
2022/05/29 13:55:40.421    8.852112157    7.742260654   398.8988   5  28   1.9309   2.1823   6.8394  -0.0766  -1.9389   1.1585   0.00    0.0
2022/05/29 13:55:41.421    8.852105472    7.742259011   413.4889   5  29   1.8660   2.1754   6.8310   0.2829  -1.9234   1.0823   0.00    0.0
2022/05/29 13:55:42.421    8.852105454    7.742214228   412.4957   5  27   1.9602   2.2911   7.1337   0.4785  -2.2743   0.8112   0.00    0.0
2022/05/29 13:55:43.421    8.852077540    7.742237808   395.6344   5  27   2.0010   2.2453   6.9840   0.6175  -2.1202   0.5299   0.00    0.0
2022/05/29 13:55:44.421    8.852039162    7.742216852   408.6433   5  27   1.9353   2.2906   7.1305   0.4980  -2.2701   0.7629   0.00    0.0
2022/05/29 13:55:45.421    8.852057934    7.742252097   409.7594   5  26   2.0317   2.3900   7.3551   0.8183  -2.5264  -0.7307   0.00    0.0
2022/05/29 13:55:46.421    8.852054160    7.742213067   418.5978   5  26   2.0062   2.2969   7.1382   0.3961  -2.2820   0.8664   0.00    0.0
2022/05/29 13:55:47.421    8.852038838    7.742247846   415.3674   5  27   1.9874   2.3867   7.3548   0.8494  -2.5234  -0.7653   0.00    0.0
2022/05/29 13:55:48.421    8.852059379    7.742207913   400.0355   5  28   1.9310   2.1820   6.8413  -0.0909  -1.9380   1.1577   0.00    0.0
2022/05/29 13:55:49.421    8.852000463    7.742198297   405.6727   5  28   1.9649   2.3128   6.5078   0.7387  -2.0853   0.6578   0.00    0.0
2022/05/29 13:55:50.421    8.851969750    7.742141771   425.4217   5  29   1.8611   2.1906   6.8821   0.2779  -1.9772   1.0763   0.00    0.0
2022/05/29 13:55:51.421    8.851936252    7.742143087   427.2579   5  29   1.9118   2.1807   6.8189   0.4431  -1.9213   0.9497   0.00    0.0
2022/05/29 13:55:52.421    8.851955088    7.742177828   434.1884   5  27   1.9822   2.2776   7.0604   0.5196  -2.2111   0.7836   0.00    0.0
2022/05/29 13:55:53.421    8.851978701    7.742193849   422.7077   5  27   1.9964   2.2632   7.0422   0.6155  -2.1783   0.5085   0.00    0.0
2022/05/29 13:55:54.421    8.851972543    7.742177799   421.4123   5  26   2.0477   2.2776   7.0638   0.5116  -2.2102   0.7129   0.00    0.0
2022/05/29 13:55:55.421    8.851989554    7.742176878   418.9789   5  27   1.9821   2.2776   7.0610   0.5186  -2.2108   0.7835   0.00    0.0
2022/05/29 13:55:56.421    8.852026297    7.742257869   399.0894   5  29   1.9117   2.1806   6.8195   0.4417  -1.9204   0.9484   0.00    0.0
2022/05/29 13:55:57.421    8.852048979    7.742241382   408.7921   5  27   1.9821   2.2775   7.0614   0.5179  -2.2107   0.7835   0.00    0.0
2022/05/29 13:55:58.421    8.852047362    7.742253774   416.0485   5  27   1.9821   2.2775   7.0616   0.5175  -2.2106   0.7834   0.00    0.0
2022/05/29 13:55:59.421    8.852027855    7.742197474   427.4364   5  29   1.9117   2.1805   6.8199   0.4408  -1.9199   0.9477   0.00    0.0
2022/05/29 13:56:00.421    8.852001103    7.742193317   416.2541   5  27   1.9820   2.2775   7.0619   0.5169  -2.2104   0.7835   0.00    0.0
2022/05/29 13:56:01.421    8.851983545    7.742184920   428.2407   5  26   2.0942   2.2918   7.3147   0.3067  -2.3178   1.3793   0.00    0.0
2022/05/29 13:56:02.421    8.852033754    7.742163045   425.1414   5  28   1.9701   2.2294   6.3437   0.4071  -1.8548   1.1338   0.00    0.0
2022/05/29 13:56:03.421    8.852015822    7.742180953   423.5893   5  27   2.1593   2.1718   6.4191  -0.3807  -1.7490   1.6366   0.00    0.0
2022/05/29 13:56:04.421    8.852029469    7.742220114   423.9976   5  28   1.9701   2.2294   6.3444   0.4061  -1.8548   1.1340   0.00    0.0
2022/05/29 13:56:05.421    8.852057249    7.742228788   413.6797   5  27   2.0878   2.2400   6.5561   0.1188  -1.9493   1.5580   0.00    0.0
2022/05/29 13:56:06.421    8.852021675    7.742220076   429.3785   5  28   1.9700   2.2294   6.3450   0.4052  -1.8548   1.1342   0.00    0.0
2022/05/29 13:56:07.421    8.852019503    7.742204990   416.8805   5  28   1.9700   2.2294   6.3454   0.4047  -1.8547   1.1343   0.00    0.0
2022/05/29 13:56:08.421    8.852002141    7.742181883   423.1070   5  28   1.9700   2.2294   6.3457   0.4042  -1.8547   1.1345   0.00    0.0
2022/05/29 13:56:09.421    8.852034532    7.742221928   410.9238   5  29   1.9513   2.1613   6.2072   0.1229  -1.6487   1.2824   0.00    0.0
2022/05/29 13:56:10.421    8.851982898    7.742162169   406.3296   5  27   2.0867   2.2914   6.6383   0.7260  -1.5521   1.6210   0.00    0.0
2022/05/29 13:56:11.421    8.852035721    7.742191064   408.4417   5  27   2.0875   2.2400   6.5576   0.1080  -1.9492   1.5580   0.00    0.0
2022/05/29 13:56:12.421    8.852119084    7.742223548   428.3745   5  26   2.0939   2.2916   7.3155   0.3004  -2.3167   1.3776   0.00    0.0
2022/05/29 13:56:13.421    8.852015766    7.742152395   414.0935   5  28   2.0647   2.2195   6.5233   0.5954  -1.3064   1.7311   0.00    0.0
2022/05/29 13:56:14.421    8.852001805    7.742191059   399.2039   5  25   2.2519   2.3541   7.5864   0.7323  -2.0696   1.8874   0.00    0.0
2022/05/29 13:56:15.421    8.852043665    7.742206332   426.3654   5  28   1.9698   2.2294   6.3480   0.4009  -1.8545   1.1351   0.00    0.0
2022/05/29 13:56:16.421    8.852028316    7.742211903   411.0231   5  25   2.2636   2.3647   7.2953   0.9484  -2.0285   1.1024   0.00    0.0
2022/05/29 13:56:17.421    8.852078947    7.742227092   422.6703   5  28   1.9970   2.1819   6.8904   0.4914  -1.9392   0.5740   0.00    0.0
2022/05/29 13:56:18.421    8.852070075    7.742179798   426.6256   5  27   2.0498   2.2295   6.3593   0.4132  -1.8564   1.0414   0.00    0.0
2022/05/29 13:56:19.421    8.851992294    7.742151827   417.0178   5  26   2.2117   2.2957   6.6399   0.7906  -1.5494   1.6343   0.00    0.0
2022/05/29 13:56:20.421    8.851962995    7.742157639   400.5092   5  26   2.2117   2.2957   6.6401   0.7903  -1.5494   1.6344   0.00    0.0
2022/05/29 13:56:21.421    8.852038428    7.742187337   425.9566   5  27   2.0498   2.2294   6.3602   0.4115  -1.8563   1.0423   0.00    0.0
2022/05/29 13:56:22.421    8.852038809    7.742200390   425.1319   5  26   2.1792   2.2400   6.5642   0.0886  -1.9490   1.5126   0.00    0.0
2022/05/29 13:56:23.421    8.852075626    7.742252049   422.1779   5  26   2.1792   2.2400   6.5645   0.0858  -1.9490   1.5127   0.00    0.0
2022/05/29 13:56:24.421    8.852027266    7.742234375   417.7390   5  27   2.0497   2.2294   6.3610   0.4099  -1.8561   1.0432   0.00    0.0
2022/05/29 13:56:25.421    8.852030352    7.742182315   425.1552   5  26   2.1792   2.2400   6.5649   0.0799  -1.9490   1.5130   0.00    0.0
2022/05/29 13:56:26.421    8.852040156    7.742204686   428.9403   5  26   2.1792   2.2401   6.5651   0.0768  -1.9489   1.5132   0.00    0.0
2022/05/29 13:56:27.421    8.852029676    7.742175530   434.5825   5  28   2.0635   2.1666   6.4107  -0.4148  -1.7326   1.6919   0.00    0.0
2022/05/29 13:56:28.421    8.852139492    7.742110524   459.8266   5  27   2.0497   2.2294   6.3621   0.4077  -1.8559   1.0444   0.00    0.0
2022/05/29 13:56:29.421    8.851958278    7.742100764   423.5929   5  25   2.3923   2.2987   6.9410   0.7169  -1.6236   2.1245   0.00    0.0
2022/05/29 13:56:30.421    8.851983085    7.742157966   427.2271   5  25   2.3922   2.2988   6.9410   0.7165  -1.6237   2.1244   0.00    0.0
2022/05/29 13:56:31.421    8.852007613    7.742151629   413.0472   5  24   2.4346   2.3686   7.5959   0.8782  -2.0970   1.7652   0.00    0.0
2022/05/29 13:56:32.421    8.852056535    7.742179370   411.9708   5  26   2.0806   2.2805   7.1497   0.5796  -2.2381  -0.2666   0.00    0.0
2022/05/29 13:56:33.421    8.852008664    7.742188821   394.6246   5  24   2.4345   2.3686   7.5953   0.8777  -2.0968   1.7648   0.00    0.0
2022/05/29 13:56:34.421    8.852055348    7.742240762   412.8736   5  24   2.4345   2.3686   7.5950   0.8774  -2.0967   1.7645   0.00    0.0
2022/05/29 13:56:35.421    8.851965348    7.742143612   403.7397   5  25   2.3919   2.2988   6.9411   0.7147  -1.6238   2.1238   0.00    0.0
2022/05/29 13:56:36.421    8.851962442    7.742136773   404.0635   5  25   2.3918   2.2988   6.9411   0.7143  -1.6239   2.1237   0.00    0.0
2022/05/29 13:56:37.421    8.851974327    7.742120717   396.2098   5  25   2.3917   2.2988   6.9411   0.7139  -1.6239   2.1236   0.00    0.0
2022/05/29 13:56:38.421    8.851967284    7.742147754   406.8512   5  25   2.2015   2.2938   7.3778   0.3934  -2.3358   1.1142   0.00    0.0
2022/05/29 13:56:39.421    8.851951467    7.742139259   411.0629   5  23   2.5221   2.4166   7.6010   1.0411  -2.1339   1.6998   0.00    0.0
2022/05/29 13:56:40.421    8.852026634    7.742155513   425.6589   5  25   2.2635   2.3646   7.2928   0.9433  -2.0258   1.1018   0.00    0.0
2022/05/29 13:56:41.421    8.851993271    7.742153511   418.3237   5  23   2.5221   2.4165   7.6003   1.0406  -2.1335   1.6996   0.00    0.0
2022/05/29 13:56:42.421    8.851998767    7.742127801   414.1559   5  24   2.3399   2.4144   7.3086   1.0855  -2.0829   0.9628   0.00    0.0
2022/05/29 13:56:43.421    8.852038247    7.742178021   456.2864   5  25   2.2016   2.2937   7.3773   0.3905  -2.3349   1.1146   0.00    0.0
2022/05/29 13:56:44.421    8.851970508    7.742197319   405.3694   5  23   2.5221   2.4165   7.5993   1.0400  -2.1328   1.6994   0.00    0.0
2022/05/29 13:56:45.421    8.851960315    7.742217610   423.5052   5  24   2.4342   2.3686   7.5918   0.8747  -2.0954   1.7620   0.00    0.0
2022/05/29 13:56:46.421    8.851918442    7.742183676   427.9489   5  23   2.5221   2.4164   7.5986   1.0396  -2.1324   1.6992   0.00    0.0
2022/05/29 13:56:47.421    8.852092661    7.742206826   438.6231   5  25   2.1605   2.2238   6.9805   0.4210  -2.0409   0.6109   0.00    0.0
2022/05/29 13:56:48.421    8.851984460    7.742171841   426.0422   5  25   2.2309   2.2997   7.1477   0.8106  -1.7932   1.4154   0.00    0.0
2022/05/29 13:56:49.421    8.852038658    7.742196881   449.5012   5  26   2.0798   2.1979   6.9579  -0.1460  -1.9934   0.8374   0.00    0.0
2022/05/29 13:56:50.421    8.851960231    7.742162298   438.1677   5  24   2.3401   2.4141   7.3073   1.0839  -2.0811   0.9645   0.00    0.0
2022/05/29 13:56:51.421    8.852096151    7.742247852   425.7683   5  25   2.1578   2.2801   7.1590   0.5714  -2.2348  -0.5166   0.00    0.0
2022/05/29 13:56:52.421    8.852032895    7.742221043   446.7695   5  27   2.0496   2.2294   6.3689   0.3942  -1.8549   1.0517   0.00    0.0
2022/05/29 13:56:53.421    8.852057953    7.742158642   460.7792   5  26   2.1210   2.2296   6.3708   0.3695  -1.8536   1.0143   0.00    0.0
2022/05/29 13:56:54.421    8.852053685    7.742182808   460.8992   5  25   2.1350   2.3154   7.1794   0.7203  -2.2923  -0.6077   0.00    0.0
2022/05/29 13:56:55.421    8.851992230    7.742173671   442.8060   5  26   2.1210   2.2296   6.3714   0.3683  -1.8535   1.0146   0.00    0.0
2022/05/29 13:56:56.421    8.852054179    7.742195609   449.4868   5  26   2.1210   2.2296   6.3717   0.3677  -1.8534   1.0147   0.00    0.0
2022/05/29 13:56:57.421    8.851958365    7.742163357   445.8379   5  27   2.0496   2.2294   6.3703   0.3913  -1.8547   1.0532   0.00    0.0
2022/05/29 13:56:58.421    8.852013917    7.742123895   451.0103   5  24   2.4699   2.3316   6.8225   1.0277  -1.5335   1.8741   0.00    0.0
2022/05/29 13:56:59.421    8.852014175    7.742216010   427.4241   5  24   2.3301   2.2552   6.5771   0.1764  -1.9542   1.5754   0.00    0.0
2022/05/29 13:57:00.421    8.852047488    7.742245613   406.6672   5  27   2.0439   2.1784   6.2606   0.3568  -1.6824   1.1197   0.00    0.0
2022/05/29 13:57:01.421    8.852015307    7.742211041   403.1858   5  28   1.9769   2.1560   6.2537  -0.1863  -1.6543   1.1870   0.00    0.0
2022/05/29 13:57:02.421    8.852050574    7.742171384   420.7620   5  28   1.9521   2.2317   6.4198   0.4445  -1.8930   0.9689   0.00    0.0
2022/05/29 13:57:03.421    8.852039545    7.742156902   401.9338   5  28   1.9521   2.2317   6.4202   0.4441  -1.8929   0.9690   0.00    0.0
2022/05/29 13:57:04.421    8.852019959    7.742167905   416.3352   5  28   1.9520   2.2316   6.4205   0.4436  -1.8929   0.9691   0.00    0.0
2022/05/29 13:57:05.421    8.852058128    7.742180542   415.6436   5  27   2.0442   2.3120   6.5576   0.7505  -2.0947   0.3614   0.00    0.0
2022/05/29 13:57:06.421    8.852009839    7.742148511   423.1475   5  29   1.9252   2.1407   6.2255  -0.0855  -1.6098   1.2028   0.00    0.0
2022/05/29 13:57:07.421    8.852048694    7.742188769   425.2503   5  27   2.0441   2.3119   6.5583   0.7499  -2.0947   0.3615   0.00    0.0
2022/05/29 13:57:08.421    8.852015099    7.742192503   424.2734   5  27   2.0441   2.3119   6.5586   0.7496  -2.0947   0.3616   0.00    0.0
2022/05/29 13:57:09.421    8.852060619    7.742191662   436.6233   5  27   2.0441   2.3119   6.5590   0.7493  -2.0946   0.3616   0.00    0.0
2022/05/29 13:57:10.421    8.852059703    7.742172604   425.2352   5  26   2.1205   2.3156   6.7008   0.6974  -2.1374   0.9506   0.00    0.0
2022/05/29 13:57:11.421    8.851996253    7.742166946   429.6955   5  27   2.0041   2.3141   6.5432   0.6792  -2.0888   0.6693   0.00    0.0
2022/05/29 13:57:12.421    8.852046735    7.742187558   417.1522   5  26   2.0789   2.3187   6.6927   0.6170  -2.1371   1.1064   0.00    0.0
2022/05/29 13:57:13.421    8.852031880    7.742177148   427.0580   5  27   2.0540   2.2188   6.4923   0.4056  -1.8634   1.3209   0.00    0.0
2022/05/29 13:57:14.421    8.852062389    7.742201629   419.2394   5  27   2.0539   2.2188   6.4924   0.4052  -1.8632   1.3205   0.00    0.0
2022/05/29 13:57:15.421    8.852046080    7.742196484   413.4114   5  28   2.0445   2.1504   6.3573   0.2387  -1.6584   1.4144   0.00    0.0
2022/05/29 13:57:16.421    8.852081287    7.742249480   387.8762   5  27   2.0537   2.2188   6.4927   0.4044  -1.8630   1.3198   0.00    0.0
2022/05/29 13:57:17.421    8.852111797    7.742212372   409.1714   5  27   2.0537   2.2188   6.4929   0.4041  -1.8629   1.3194   0.00    0.0
2022/05/29 13:57:18.421    8.852040621    7.742185896   420.6634   5  28   1.9907   2.2186   6.4925   0.4209  -1.8634   1.3355   0.00    0.0
2022/05/29 13:57:19.421    8.852005565    7.742172005   410.3561   5  28   1.9906   2.2186   6.4926   0.4205  -1.8633   1.3353   0.00    0.0
2022/05/29 13:57:20.421    8.852054185    7.742148066   414.4685   5  27   2.1493   2.1715   6.4369  -0.3818  -1.7471   1.6316   0.00    0.0
2022/05/29 13:57:21.421    8.851973483    7.742123074   431.8837   5  26   2.0918   2.2907   7.3184   0.2575  -2.3088   1.3663   0.00    0.0
2022/05/29 13:57:22.421    8.852034451    7.742149856   415.3357   5  27   2.0002   2.2669   7.2258   0.5175  -2.2242   1.0750   0.00    0.0
2022/05/29 13:57:23.421    8.852041411    7.742140145   426.5212   5  28   1.9796   2.1837   7.0036   0.3060  -1.9660   1.2895   0.00    0.0
2022/05/29 13:57:24.421    8.852044662    7.742129819   421.5544   5  28   1.9796   2.1837   7.0036   0.3057  -1.9658   1.2891   0.00    0.0
2022/05/29 13:57:25.421    8.852041752    7.742136550   417.0616   5  28   1.9903   2.2185   6.4934   0.4182  -1.8627   1.3341   0.00    0.0
2022/05/29 13:57:26.421    8.852014078    7.742144981   416.2071   5  28   1.9902   2.2185   6.4935   0.4178  -1.8626   1.3339   0.00    0.0
2022/05/29 13:57:27.421    8.852023184    7.742169562   426.3997   5  29   1.9731   2.1498   6.3538   0.1784  -1.6536   1.4586   0.00    0.0
2022/05/29 13:57:28.421    8.852017677    7.742161856   417.0729   5  26   2.0648   2.2667   7.2295   0.5130  -2.2227   1.0117   0.00    0.0
2022/05/29 13:57:29.421    8.852088379    7.742164098   426.0306   5  27   1.9999   2.2667   7.2252   0.5157  -2.2228   1.0720   0.00    0.0
2022/05/29 13:57:30.421    8.852012248    7.742155323   411.5092   5  28   2.0524   2.1498   6.3567   0.1589  -1.6527   1.4223   0.00    0.0
2022/05/29 13:57:31.421    8.852009760    7.742181133   422.7182   5  28   1.9899   2.2184   6.4942   0.4159  -1.8620   1.3330   0.00    0.0
2022/05/29 13:57:32.421    8.851953913    7.742145699   422.2347   5  27   2.0726   2.2185   6.4991   0.4278  -1.8631   1.2773   0.00    0.0
2022/05/29 13:57:33.421    8.852042962    7.742165301   431.0781   5  28   1.9784   2.1793   6.8506   0.4569  -1.9129   0.7554   0.00    0.0
2022/05/29 13:57:34.421    8.852018071    7.742128348   431.4814   5  28   1.9330   2.2605   7.0487   0.5910  -2.1620   0.5769   0.00    0.0
2022/05/29 13:57:35.421    8.851963519    7.742080073   447.4199   5  27   2.0523   2.1844   7.0179   0.3560  -1.9710   1.1830   0.00    0.0
2022/05/29 13:57:36.421    8.851970235    7.742108426   437.6991   5  28   1.9329   2.2604   7.0489   0.5905  -2.1616   0.5762   0.00    0.0
2022/05/29 13:57:37.421    8.851964896    7.742094845   437.1275   5  28   1.9329   2.2604   7.0490   0.5903  -2.1615   0.5758   0.00    0.0
2022/05/29 13:57:38.421    8.852056097    7.742219259   392.6036   5  28   1.9329   2.2604   7.0490   0.5900  -2.1613   0.5754   0.00    0.0
2022/05/29 13:57:39.421    8.852023404    7.742253925   397.0159   5  27   1.9995   2.2664   7.2243   0.5131  -2.2208   1.0678   0.00    0.0
2022/05/29 13:57:40.421    8.852024501    7.742198360   407.6232   5  26   2.0478   2.3886   7.5654   0.7724  -2.5739   0.3814   0.00    0.0
2022/05/29 13:57:41.421    8.852048356    7.742197014   415.0524   5  27   1.9994   2.2663   7.2241   0.5126  -2.2203   1.0669   0.00    0.0
2022/05/29 13:57:42.421    8.852061412    7.742202908   402.3371   5  29   1.9101   2.1778   6.8298   0.4104  -1.9006   0.9190   0.00    0.0
2022/05/29 13:57:43.421    8.852004482    7.742147305   430.5006   5  28   1.9789   2.1832   7.0019   0.2985  -1.9615   1.2815   0.00    0.0
2022/05/29 13:57:44.421    8.852076725    7.742207482   404.2062   5  28   1.9327   2.2602   7.0494   0.5886  -2.1603   0.5731   0.00    0.0
2022/05/29 13:57:45.421    8.852065835    7.742206364   431.6766   5  28   1.9327   2.2602   7.0495   0.5883  -2.1601   0.5727   0.00    0.0
2022/05/29 13:57:46.421    8.852079221    7.742180181   404.4350   5  29   1.9100   2.1777   6.8301   0.4092  -1.8999   0.9178   0.00    0.0
2022/05/29 13:57:47.421    8.852073949    7.742180252   420.7484   5  28   1.9326   2.2602   7.0496   0.5878  -2.1597   0.5720   0.00    0.0
2022/05/29 13:57:48.421    8.852050098    7.742196970   398.2665   5  30   1.8453   2.1210   6.7083  -0.2763  -1.7245   1.2143   0.00    0.0
2022/05/29 13:57:49.421    8.852010040    7.742185815   418.7767   5  30   1.8453   2.1210   6.7083  -0.2768  -1.7243   1.2141   0.00    0.0
2022/05/29 13:57:50.421    8.852081234    7.742237120   397.4127   5  29   1.9100   2.1776   6.8303   0.4080  -1.8991   0.9166   0.00    0.0
2022/05/29 13:57:51.421    8.852030017    7.742192431   409.6548   5  30   1.8453   2.1210   6.7084  -0.2776  -1.7238   1.2137   0.00    0.0
2022/05/29 13:57:52.421    8.852009787    7.742209821   402.3773   5  29   1.9099   2.1776   6.8304   0.4074  -1.8987   0.9160   0.00    0.0
2022/05/29 13:57:53.421    8.852000049    7.742165670   419.5579   5  29   1.9099   2.1776   6.8305   0.4071  -1.8985   0.9157   0.00    0.0
2022/05/29 13:57:54.421    8.851996336    7.742184787   416.6654   5  29   1.9345   2.1225   6.8408  -0.3540  -1.7546   1.4998   0.00    0.0
2022/05/29 13:57:55.421    8.851998223    7.742191167   414.9147   5  29   1.9099   2.1775   6.8306   0.4065  -1.8981   0.9151   0.00    0.0
2022/05/29 13:57:56.421    8.851947457    7.742161057   432.4435   5  30   1.8452   2.1208   6.7085  -0.2796  -1.7225   1.2127   0.00    0.0
2022/05/29 13:57:57.421    8.851950991    7.742130366   441.6866   5  27   2.0532   2.1941   6.9119   0.2962  -1.9547   0.7748   0.00    0.0
2022/05/29 13:57:58.421    8.851967158    7.742160595   424.2008   5  28   1.9589   2.1932   6.8610   0.2237  -1.9415   1.0563   0.00    0.0
2022/05/29 13:57:59.421    8.851967550    7.742119963   433.9828   5  28   1.9984   2.1787   6.8865   0.4572  -1.9147   0.5669   0.00    0.0
2022/05/29 13:58:00.421    8.851982704    7.742174363   409.9861   5  28   2.0173   2.1224   6.8701  -0.3415  -1.7562   1.3695   0.00    0.0
2022/05/29 13:58:01.421    8.851953046    7.742164802   428.2684   5  28   1.9783   2.1827   7.0001   0.2916  -1.9574   1.2742   0.00    0.0
2022/05/29 13:58:02.421    8.852003195    7.742212543   413.4057   5  28   1.9783   2.1827   7.0000   0.2912  -1.9571   1.2738   0.00    0.0
2022/05/29 13:58:03.421    8.852017806    7.742199271   418.2005   5  28   2.0173   2.1223   6.8695  -0.3427  -1.7553   1.3689   0.00    0.0
2022/05/29 13:58:04.421    8.852042205    7.742199292   411.7426   5  28   1.9782   2.1826   6.9998   0.2904  -1.9567   1.2730   0.00    0.0
2022/05/29 13:58:05.421    8.852038817    7.742176451   422.9674   5  29   1.9341   2.1222   6.8394  -0.3573  -1.7516   1.4960   0.00    0.0
2022/05/29 13:58:06.421    8.852056212    7.742201244   418.0328   5  28   1.9539   2.1711   6.9812  -0.0254  -1.9258   1.3594   0.00    0.0
2022/05/29 13:58:07.421    8.852060676    7.742248015   407.2603   5  29   1.9341   2.1222   6.8392  -0.3579  -1.7511   1.4953   0.00    0.0
2022/05/29 13:58:08.421    8.852031189    7.742194675   411.5905   5  28   1.9781   2.1825   6.9994   0.2889  -1.9557   1.2713   0.00    0.0
2022/05/29 13:58:09.421    8.852078661    7.742230334   391.6779   5  28   1.9781   2.1825   6.9993   0.2885  -1.9555   1.2709   0.00    0.0
2022/05/29 13:58:10.421    8.852056213    7.742203974   399.4878   5  29   1.9340   2.1221   6.8388  -0.3587  -1.7503   1.4942   0.00    0.0
2022/05/29 13:58:11.421    8.852074814    7.742198129   406.2616   5  29   1.9340   2.1221   6.8386  -0.3590  -1.7500   1.4939   0.00    0.0
2022/05/29 13:58:12.421    8.852050951    7.742173119   407.5335   5  28   1.9780   2.1824   6.9990   0.2873  -1.9548   1.2696   0.00    0.0
2022/05/29 13:58:13.421    8.852059773    7.742199789   402.2259   5  30   1.8451   2.1204   6.7087  -0.2864  -1.7183   1.2091   0.00    0.0
2022/05/29 13:58:14.421    8.852056732    7.742157022   412.6699   5  30   1.8451   2.1204   6.7087  -0.2868  -1.7180   1.2089   0.00    0.0
2022/05/29 13:58:15.421    8.852050495    7.742219669   400.8666   5  29   1.9708   2.1492   6.3590   0.1363  -1.6467   1.4482   0.00    0.0
2022/05/29 13:58:16.421    8.852003284    7.742134980   404.0930   5  30   1.9305   2.0986   6.2607  -0.4070  -1.4812   1.5933   0.00    0.0
2022/05/29 13:58:17.421    8.852021036    7.742172812   401.7263   5  26   2.1704   2.2759   7.7846   0.2589  -2.3526   1.8900   0.00    0.0
2022/05/29 13:58:18.421    8.852017505    7.742176812   424.0250   5  28   2.1548   2.1545   6.8260  -0.3377  -1.7565   2.0633   0.00    0.0
2022/05/29 13:58:19.421    8.851967155    7.742180177   420.2391   5  28   2.1147   2.1312   7.4071  -0.5486  -1.9031   2.1591   0.00    0.0
2022/05/29 13:58:20.421    8.852000649    7.742152426   424.5738   5  29   2.1146   2.1046   6.7426  -0.5525  -1.6104   2.1673   0.00    0.0
2022/05/29 13:58:21.421    8.852000550    7.742127076   432.3081   5  30   1.9863   2.1025   6.5453  -0.4864  -1.5618   1.8767   0.00    0.0
2022/05/29 13:58:22.421    8.851982596    7.742140363   434.6621   5  29   1.9872   2.1280   7.1826  -0.4668  -1.8465   1.8305   0.00    0.0
2022/05/29 13:58:23.421    8.852018169    7.742153108   438.2427   5  31   1.8398   2.0974   6.1447  -0.3572  -1.4519   1.3537   0.00    0.0
2022/05/29 13:58:24.421    8.852065143    7.742253814   404.5346   5  29   1.9095   2.1768   6.8321   0.3976  -1.8922   0.9060   0.00    0.0
2022/05/29 13:58:25.421    8.852064359    7.742247547   401.6207   5  29   1.9871   2.1279   7.1830  -0.4677  -1.8461   1.8303   0.00    0.0
2022/05/29 13:58:26.421    8.851987907    7.742174673   431.3915   5  31   1.8397   2.0973   6.1452  -0.3583  -1.4514   1.3535   0.00    0.0
2022/05/29 13:58:27.421    8.851946235    7.742180657   423.1001   5  29   1.8846   2.1535   6.7277   0.2446  -1.7694   1.1230   0.00    0.0
2022/05/29 13:58:28.421    8.851890310    7.742138311   437.2753   5  29   1.9335   2.1216   6.8363  -0.3640  -1.7453   1.4880   0.00    0.0
2022/05/29 13:58:29.421    8.851975309    7.742181706   417.9788   5  27   2.0740   2.1578   6.8703   0.3148  -1.8094   1.3049   0.00    0.0
2022/05/29 13:58:30.421    8.851911581    7.742146271   410.6718   5  30   1.9299   2.0984   6.2616  -0.4113  -1.4786   1.5905   0.00    0.0
2022/05/29 13:58:31.421    8.852003108    7.742193139   378.5499   5  30   1.8773   2.1272   6.1544   0.0574  -1.4890   1.3082   0.00    0.0
2022/05/29 13:58:32.421    8.851994567    7.742214956   392.4311   5  31   1.8397   2.0973   6.1463  -0.3604  -1.4503   1.3529   0.00    0.0
2022/05/29 13:58:33.421    8.851952042    7.742194354   402.7504   5  29   1.9952   2.1602   6.6708  -0.3828  -1.7507   1.8120   0.00    0.0
