% program   : RTKPOST ver.demo5 b34g
% inp file  : C:\Users\Abdullateef\Documents\PHD\Research on Precision Agriculture Navigation Technology\nav data\GNSS Log file\Geo++\GEOP314L.22o
% inp file  : C:\Users\Abdullateef\Documents\PHD\Research on Precision Agriculture Navigation Technology\nav data\GNSS Log file\Base file\ABFC00NGA_R_20223141100_01H_1S_MO.22D
% inp file  : C:\Users\Abdullateef\Documents\PHD\Research on Precision Agriculture Navigation Technology\nav data\GNSS Log file\Nav file\BRDC00WRD_S_20223140000_01D_MN.rnx\BRDC00WRD_S_20223140000_01D_MN.rnx
% obs start : 2022/11/10 11:00:00.4 GPST (week2235 385200.4s)
% obs end   : 2022/11/10 11:39:12.4 GPST (week2235 387552.4s)
% pos mode  : Static
% freqs     : L1+L2/E5b+L5
% solution  : Combined-No Phase Reset
% elev mask : 5.0 deg
% dynamics  : on
% tidecorr  : off
% ionos opt : Broadcast
% tropo opt : Saastamoinen
% ephemeris : Broadcast
% navi sys  : GPS GLONASS Galileo BDS
% amb res   : Fix and Hold
% amb glo   : Fix and Hold
% val thres : 3.0
% antenna1  :                       ( 0.0000  0.0000  0.0000)
% antenna2  :                       ( 0.0000  0.0000  0.0000)
% ref pos   :  9.027665666    7.486341687   532.6449
%
% (lat/lon/height=WGS84/ellipsoidal,Q=1:fix,2:float,3:sbas,4:dgps,5:single,6:ppp,ns=# of satellites)
%  GPST                  latitude(deg) longitude(deg)  height(m)   Q  ns   sdn(m)   sde(m)   sdu(m)  sdne(m)  sdeu(m)  sdun(m) age(s)  ratio
2022/11/10 11:00:00.416    9.042483042    7.399404589   453.3295   4   0   0.0218   0.0229   0.0574   0.0070   0.0106   0.0171   0.42    0.0
2022/11/10 11:00:01.416    9.042483054    7.399404580   453.3303   4   0   0.0218   0.0229   0.0574   0.0070   0.0106   0.0171   0.42    0.0
2022/11/10 11:00:02.416    9.042483063    7.399404584   453.3329   4   0   0.0218   0.0229   0.0574   0.0070   0.0106   0.0171   0.42    0.0
2022/11/10 11:00:03.416    9.042483064    7.399404585   453.3293   4   0   0.0218   0.0229   0.0574   0.0070   0.0106   0.0171   0.42    0.0
2022/11/10 11:00:04.416    9.042483076    7.399404576   453.3320   4   0   0.0218   0.0229   0.0574   0.0070   0.0106   0.0171   0.42    0.0
2022/11/10 11:00:05.416    9.042483098    7.399404566   453.3369   4   0   0.0218   0.0229   0.0574   0.0070   0.0106   0.0171   0.42    0.0
2022/11/10 11:00:06.416    9.042483130    7.399404527   453.3410   4   0   0.0218   0.0229   0.0574   0.0070   0.0106   0.0171   0.42    0.0
2022/11/10 11:00:07.416    9.042483160    7.399404530   453.3425   4   0   0.0218   0.0229   0.0574   0.0071   0.0106   0.0171   0.42    0.0
2022/11/10 11:00:08.416    9.042483175    7.399404516   453.3472   4   0   0.0218   0.0229   0.0574   0.0071   0.0106   0.0171   0.42    0.0
2022/11/10 11:00:09.416    9.042483157    7.399404535   453.3445   4   0   0.0218   0.0229   0.0574   0.0071   0.0106   0.0171   0.42    0.0
2022/11/10 11:00:10.416    9.042483169    7.399404532   453.3492   4   0   0.0218   0.0229   0.0574   0.0071   0.0106   0.0171   0.42    0.0
2022/11/10 11:00:11.416    9.042483154    7.399404538   453.3475   4   0   0.0218   0.0229   0.0574   0.0070   0.0106   0.0171   0.42    0.0
2022/11/10 11:00:12.416    9.042483172    7.399404531   453.3481   4   0   0.0218   0.0229   0.0574   0.0071   0.0106   0.0171   0.42    0.0
2022/11/10 11:00:13.416    9.042483166    7.399404524   453.3475   4   0   0.0218   0.0229   0.0574   0.0071   0.0106   0.0171   0.42    0.0
2022/11/10 11:00:14.416    9.042483177    7.399404528   453.3509   4   0   0.0218   0.0229   0.0574   0.0070   0.0106   0.0171   0.42    0.0
2022/11/10 11:00:15.416    9.042483185    7.399404526   453.3509   4   0   0.0218   0.0229   0.0574   0.0070   0.0106   0.0171   0.42    0.0
2022/11/10 11:00:16.416    9.042483181    7.399404525   453.3522   4   0   0.0218   0.0229   0.0574   0.0070   0.0106   0.0171   0.42    0.0
2022/11/10 11:00:17.416    9.042483185    7.399404524   453.3555   4   0   0.0218   0.0229   0.0574   0.0071   0.0106   0.0171   0.42    0.0
2022/11/10 11:00:18.416    9.042483182    7.399404530   453.3575   4   0   0.0218   0.0229   0.0574   0.0070   0.0106   0.0171   0.42    0.0
2022/11/10 11:00:19.416    9.042483175    7.399404529   453.3565   4   0   0.0218   0.0229   0.0574   0.0070   0.0106   0.0171   0.42    0.0
2022/11/10 11:00:20.416    9.042483216    7.399404514   453.3590   4   0   0.0218   0.0229   0.0574   0.0071   0.0106   0.0171   0.42    0.0
2022/11/10 11:00:21.416    9.042483201    7.399404521   453.3604   4   0   0.0218   0.0229   0.0574   0.0071   0.0106   0.0171   0.42    0.0
2022/11/10 11:00:22.416    9.042483220    7.399404520   453.3615   4   0   0.0218   0.0229   0.0574   0.0071   0.0106   0.0171   0.42    0.0
2022/11/10 11:00:23.416    9.042483208    7.399404525   453.3615   4   0   0.0218   0.0229   0.0574   0.0070   0.0106   0.0171   0.42    0.0
2022/11/10 11:00:24.416    9.042483195    7.399404513   453.3619   4   0   0.0218   0.0229   0.0574   0.0071   0.0106   0.0171   0.42    0.0
2022/11/10 11:00:25.416    9.042483193    7.399404513   453.3621   4   0   0.0218   0.0229   0.0574   0.0070   0.0106   0.0171   0.42    0.0
2022/11/10 11:00:26.416    9.042483200    7.399404529   453.3595   4   0   0.0218   0.0229   0.0574   0.0071   0.0106   0.0171   0.42    0.0
2022/11/10 11:00:27.416    9.042483205    7.399404526   453.3613   4   0   0.0218   0.0229   0.0574   0.0071   0.0106   0.0171   0.42    0.0
2022/11/10 11:00:28.416    9.042483208    7.399404515   453.3590   4   0   0.0218   0.0229   0.0574   0.0071   0.0106   0.0171   0.42    0.0
2022/11/10 11:00:29.416    9.042483205    7.399404518   453.3589   4   0   0.0218   0.0229   0.0574   0.0071   0.0106   0.0171   0.42    0.0
2022/11/10 11:00:30.416    9.042483204    7.399404521   453.3582   4   0   0.0218   0.0229   0.0574   0.0070   0.0106   0.0171   0.42    0.0
2022/11/10 11:00:31.416    9.042483210    7.399404516   453.3583   4   0   0.0218   0.0229   0.0574   0.0071   0.0106   0.0171   0.42    0.0
2022/11/10 11:00:32.416    9.042483198    7.399404502   453.3600   4   0   0.0218   0.0229   0.0574   0.0070   0.0106   0.0171   0.42    0.0
2022/11/10 11:00:33.416    9.042483191    7.399404515   453.3605   4   0   0.0218   0.0229   0.0574   0.0070   0.0106   0.0171   0.42    0.0
2022/11/10 11:00:34.416    9.042483201    7.399404516   453.3601   4   0   0.0218   0.0229   0.0574   0.0070   0.0106   0.0171   0.42    0.0
2022/11/10 11:00:35.416    9.042483205    7.399404519   453.3570   4   0   0.0218   0.0229   0.0574   0.0070   0.0106   0.0171   0.42    0.0
2022/11/10 11:00:36.416    9.042483213    7.399404534   453.3588   4   0   0.0218   0.0229   0.0574   0.0070   0.0106   0.0171   0.42    0.0
2022/11/10 11:00:37.416    9.042483198    7.399404526   453.3550   4   0   0.0218   0.0229   0.0574   0.0070   0.0106   0.0171   0.42    0.0
2022/11/10 11:00:38.416    9.042483213    7.399404519   453.3571   4   0   0.0218   0.0229   0.0574   0.0070   0.0106   0.0171   0.42    0.0
2022/11/10 11:00:39.416    9.042483212    7.399404519   453.3594   4   0   0.0218   0.0229   0.0574   0.0070   0.0106   0.0171   0.42    0.0
2022/11/10 11:00:40.416    9.042483204    7.399404521   453.3630   4   0   0.0218   0.0229   0.0574   0.0070   0.0106   0.0171   0.42    0.0
2022/11/10 11:00:41.416    9.042483215    7.399404518   453.3595   4   0   0.0218   0.0229   0.0574   0.0070   0.0106   0.0171   0.42    0.0
2022/11/10 11:00:42.416    9.042483219    7.399404512   453.3655   4   0   0.0218   0.0229   0.0574   0.0070   0.0106   0.0171   0.42    0.0
2022/11/10 11:00:43.416    9.042483202    7.399404519   453.3652   4   0   0.0218   0.0229   0.0574   0.0070   0.0106   0.0171   0.42    0.0
2022/11/10 11:00:44.416    9.042483205    7.399404514   453.3642   4   0   0.0218   0.0229   0.0574   0.0070   0.0106   0.0171   0.42    0.0
2022/11/10 11:00:45.416    9.042483225    7.399404524   453.3609   4   0   0.0218   0.0229   0.0574   0.0070   0.0106   0.0171   0.42    0.0
2022/11/10 11:00:46.416    9.042483225    7.399404541   453.3618   4   0   0.0218   0.0229   0.0574   0.0070   0.0106   0.0171   0.42    0.0
2022/11/10 11:00:47.416    9.042483220    7.399404531   453.3613   4   0   0.0218   0.0229   0.0574   0.0070   0.0106   0.0171   0.42    0.0
2022/11/10 11:00:48.416    9.042483220    7.399404513   453.3616   4   0   0.0218   0.0229   0.0574   0.0070   0.0106   0.0171   0.42    0.0
2022/11/10 11:00:49.416    9.042483225    7.399404531   453.3618   4   0   0.0218   0.0229   0.0574   0.0070   0.0106   0.0171   0.42    0.0
2022/11/10 11:00:50.416    9.042483236    7.399404530   453.3668   4   0   0.0218   0.0229   0.0574   0.0070   0.0106   0.0171   0.42    0.0
2022/11/10 11:00:51.416    9.042483222    7.399404529   453.3641   4   0   0.0218   0.0229   0.0574   0.0070   0.0106   0.0171   0.42    0.0
2022/11/10 11:00:52.416    9.042483227    7.399404518   453.3646   4   0   0.0218   0.0229   0.0574   0.0070   0.0106   0.0171   0.42    0.0
2022/11/10 11:00:53.416    9.042483222    7.399404522   453.3628   4   0   0.0218   0.0229   0.0574   0.0070   0.0106   0.0171   0.42    0.0
2022/11/10 11:00:54.416    9.042483222    7.399404527   453.3636   4   0   0.0218   0.0229   0.0574   0.0070   0.0106   0.0171   0.42    0.0
2022/11/10 11:00:55.416    9.042483222    7.399404507   453.3647   4   0   0.0218   0.0229   0.0574   0.0070   0.0106   0.0171   0.42    0.0
2022/11/10 11:00:56.416    9.042483229    7.399404516   453.3630   4   0   0.0218   0.0229   0.0574   0.0070   0.0106   0.0171   0.42    0.0
2022/11/10 11:00:57.416    9.042483218    7.399404503   453.3640   4   0   0.0218   0.0229   0.0574   0.0070   0.0106   0.0171   0.42    0.0
2022/11/10 11:00:58.416    9.042483229    7.399404495   453.3628   4   0   0.0218   0.0229   0.0574   0.0070   0.0106   0.0171   0.42    0.0
2022/11/10 11:00:59.416    9.042483226    7.399404496   453.3624   4   0   0.0218   0.0229   0.0574   0.0070   0.0106   0.0171   0.42    0.0
2022/11/10 11:01:00.416    9.042483239    7.399404506   453.3629   4   0   0.0218   0.0229   0.0574   0.0070   0.0106   0.0171   0.42    0.0
2022/11/10 11:01:01.416    9.042483233    7.399404496   453.3611   4   0   0.0218   0.0229   0.0574   0.0070   0.0106   0.0171   0.42    0.0
2022/11/10 11:01:02.416    9.042483239    7.399404504   453.3646   4   0   0.0218   0.0229   0.0574   0.0070   0.0106   0.0171   0.42    0.0
2022/11/10 11:01:03.416    9.042483239    7.399404500   453.3634   4   0   0.0218   0.0229   0.0574   0.0070   0.0106   0.0171   0.42    0.0
2022/11/10 11:01:04.416    9.042483244    7.399404505   453.3644   4   0   0.0218   0.0229   0.0574   0.0070   0.0106   0.0171   0.42    0.0
2022/11/10 11:01:05.416    9.042483221    7.399404511   453.3660   4   0   0.0218   0.0229   0.0574   0.0070   0.0106   0.0171   0.42    0.0
2022/11/10 11:01:06.416    9.042483229    7.399404501   453.3634   4   0   0.0218   0.0229   0.0574   0.0070   0.0106   0.0171   0.42    0.0
2022/11/10 11:01:07.416    9.042483229    7.399404508   453.3652   4   0   0.0218   0.0229   0.0574   0.0070   0.0106   0.0171   0.42    0.0
2022/11/10 11:01:08.416    9.042483226    7.399404502   453.3661   4   0   0.0218   0.0229   0.0574   0.0070   0.0106   0.0171   0.42    0.0
2022/11/10 11:01:09.416    9.042483224    7.399404502   453.3655   4   0   0.0218   0.0229   0.0574   0.0070   0.0106   0.0171   0.42    0.0
2022/11/10 11:01:10.416    9.042483224    7.399404494   453.3644   4   0   0.0218   0.0229   0.0574   0.0070   0.0106   0.0171   0.42    0.0
2022/11/10 11:01:11.416    9.042483220    7.399404496   453.3645   4   0   0.0218   0.0229   0.0574   0.0070   0.0106   0.0171   0.42    0.0
2022/11/10 11:01:12.416    9.042483230    7.399404494   453.3653   4   0   0.0218   0.0229   0.0574   0.0070   0.0106   0.0171   0.42    0.0
2022/11/10 11:01:13.416    9.042483225    7.399404503   453.3677   4   0   0.0218   0.0229   0.0574   0.0070   0.0106   0.0171   0.42    0.0
2022/11/10 11:01:14.416    9.042483232    7.399404502   453.3644   4   0   0.0218   0.0229   0.0574   0.0070   0.0106   0.0171   0.42    0.0
2022/11/10 11:01:15.416    9.042483235    7.399404494   453.3643   4   0   0.0218   0.0229   0.0574   0.0070   0.0106   0.0171   0.42    0.0
2022/11/10 11:01:16.416    9.042483259    7.399404480   453.3702   4   0   0.0218   0.0229   0.0574   0.0071   0.0106   0.0171   0.42    0.0
2022/11/10 11:01:17.416    9.042483248    7.399404479   453.3693   4   0   0.0218   0.0229   0.0574   0.0071   0.0106   0.0171   0.42    0.0
2022/11/10 11:01:18.416    9.042483252    7.399404480   453.3624   4   0   0.0218   0.0229   0.0574   0.0071   0.0106   0.0171   0.42    0.0
2022/11/10 11:01:19.416    9.042483265    7.399404468   453.3699   4   0   0.0218   0.0229   0.0574   0.0071   0.0106   0.0171   0.42    0.0
2022/11/10 11:01:20.416    9.042483248    7.399404471   453.3697   4   0   0.0218   0.0229   0.0574   0.0071   0.0106   0.0171   0.42    0.0
2022/11/10 11:01:21.416    9.042483268    7.399404465   453.3724   4   0   0.0218   0.0229   0.0574   0.0071   0.0107   0.0171   0.42    0.0
2022/11/10 11:01:22.416    9.042483253    7.399404466   453.3700   4   0   0.0218   0.0229   0.0574   0.0071   0.0106   0.0171   0.42    0.0
2022/11/10 11:01:23.416    9.042483247    7.399404461   453.3704   4   0   0.0218   0.0229   0.0574   0.0071   0.0106   0.0171   0.42    0.0
2022/11/10 11:01:24.416    9.042483237    7.399404456   453.3712   4   0   0.0218   0.0229   0.0574   0.0070   0.0106   0.0171   0.42    0.0
2022/11/10 11:01:25.416    9.042483237    7.399404456   453.3687   4   0   0.0218   0.0229   0.0574   0.0070   0.0106   0.0171   0.42    0.0
2022/11/10 11:01:26.416    9.042483235    7.399404464   453.3684   4   0   0.0218   0.0229   0.0574   0.0070   0.0106   0.0171   0.42    0.0
2022/11/10 11:01:27.416    9.042483245    7.399404465   453.3680   4   0   0.0218   0.0229   0.0574   0.0071   0.0106   0.0171   0.42    0.0
2022/11/10 11:01:28.416    9.042483238    7.399404475   453.3689   4   0   0.0218   0.0229   0.0574   0.0070   0.0106   0.0171   0.42    0.0
2022/11/10 11:01:29.416    9.042483259    7.399404455   453.3725   4   0   0.0218   0.0229   0.0574   0.0071   0.0106   0.0171   0.42    0.0
2022/11/10 11:01:30.416    9.042483238    7.399404469   453.3728   4   0   0.0218   0.0229   0.0574   0.0070   0.0106   0.0171   0.42    0.0
2022/11/10 11:01:31.416    9.042483240    7.399404472   453.3693   4   0   0.0218   0.0229   0.0574   0.0070   0.0106   0.0171   0.42    0.0
2022/11/10 11:01:32.416    9.042483228    7.399404462   453.3724   4   0   0.0218   0.0229   0.0574   0.0070   0.0106   0.0171   0.42    0.0
2022/11/10 11:01:33.416    9.042483243    7.399404470   453.3701   4   0   0.0218   0.0229   0.0574   0.0070   0.0106   0.0171   0.42    0.0
2022/11/10 11:01:34.416    9.042483235    7.399404467   453.3682   4   0   0.0218   0.0229   0.0574   0.0070   0.0106   0.0171   0.42    0.0
2022/11/10 11:01:35.416    9.042483261    7.399404462   453.3684   4   0   0.0218   0.0229   0.0574   0.0070   0.0106   0.0171   0.42    0.0
2022/11/10 11:01:36.416    9.042483244    7.399404463   453.3684   4   0   0.0218   0.0229   0.0574   0.0070   0.0106   0.0171   0.42    0.0
2022/11/10 11:01:37.416    9.042483239    7.399404468   453.3644   4   0   0.0218   0.0229   0.0574   0.0070   0.0106   0.0171   0.42    0.0
2022/11/10 11:01:38.416    9.042483248    7.399404467   453.3634   4   0   0.0218   0.0229   0.0574   0.0070   0.0106   0.0171   0.42    0.0
2022/11/10 11:01:39.416    9.042483243    7.399404465   453.3623   4   0   0.0218   0.0229   0.0574   0.0070   0.0106   0.0171   0.42    0.0
2022/11/10 11:01:40.416    9.042483240    7.399404456   453.3660   4   0   0.0218   0.0229   0.0574   0.0070   0.0106   0.0171   0.42    0.0
2022/11/10 11:01:41.416    9.042483241    7.399404468   453.3649   4   0   0.0218   0.0229   0.0574   0.0070   0.0106   0.0171   0.42    0.0
2022/11/10 11:01:42.416    9.042483238    7.399404464   453.3642   4   0   0.0218   0.0229   0.0574   0.0070   0.0106   0.0171   0.42    0.0
2022/11/10 11:01:43.416    9.042483241    7.399404466   453.3625   4   0   0.0218   0.0229   0.0574   0.0071   0.0106   0.0171   0.42    0.0
2022/11/10 11:01:44.416    9.042483239    7.399404469   453.3663   4   0   0.0218   0.0229   0.0574   0.0070   0.0106   0.0171   0.42    0.0
2022/11/10 11:01:45.416    9.042483248    7.399404465   453.3642   4   0   0.0218   0.0229   0.0574   0.0071   0.0106   0.0171   0.42    0.0
2022/11/10 11:01:46.416    9.042483245    7.399404462   453.3639   4   0   0.0218   0.0229   0.0574   0.0071   0.0106   0.0171   0.42    0.0
2022/11/10 11:01:47.416    9.042483238    7.399404464   453.3646   4   0   0.0218   0.0229   0.0574   0.0071   0.0106   0.0171   0.42    0.0
2022/11/10 11:01:48.416    9.042483237    7.399404468   453.3627   4   0   0.0218   0.0229   0.0574   0.0070   0.0106   0.0171   0.42    0.0
2022/11/10 11:01:49.416    9.042483245    7.399404470   453.3668   4   0   0.0218   0.0229   0.0574   0.0071   0.0106   0.0171   0.42    0.0
2022/11/10 11:01:50.416    9.042483223    7.399404470   453.3660   4   0   0.0218   0.0229   0.0574   0.0070   0.0106   0.0171   0.42    0.0
2022/11/10 11:01:51.416    9.042483226    7.399404473   453.3666   4   0   0.0218   0.0229   0.0574   0.0070   0.0106   0.0171   0.42    0.0
2022/11/10 11:01:52.416    9.042483239    7.399404472   453.3682   4   0   0.0218   0.0229   0.0574   0.0070   0.0106   0.0171   0.42    0.0
2022/11/10 11:01:53.416    9.042483238    7.399404460   453.3682   4   0   0.0218   0.0229   0.0574   0.0070   0.0106   0.0171   0.42    0.0
2022/11/10 11:01:54.416    9.042483253    7.399404475   453.3691   4   0   0.0218   0.0229   0.0574   0.0070   0.0106   0.0171   0.42    0.0
2022/11/10 11:01:55.416    9.042483233    7.399404469   453.3673   4   0   0.0218   0.0229   0.0574   0.0070   0.0106   0.0171   0.42    0.0
2022/11/10 11:01:56.416    9.042483246    7.399404471   453.3656   4   0   0.0218   0.0229   0.0574   0.0071   0.0106   0.0171   0.42    0.0
2022/11/10 11:01:57.416    9.042483251    7.399404474   453.3669   4   0   0.0218   0.0229   0.0574   0.0070   0.0106   0.0171   0.42    0.0
2022/11/10 11:01:58.416    9.042483245    7.399404464   453.3645   4   0   0.0218   0.0229   0.0574   0.0070   0.0106   0.0171   0.42    0.0
2022/11/10 11:01:59.416    9.042483273    7.399404472   453.3680   4   0   0.0218   0.0229   0.0574   0.0071   0.0106   0.0171   0.42    0.0
2022/11/10 11:02:00.416    9.042483252    7.399404463   453.3651   4   0   0.0218   0.0229   0.0574   0.0070   0.0106   0.0171   0.42    0.0
2022/11/10 11:02:01.416    9.042483264    7.399404477   453.3648   4   0   0.0218   0.0229   0.0574   0.0071   0.0106   0.0171   0.42    0.0
2022/11/10 11:02:02.416    9.042483279    7.399404464   453.3676   4   0   0.0218   0.0229   0.0574   0.0070   0.0106   0.0171   0.42    0.0
2022/11/10 11:02:03.416    9.042483271    7.399404459   453.3663   4   0   0.0218   0.0229   0.0574   0.0071   0.0106   0.0171   0.42    0.0
2022/11/10 11:02:04.416    9.042483266    7.399404448   453.3649   4   0   0.0218   0.0229   0.0574   0.0071   0.0106   0.0171   0.42    0.0
2022/11/10 11:02:05.416    9.042483267    7.399404452   453.3637   4   0   0.0218   0.0229   0.0574   0.0071   0.0106   0.0171   0.42    0.0
2022/11/10 11:02:06.416    9.042483260    7.399404434   453.3641   4   0   0.0218   0.0229   0.0574   0.0071   0.0106   0.0171   0.42    0.0
2022/11/10 11:02:07.416    9.042483250    7.399404428   453.3595   4   0   0.0218   0.0229   0.0574   0.0071   0.0106   0.0171   0.42    0.0
2022/11/10 11:02:08.416    9.042483251    7.399404404   453.3605   4   0   0.0218   0.0229   0.0574   0.0070   0.0106   0.0171   0.42    0.0
2022/11/10 11:02:09.416    9.042483254    7.399404415   453.3609   4   0   0.0218   0.0229   0.0574   0.0070   0.0106   0.0171   0.42    0.0
2022/11/10 11:02:10.416    9.042483256    7.399404411   453.3633   4   0   0.0218   0.0229   0.0574   0.0070   0.0106   0.0171   0.42    0.0
2022/11/10 11:02:11.416    9.042483232    7.399404410   453.3705   4   0   0.0218   0.0229   0.0574   0.0070   0.0106   0.0171   0.42    0.0
2022/11/10 11:02:12.416    9.042483241    7.399404398   453.3694   4   0   0.0218   0.0229   0.0574   0.0070   0.0106   0.0171   0.42    0.0
2022/11/10 11:02:13.416    9.042483245    7.399404423   453.3715   4   0   0.0218   0.0229   0.0574   0.0071   0.0106   0.0171   0.42    0.0
2022/11/10 11:02:14.416    9.042483248    7.399404393   453.3663   4   0   0.0218   0.0229   0.0574   0.0071   0.0106   0.0171   0.42    0.0
2022/11/10 11:02:15.416    9.042483254    7.399404413   453.3660   4   0   0.0218   0.0229   0.0574   0.0071   0.0106   0.0171   0.42    0.0
2022/11/10 11:02:16.416    9.042483243    7.399404398   453.3679   4   0   0.0218   0.0229   0.0574   0.0070   0.0106   0.0171   0.42    0.0
2022/11/10 11:02:17.416    9.042483251    7.399404397   453.3637   4   0   0.0218   0.0229   0.0574   0.0070   0.0106   0.0171   0.42    0.0
2022/11/10 11:02:18.416    9.042483245    7.399404394   453.3621   4   0   0.0218   0.0229   0.0574   0.0070   0.0106   0.0171   0.42    0.0
2022/11/10 11:02:19.416    9.042483253    7.399404396   453.3634   4   0   0.0218   0.0229   0.0574   0.0070   0.0106   0.0171   0.42    0.0
2022/11/10 11:02:20.416    9.042483259    7.399404385   453.3670   4   0   0.0218   0.0229   0.0574   0.0070   0.0106   0.0171   0.42    0.0
2022/11/10 11:02:21.416    9.042483223    7.399404393   453.3617   4   0   0.0218   0.0229   0.0574   0.0070   0.0106   0.0171   0.42    0.0
2022/11/10 11:02:22.416    9.042483222    7.399404376   453.3626   4   0   0.0218   0.0229   0.0574   0.0070   0.0106   0.0171   0.42    0.0
2022/11/10 11:02:23.416    9.042483225    7.399404377   453.3639   4   0   0.0218   0.0229   0.0574   0.0070   0.0107   0.0171   0.42    0.0
2022/11/10 11:02:24.416    9.042483229    7.399404370   453.3679   4   0   0.0218   0.0229   0.0574   0.0070   0.0107   0.0171   0.42    0.0
2022/11/10 11:02:25.416    9.042483232    7.399404384   453.3610   4   0   0.0218   0.0229   0.0574   0.0070   0.0106   0.0171   0.42    0.0
2022/11/10 11:02:26.416    9.042483230    7.399404371   453.3644   4   0   0.0218   0.0229   0.0574   0.0070   0.0106   0.0171   0.42    0.0
2022/11/10 11:02:27.416    9.042483220    7.399404377   453.3621   4   0   0.0218   0.0229   0.0574   0.0070   0.0107   0.0171   0.42    0.0
2022/11/10 11:02:28.416    9.042483233    7.399404373   453.3663   4   0   0.0218   0.0229   0.0574   0.0070   0.0106   0.0171   0.42    0.0
2022/11/10 11:02:29.416    9.042483231    7.399404382   453.3637   4   0   0.0218   0.0229   0.0574   0.0070   0.0106   0.0171   0.42    0.0
2022/11/10 11:02:30.416    9.042483223    7.399404377   453.3605   4   0   0.0218   0.0229   0.0574   0.0070   0.0106   0.0171   0.42    0.0
2022/11/10 11:02:31.416    9.042483233    7.399404376   453.3594   4   0   0.0218   0.0229   0.0574   0.0070   0.0106   0.0171   0.42    0.0
2022/11/10 11:02:32.416    9.042483244    7.399404379   453.3617   4   0   0.0218   0.0229   0.0574   0.0070   0.0106   0.0171   0.42    0.0
2022/11/10 11:02:33.416    9.042483243    7.399404376   453.3612   4   0   0.0218   0.0229   0.0574   0.0070   0.0107   0.0171   0.42    0.0
2022/11/10 11:02:34.416    9.042483228    7.399404385   453.3558   4   0   0.0218   0.0229   0.0574   0.0071   0.0106   0.0171   0.42    0.0
2022/11/10 11:02:35.416    9.042483247    7.399404382   453.3614   4   0   0.0218   0.0229   0.0574   0.0070   0.0106   0.0171   0.42    0.0
2022/11/10 11:02:36.416    9.042483220    7.399404391   453.3552   4   0   0.0218   0.0229   0.0574   0.0070   0.0107   0.0171   0.42    0.0
2022/11/10 11:02:37.416    9.042483228    7.399404387   453.3536   4   0   0.0218   0.0229   0.0574   0.0070   0.0107   0.0171   0.42    0.0
2022/11/10 11:02:38.416    9.042483240    7.399404378   453.3568   4   0   0.0218   0.0229   0.0574   0.0070   0.0106   0.0171   0.42    0.0
2022/11/10 11:02:39.416    9.042483224    7.399404389   453.3539   4   0   0.0218   0.0229   0.0574   0.0070   0.0106   0.0171   0.42    0.0
2022/11/10 11:02:40.416    9.042483223    7.399404378   453.3563   4   0   0.0218   0.0229   0.0574   0.0071   0.0106   0.0171   0.42    0.0
2022/11/10 11:02:41.416    9.042483232    7.399404378   453.3566   4   0   0.0218   0.0229   0.0574   0.0070   0.0107   0.0171   0.42    0.0
2022/11/10 11:02:42.416    9.042483232    7.399404370   453.3571   4   0   0.0218   0.0229   0.0574   0.0070   0.0106   0.0171   0.42    0.0
2022/11/10 11:02:43.416    9.042483227    7.399404388   453.3583   4   0   0.0218   0.0229   0.0574   0.0070   0.0106   0.0171   0.42    0.0
2022/11/10 11:02:44.416    9.042483225    7.399404383   453.3594   4   0   0.0218   0.0229   0.0574   0.0070   0.0106   0.0171   0.42    0.0
2022/11/10 11:02:45.416    9.042483218    7.399404378   453.3634   4   0   0.0218   0.0229   0.0574   0.0070   0.0106   0.0171   0.42    0.0
2022/11/10 11:02:46.416    9.042483219    7.399404386   453.3589   4   0   0.0218   0.0229   0.0574   0.0070   0.0106   0.0171   0.42    0.0
2022/11/10 11:02:47.416    9.042483228    7.399404373   453.3596   4   0   0.0218   0.0229   0.0574   0.0070   0.0107   0.0171   0.42    0.0
2022/11/10 11:02:48.416    9.042483224    7.399404371   453.3593   4   0   0.0218   0.0229   0.0574   0.0071   0.0106   0.0171   0.42    0.0
2022/11/10 11:02:49.416    9.042483203    7.399404378   453.3590   4   0   0.0218   0.0229   0.0574   0.0070   0.0106   0.0171   0.42    0.0
2022/11/10 11:02:50.416    9.042483212    7.399404383   453.3604   4   0   0.0218   0.0229   0.0574   0.0071   0.0107   0.0171   0.42    0.0
2022/11/10 11:02:51.416    9.042483210    7.399404390   453.3552   4   0   0.0218   0.0229   0.0574   0.0070   0.0107   0.0171   0.42    0.0
2022/11/10 11:02:52.416    9.042483216    7.399404384   453.3555   4   0   0.0218   0.0229   0.0574   0.0070   0.0106   0.0171   0.42    0.0
2022/11/10 11:02:53.416    9.042483211    7.399404381   453.3536   4   0   0.0218   0.0229   0.0574   0.0070   0.0106   0.0171   0.42    0.0
2022/11/10 11:02:54.416    9.042483216    7.399404375   453.3562   4   0   0.0218   0.0229   0.0574   0.0070   0.0107   0.0171   0.42    0.0
2022/11/10 11:02:55.416    9.042483217    7.399404386   453.3526   4   0   0.0218   0.0229   0.0574   0.0070   0.0106   0.0171   0.42    0.0
2022/11/10 11:02:56.416    9.042483213    7.399404384   453.3507   4   0   0.0218   0.0229   0.0574   0.0070   0.0106   0.0171   0.42    0.0
2022/11/10 11:02:57.416    9.042483205    7.399404376   453.3515   4   0   0.0218   0.0229   0.0574   0.0070   0.0106   0.0171   0.42    0.0
2022/11/10 11:02:58.416    9.042483206    7.399404376   453.3492   4   0   0.0218   0.0229   0.0574   0.0070   0.0106   0.0171   0.42    0.0
2022/11/10 11:02:59.416    9.042483205    7.399404381   453.3509   4   0   0.0218   0.0229   0.0574   0.0070   0.0106   0.0171   0.42    0.0
2022/11/10 11:03:00.416    9.042483212    7.399404383   453.3545   4   0   0.0218   0.0229   0.0574   0.0070   0.0106   0.0171   0.42    0.0
2022/11/10 11:03:01.416    9.042483215    7.399404384   453.3553   4   0   0.0218   0.0229   0.0574   0.0070   0.0106   0.0171   0.42    0.0
2022/11/10 11:03:02.416    9.042483216    7.399404382   453.3546   4   0   0.0218   0.0229   0.0574   0.0070   0.0106   0.0171   0.42    0.0
2022/11/10 11:03:03.416    9.042483208    7.399404377   453.3554   4   0   0.0218   0.0229   0.0574   0.0070   0.0107   0.0171   0.42    0.0
2022/11/10 11:03:04.416    9.042483197    7.399404379   453.3530   4   0   0.0218   0.0229   0.0574   0.0070   0.0107   0.0171   0.42    0.0
2022/11/10 11:03:05.416    9.042483212    7.399404380   453.3523   4   0   0.0218   0.0229   0.0574   0.0070   0.0107   0.0171   0.42    0.0
2022/11/10 11:03:06.416    9.042483209    7.399404386   453.3520   4   0   0.0218   0.0229   0.0574   0.0070   0.0107   0.0171   0.42    0.0
2022/11/10 11:03:07.416    9.042483216    7.399404388   453.3534   4   0   0.0218   0.0229   0.0574   0.0070   0.0107   0.0171   0.42    0.0
2022/11/10 11:03:08.416    9.042483219    7.399404379   453.3542   4   0   0.0218   0.0229   0.0574   0.0070   0.0106   0.0171   0.42    0.0
2022/11/10 11:03:09.416    9.042483211    7.399404379   453.3531   4   0   0.0218   0.0229   0.0574   0.0070   0.0107   0.0171   0.42    0.0
2022/11/10 11:03:10.416    9.042483208    7.399404373   453.3536   4   0   0.0218   0.0229   0.0574   0.0070   0.0107   0.0171   0.42    0.0
2022/11/10 11:03:11.416    9.042483216    7.399404373   453.3520   4   0   0.0218   0.0229   0.0574   0.0070   0.0107   0.0171   0.42    0.0
2022/11/10 11:03:12.416    9.042483226    7.399404376   453.3541   4   0   0.0218   0.0229   0.0574   0.0070   0.0107   0.0171   0.42    0.0
2022/11/10 11:03:13.416    9.042483215    7.399404381   453.3463   4   0   0.0218   0.0229   0.0574   0.0070   0.0107   0.0171   0.42    0.0
2022/11/10 11:03:14.416    9.042483214    7.399404370   453.3488   4   0   0.0218   0.0229   0.0574   0.0070   0.0107   0.0171   0.42    0.0
2022/11/10 11:03:15.416    9.042483209    7.399404364   453.3495   4   0   0.0218   0.0229   0.0574   0.0070   0.0107   0.0171   0.42    0.0
2022/11/10 11:03:16.416    9.042483226    7.399404363   453.3498   4   0   0.0218   0.0229   0.0574   0.0070   0.0107   0.0171   0.42    0.0
2022/11/10 11:03:17.416    9.042483221    7.399404365   453.3480   4   0   0.0218   0.0229   0.0574   0.0070   0.0107   0.0171   0.42    0.0
2022/11/10 11:03:18.416    9.042483219    7.399404372   453.3469   4   0   0.0218   0.0229   0.0574   0.0070   0.0107   0.0171   0.42    0.0
2022/11/10 11:03:19.416    9.042483225    7.399404359   453.3503   4   0   0.0218   0.0229   0.0574   0.0071   0.0107   0.0171   0.42    0.0
2022/11/10 11:03:20.416    9.042483214    7.399404365   453.3504   4   0   0.0218   0.0229   0.0574   0.0071   0.0107   0.0171   0.42    0.0
2022/11/10 11:03:21.416    9.042483217    7.399404361   453.3477   4   0   0.0218   0.0229   0.0574   0.0070   0.0107   0.0171   0.42    0.0
2022/11/10 11:03:22.416    9.042483218    7.399404366   453.3487   4   0   0.0218   0.0229   0.0574   0.0070   0.0107   0.0171   0.42    0.0
2022/11/10 11:03:23.416    9.042483207    7.399404362   453.3451   4   0   0.0218   0.0229   0.0574   0.0070   0.0107   0.0171   0.42    0.0
2022/11/10 11:03:24.416    9.042483210    7.399404358   453.3416   4   0   0.0218   0.0229   0.0574   0.0070   0.0107   0.0171   0.42    0.0
2022/11/10 11:03:25.416    9.042483212    7.399404366   453.3426   4   0   0.0218   0.0229   0.0574   0.0071   0.0107   0.0171   0.42    0.0
2022/11/10 11:03:26.416    9.042483201    7.399404375   453.3403   4   0   0.0218   0.0229   0.0574   0.0071   0.0107   0.0171   0.42    0.0
2022/11/10 11:03:27.416    9.042483216    7.399404362   453.3419   4   0   0.0218   0.0229   0.0574   0.0071   0.0107   0.0171   0.42    0.0
2022/11/10 11:03:28.416    9.042483204    7.399404362   453.3391   4   0   0.0218   0.0229   0.0574   0.0070   0.0107   0.0171   0.42    0.0
2022/11/10 11:03:29.416    9.042483229    7.399404358   453.3448   4   0   0.0218   0.0229   0.0574   0.0071   0.0107   0.0171   0.42    0.0
2022/11/10 11:03:30.416    9.042483221    7.399404354   453.3456   4   0   0.0218   0.0229   0.0574   0.0071   0.0107   0.0171   0.42    0.0
2022/11/10 11:03:31.416    9.042483218    7.399404365   453.3434   4   0   0.0218   0.0229   0.0574   0.0071   0.0107   0.0171   0.42    0.0
2022/11/10 11:03:32.416    9.042483223    7.399404347   453.3416   4   0   0.0218   0.0229   0.0574   0.0070   0.0107   0.0171   0.42    0.0
2022/11/10 11:03:33.416    9.042483224    7.399404360   453.3454   4   0   0.0218   0.0229   0.0574   0.0071   0.0107   0.0171   0.42    0.0
2022/11/10 11:03:34.416    9.042483218    7.399404355   453.3467   4   0   0.0218   0.0229   0.0574   0.0070   0.0107   0.0171   0.42    0.0
2022/11/10 11:03:35.416    9.042483212    7.399404354   453.3419   4   0   0.0218   0.0229   0.0574   0.0070   0.0107   0.0171   0.42    0.0
2022/11/10 11:03:36.416    9.042483210    7.399404362   453.3445   4   0   0.0218   0.0229   0.0574   0.0071   0.0107   0.0171   0.42    0.0
2022/11/10 11:03:37.416    9.042483216    7.399404354   453.3461   4   0   0.0218   0.0229   0.0574   0.0070   0.0107   0.0171   0.42    0.0
2022/11/10 11:03:38.416    9.042483217    7.399404350   453.3429   4   0   0.0218   0.0229   0.0574   0.0070   0.0107   0.0171   0.42    0.0
2022/11/10 11:03:39.416    9.042483218    7.399404351   453.3442   4   0   0.0218   0.0229   0.0574   0.0070   0.0107   0.0171   0.42    0.0
2022/11/10 11:03:40.416    9.042483205    7.399404350   453.3431   4   0   0.0218   0.0229   0.0574   0.0071   0.0107   0.0171   0.42    0.0
2022/11/10 11:03:41.416    9.042483203    7.399404357   453.3400   4   0   0.0218   0.0229   0.0574   0.0070   0.0107   0.0171   0.42    0.0
2022/11/10 11:03:42.416    9.042483220    7.399404356   453.3441   4   0   0.0218   0.0229   0.0574   0.0071   0.0107   0.0171   0.42    0.0
2022/11/10 11:03:43.416    9.042483210    7.399404354   453.3418   4   0   0.0218   0.0229   0.0574   0.0071   0.0107   0.0171   0.42    0.0
2022/11/10 11:03:44.416    9.042483233    7.399404348   453.3453   4   0   0.0218   0.0229   0.0574   0.0071   0.0107   0.0171   0.42    0.0
2022/11/10 11:03:45.416    9.042483233    7.399404346   453.3426   4   0   0.0218   0.0229   0.0574   0.0071   0.0107   0.0171   0.42    0.0
2022/11/10 11:03:46.416    9.042483222    7.399404352   453.3383   4   0   0.0218   0.0229   0.0574   0.0071   0.0107   0.0171   0.42    0.0
2022/11/10 11:03:47.416    9.042483220    7.399404355   453.3409   4   0   0.0218   0.0229   0.0574   0.0070   0.0107   0.0171   0.42    0.0
2022/11/10 11:03:48.416    9.042483228    7.399404353   453.3395   4   0   0.0218   0.0229   0.0574   0.0070   0.0107   0.0171   0.42    0.0
2022/11/10 11:03:49.416    9.042483232    7.399404354   453.3430   4   0   0.0218   0.0229   0.0574   0.0070   0.0107   0.0171   0.42    0.0
2022/11/10 11:03:50.416    9.042483232    7.399404352   453.3409   4   0   0.0218   0.0229   0.0574   0.0070   0.0107   0.0171   0.42    0.0
2022/11/10 11:03:51.416    9.042483226    7.399404351   453.3419   4   0   0.0218   0.0229   0.0574   0.0071   0.0107   0.0171   0.42    0.0
2022/11/10 11:03:52.416    9.042483219    7.399404354   453.3379   4   0   0.0218   0.0229   0.0574   0.0070   0.0107   0.0171   0.42    0.0
2022/11/10 11:03:53.416    9.042483224    7.399404358   453.3407   4   0   0.0218   0.0229   0.0574   0.0070   0.0107   0.0171   0.42    0.0
2022/11/10 11:03:54.416    9.042483209    7.399404352   453.3386   4   0   0.0218   0.0229   0.0574   0.0070   0.0107   0.0171   0.42    0.0
2022/11/10 11:03:55.416    9.042483223    7.399404355   453.3434   4   0   0.0218   0.0229   0.0574   0.0070   0.0107   0.0171   0.42    0.0
2022/11/10 11:03:56.416    9.042483226    7.399404344   453.3433   4   0   0.0218   0.0229   0.0574   0.0070   0.0107   0.0171   0.42    0.0
2022/11/10 11:03:57.416    9.042483231    7.399404357   453.3440   4   0   0.0218   0.0229   0.0574   0.0070   0.0107   0.0171   0.42    0.0
2022/11/10 11:03:58.416    9.042483225    7.399404346   453.3415   4   0   0.0218   0.0229   0.0574   0.0071   0.0107   0.0171   0.42    0.0
2022/11/10 11:03:59.416    9.042483226    7.399404346   453.3432   4   0   0.0218   0.0229   0.0574   0.0070   0.0107   0.0171   0.42    0.0
2022/11/10 11:04:00.416    9.042483221    7.399404354   453.3412   4   0   0.0218   0.0229   0.0574   0.0071   0.0107   0.0171   0.42    0.0
2022/11/10 11:04:01.416    9.042483229    7.399404354   453.3388   4   0   0.0218   0.0229   0.0574   0.0071   0.0107   0.0171   0.42    0.0
2022/11/10 11:04:02.416    9.042483217    7.399404345   453.3361   4   0   0.0218   0.0229   0.0574   0.0071   0.0107   0.0171   0.42    0.0
2022/11/10 11:04:03.416    9.042483216    7.399404331   453.3424   4   0   0.0218   0.0229   0.0574   0.0071   0.0107   0.0171   0.42    0.0
2022/11/10 11:04:04.416    9.042483226    7.399404333   453.3396   4   0   0.0218   0.0229   0.0574   0.0071   0.0107   0.0171   0.42    0.0
2022/11/10 11:04:05.416    9.042483210    7.399404342   453.3376   4   0   0.0218   0.0229   0.0574   0.0071   0.0107   0.0171   0.42    0.0
2022/11/10 11:04:06.416    9.042483216    7.399404336   453.3387   4   0   0.0218   0.0229   0.0574   0.0071   0.0107   0.0171   0.42    0.0
2022/11/10 11:04:07.416    9.042483214    7.399404335   453.3402   4   0   0.0218   0.0229   0.0574   0.0071   0.0107   0.0171   0.42    0.0
2022/11/10 11:04:08.416    9.042483210    7.399404344   453.3377   4   0   0.0218   0.0229   0.0574   0.0071   0.0107   0.0171   0.42    0.0
2022/11/10 11:04:09.416    9.042483211    7.399404337   453.3367   4   0   0.0218   0.0229   0.0574   0.0071   0.0107   0.0171   0.42    0.0
2022/11/10 11:04:10.416    9.042483221    7.399404342   453.3423   4   0   0.0218   0.0229   0.0574   0.0071   0.0107   0.0171   0.42    0.0
2022/11/10 11:04:11.416    9.042483210    7.399404349   453.3385   4   0   0.0218   0.0229   0.0574   0.0071   0.0107   0.0171   0.42    0.0
2022/11/10 11:04:12.416    9.042483206    7.399404353   453.3380   4   0   0.0218   0.0229   0.0574   0.0071   0.0107   0.0171   0.42    0.0
2022/11/10 11:04:13.416    9.042483205    7.399404347   453.3361   4   0   0.0218   0.0229   0.0574   0.0071   0.0107   0.0171   0.42    0.0
2022/11/10 11:04:14.416    9.042483211    7.399404350   453.3416   4   0   0.0218   0.0229   0.0574   0.0071   0.0107   0.0171   0.42    0.0
2022/11/10 11:04:15.416    9.042483217    7.399404342   453.3402   4   0   0.0218   0.0229   0.0574   0.0071   0.0107   0.0171   0.42    0.0
2022/11/10 11:04:16.416    9.042483219    7.399404347   453.3411   4   0   0.0218   0.0229   0.0574   0.0071   0.0107   0.0171   0.42    0.0
2022/11/10 11:04:17.416    9.042483222    7.399404349   453.3409   4   0   0.0218   0.0229   0.0574   0.0071   0.0107   0.0171   0.42    0.0
2022/11/10 11:04:18.416    9.042483206    7.399404351   453.3398   4   0   0.0218   0.0229   0.0574   0.0071   0.0107   0.0171   0.42    0.0
2022/11/10 11:04:19.416    9.042483227    7.399404349   453.3414   4   0   0.0218   0.0229   0.0574   0.0071   0.0107   0.0171   0.42    0.0
2022/11/10 11:04:20.416    9.042483226    7.399404349   453.3429   4   0   0.0218   0.0229   0.0574   0.0071   0.0107   0.0171   0.42    0.0
2022/11/10 11:04:21.416    9.042483222    7.399404351   453.3429   4   0   0.0218   0.0229   0.0574   0.0071   0.0107   0.0171   0.42    0.0
2022/11/10 11:04:22.416    9.042483213    7.399404350   453.3397   4   0   0.0218   0.0229   0.0574   0.0071   0.0107   0.0171   0.42    0.0
2022/11/10 11:04:23.416    9.042483225    7.399404345   453.3433   4   0   0.0218   0.0229   0.0574   0.0071   0.0107   0.0171   0.42    0.0
2022/11/10 11:04:24.416    9.042483213    7.399404347   453.3420   4   0   0.0218   0.0229   0.0574   0.0071   0.0107   0.0171   0.42    0.0
2022/11/10 11:04:25.416    9.042483219    7.399404342   453.3408   4   0   0.0218   0.0229   0.0574   0.0071   0.0107   0.0171   0.42    0.0
2022/11/10 11:04:26.416    9.042483219    7.399404343   453.3426   4   0   0.0218   0.0229   0.0574   0.0071   0.0107   0.0171   0.42    0.0
2022/11/10 11:04:27.416    9.042483214    7.399404336   453.3425   4   0   0.0218   0.0229   0.0574   0.0071   0.0107   0.0171   0.42    0.0
2022/11/10 11:04:28.416    9.042483215    7.399404338   453.3415   4   0   0.0218   0.0229   0.0574   0.0071   0.0107   0.0171   0.42    0.0
2022/11/10 11:04:29.416    9.042483207    7.399404339   453.3400   4   0   0.0218   0.0229   0.0574   0.0071   0.0107   0.0171   0.42    0.0
2022/11/10 11:04:30.416    9.042483212    7.399404338   453.3400   4   0   0.0218   0.0229   0.0574   0.0071   0.0107   0.0171   0.42    0.0
2022/11/10 11:04:31.416    9.042483212    7.399404340   453.3380   4   0   0.0218   0.0229   0.0574   0.0071   0.0107   0.0171   0.42    0.0
2022/11/10 11:04:32.416    9.042483214    7.399404337   453.3391   4   0   0.0218   0.0229   0.0574   0.0071   0.0107   0.0171   0.42    0.0
2022/11/10 11:04:33.416    9.042483215    7.399404338   453.3390   4   0   0.0218   0.0229   0.0574   0.0071   0.0107   0.0171   0.42    0.0
2022/11/10 11:04:34.416    9.042483205    7.399404338   453.3371   4   0   0.0218   0.0229   0.0574   0.0071   0.0107   0.0171   0.42    0.0
2022/11/10 11:04:35.416    9.042483213    7.399404340   453.3396   4   0   0.0218   0.0229   0.0574   0.0071   0.0107   0.0171   0.42    0.0
2022/11/10 11:04:36.416    9.042483207    7.399404341   453.3375   4   0   0.0218   0.0229   0.0574   0.0071   0.0107   0.0171   0.42    0.0
2022/11/10 11:04:37.416    9.042483211    7.399404343   453.3382   4   0   0.0218   0.0229   0.0574   0.0071   0.0107   0.0171   0.42    0.0
2022/11/10 11:04:38.416    9.042483209    7.399404337   453.3379   4   0   0.0218   0.0229   0.0574   0.0071   0.0107   0.0171   0.42    0.0
2022/11/10 11:04:39.416    9.042483206    7.399404355   453.3377   4   0   0.0218   0.0229   0.0574   0.0071   0.0107   0.0171   0.42    0.0
2022/11/10 11:04:40.416    9.042483198    7.399404346   453.3354   4   0   0.0218   0.0229   0.0574   0.0071   0.0107   0.0171   0.42    0.0
2022/11/10 11:04:41.416    9.042483202    7.399404351   453.3361   4   0   0.0218   0.0229   0.0574   0.0071   0.0107   0.0171   0.42    0.0
2022/11/10 11:04:42.416    9.042483214    7.399404352   453.3372   4   0   0.0218   0.0229   0.0574   0.0071   0.0107   0.0171   0.42    0.0
2022/11/10 11:04:43.416    9.042483204    7.399404344   453.3374   4   0   0.0218   0.0229   0.0574   0.0071   0.0107   0.0171   0.42    0.0
2022/11/10 11:04:44.416    9.042483213    7.399404344   453.3403   4   0   0.0218   0.0229   0.0574   0.0071   0.0107   0.0171   0.42    0.0
2022/11/10 11:04:45.416    9.042483204    7.399404345   453.3375   4   0   0.0218   0.0229   0.0574   0.0071   0.0107   0.0171   0.42    0.0
2022/11/10 11:04:46.416    9.042483214    7.399404335   453.3398   4   0   0.0218   0.0229   0.0574   0.0071   0.0107   0.0171   0.42    0.0
2022/11/10 11:04:47.416    9.042483211    7.399404340   453.3386   4   0   0.0218   0.0229   0.0574   0.0071   0.0107   0.0171   0.42    0.0
2022/11/10 11:04:48.416    9.042483213    7.399404346   453.3387   4   0   0.0218   0.0229   0.0574   0.0071   0.0107   0.0171   0.42    0.0
2022/11/10 11:04:49.416    9.042483211    7.399404347   453.3430   4   0   0.0218   0.0229   0.0574   0.0071   0.0107   0.0171   0.42    0.0
2022/11/10 11:04:50.416    9.042483189    7.399404351   453.3401   4   0   0.0218   0.0229   0.0574   0.0071   0.0107   0.0171   0.42    0.0
2022/11/10 11:04:51.416    9.042483200    7.399404345   453.3420   4   0   0.0218   0.0229   0.0574   0.0071   0.0107   0.0171   0.42    0.0
2022/11/10 11:04:52.416    9.042483208    7.399404344   453.3432   4   0   0.0218   0.0229   0.0574   0.0071   0.0107   0.0171   0.42    0.0
2022/11/10 11:04:53.416    9.042483209    7.399404329   453.3391   4   0   0.0218   0.0229   0.0574   0.0071   0.0107   0.0171   0.42    0.0
2022/11/10 11:04:54.416    9.042483194    7.399404341   453.3405   4   0   0.0218   0.0229   0.0574   0.0071   0.0107   0.0171   0.42    0.0
2022/11/10 11:04:55.416    9.042483204    7.399404355   453.3424   4   0   0.0218   0.0229   0.0574   0.0071   0.0107   0.0171   0.42    0.0
2022/11/10 11:04:56.416    9.042483210    7.399404358   453.3401   4   0   0.0218   0.0229   0.0574   0.0071   0.0107   0.0171   0.42    0.0
2022/11/10 11:04:57.416    9.042483195    7.399404355   453.3378   4   0   0.0218   0.0229   0.0574   0.0071   0.0107   0.0171   0.42    0.0
2022/11/10 11:04:58.416    9.042483205    7.399404352   453.3372   4   0   0.0218   0.0229   0.0574   0.0071   0.0107   0.0171   0.42    0.0
2022/11/10 11:04:59.416    9.042483186    7.399404352   453.3374   4   0   0.0218   0.0229   0.0574   0.0071   0.0107   0.0171   0.42    0.0
2022/11/10 11:05:00.416    9.042483200    7.399404356   453.3382   4   0   0.0218   0.0229   0.0574   0.0071   0.0107   0.0171   0.42    0.0
2022/11/10 11:05:01.416    9.042483198    7.399404336   453.3400   4   0   0.0218   0.0229   0.0574   0.0071   0.0107   0.0171   0.42    0.0
2022/11/10 11:05:02.416    9.042483198    7.399404343   453.3369   4   0   0.0218   0.0229   0.0574   0.0071   0.0107   0.0171   0.42    0.0
2022/11/10 11:05:03.416    9.042483203    7.399404346   453.3382   4   0   0.0218   0.0229   0.0574   0.0071   0.0107   0.0171   0.42    0.0
2022/11/10 11:05:04.416    9.042483210    7.399404342   453.3380   4   0   0.0218   0.0229   0.0574   0.0071   0.0107   0.0171   0.42    0.0
2022/11/10 11:05:05.416    9.042483204    7.399404344   453.3379   4   0   0.0218   0.0229   0.0574   0.0071   0.0107   0.0171   0.42    0.0
2022/11/10 11:05:06.416    9.042483207    7.399404353   453.3373   4   0   0.0218   0.0229   0.0574   0.0071   0.0107   0.0171   0.42    0.0
2022/11/10 11:05:07.416    9.042483215    7.399404337   453.3380   4   0   0.0218   0.0229   0.0574   0.0071   0.0107   0.0171   0.42    0.0
2022/11/10 11:05:08.416    9.042483197    7.399404341   453.3346   4   0   0.0218   0.0229   0.0574   0.0071   0.0107   0.0171   0.42    0.0
2022/11/10 11:05:09.416    9.042483208    7.399404332   453.3374   4   0   0.0218   0.0229   0.0574   0.0071   0.0107   0.0171   0.42    0.0
2022/11/10 11:05:10.416    9.042483217    7.399404336   453.3411   4   0   0.0218   0.0229   0.0574   0.0071   0.0107   0.0171   0.42    0.0
2022/11/10 11:05:11.416    9.042483209    7.399404343   453.3376   4   0   0.0218   0.0229   0.0574   0.0071   0.0107   0.0171   0.42    0.0
2022/11/10 11:05:12.416    9.042483218    7.399404340   453.3362   4   0   0.0218   0.0229   0.0574   0.0071   0.0107   0.0171   0.42    0.0
2022/11/10 11:05:13.416    9.042483212    7.399404339   453.3338   4   0   0.0218   0.0229   0.0574   0.0071   0.0107   0.0171   0.42    0.0
2022/11/10 11:05:14.416    9.042483221    7.399404351   453.3361   4   0   0.0218   0.0229   0.0574   0.0071   0.0107   0.0171   0.42    0.0
2022/11/10 11:05:15.416    9.042483221    7.399404351   453.3348   4   0   0.0218   0.0229   0.0574   0.0071   0.0107   0.0171   0.42    0.0
2022/11/10 11:05:16.416    9.042483219    7.399404351   453.3349   4   0   0.0218   0.0229   0.0574   0.0071   0.0107   0.0171   0.42    0.0
2022/11/10 11:05:17.416    9.042483214    7.399404354   453.3345   4   0   0.0218   0.0229   0.0574   0.0071   0.0107   0.0171   0.42    0.0
2022/11/10 11:05:18.416    9.042483208    7.399404349   453.3381   4   0   0.0218   0.0229   0.0574   0.0071   0.0107   0.0171   0.42    0.0
2022/11/10 11:05:19.416    9.042483213    7.399404342   453.3397   4   0   0.0218   0.0229   0.0574   0.0071   0.0107   0.0171   0.42    0.0
2022/11/10 11:05:20.416    9.042483198    7.399404338   453.3370   4   0   0.0218   0.0229   0.0574   0.0071   0.0107   0.0171   0.42    0.0
2022/11/10 11:05:21.416    9.042483201    7.399404338   453.3356   4   0   0.0218   0.0229   0.0574   0.0071   0.0107   0.0171   0.42    0.0
2022/11/10 11:05:22.416    9.042483197    7.399404330   453.3338   4   0   0.0218   0.0229   0.0574   0.0071   0.0107   0.0171   0.42    0.0
2022/11/10 11:05:23.416    9.042483190    7.399404332   453.3394   4   0   0.0218   0.0229   0.0574   0.0071   0.0107   0.0171   0.42    0.0
2022/11/10 11:05:24.416    9.042483191    7.399404328   453.3375   4   0   0.0218   0.0229   0.0574   0.0071   0.0107   0.0171   0.42    0.0
2022/11/10 11:05:25.416    9.042483189    7.399404311   453.3389   4   0   0.0218   0.0229   0.0574   0.0071   0.0107   0.0171   0.42    0.0
2022/11/10 11:05:26.416    9.042483196    7.399404319   453.3391   4   0   0.0218   0.0229   0.0574   0.0071   0.0107   0.0171   0.42    0.0
2022/11/10 11:05:27.416    9.042483188    7.399404329   453.3372   4   0   0.0218   0.0229   0.0574   0.0071   0.0107   0.0171   0.42    0.0
2022/11/10 11:05:28.416    9.042483205    7.399404320   453.3388   4   0   0.0218   0.0229   0.0574   0.0071   0.0107   0.0171   0.42    0.0
2022/11/10 11:05:29.416    9.042483195    7.399404326   453.3374   4   0   0.0218   0.0229   0.0574   0.0071   0.0107   0.0171   0.42    0.0
2022/11/10 11:05:30.416    9.042483181    7.399404311   453.3361   4   0   0.0218   0.0229   0.0574   0.0071   0.0107   0.0171   0.42    0.0
2022/11/10 11:05:31.416    9.042483176    7.399404309   453.3360   4   0   0.0218   0.0229   0.0574   0.0071   0.0107   0.0171   0.42    0.0
2022/11/10 11:05:32.416    9.042483182    7.399404328   453.3338   4   0   0.0218   0.0229   0.0574   0.0071   0.0107   0.0171   0.42    0.0
2022/11/10 11:05:33.416    9.042483184    7.399404314   453.3323   4   0   0.0218   0.0229   0.0574   0.0071   0.0107   0.0171   0.42    0.0
2022/11/10 11:05:34.416    9.042483180    7.399404305   453.3349   4   0   0.0218   0.0229   0.0574   0.0071   0.0107   0.0171   0.42    0.0
2022/11/10 11:05:35.416    9.042483185    7.399404314   453.3330   4   0   0.0218   0.0229   0.0574   0.0071   0.0107   0.0171   0.42    0.0
2022/11/10 11:05:36.416    9.042483185    7.399404302   453.3336   4   0   0.0218   0.0229   0.0574   0.0071   0.0107   0.0171   0.42    0.0
2022/11/10 11:05:37.416    9.042483173    7.399404300   453.3383   4   0   0.0218   0.0229   0.0574   0.0071   0.0107   0.0171   0.42    0.0
2022/11/10 11:05:38.416    9.042483190    7.399404309   453.3399   4   0   0.0218   0.0229   0.0574   0.0071   0.0107   0.0171   0.42    0.0
2022/11/10 11:05:39.416    9.042483181    7.399404312   453.3389   4   0   0.0218   0.0229   0.0574   0.0071   0.0107   0.0171   0.42    0.0
2022/11/10 11:05:40.416    9.042483177    7.399404307   453.3373   4   0   0.0218   0.0229   0.0574   0.0071   0.0107   0.0171   0.42    0.0
2022/11/10 11:05:41.416    9.042483173    7.399404288   453.3372   4   0   0.0218   0.0229   0.0574   0.0071   0.0107   0.0171   0.42    0.0
2022/11/10 11:05:42.416    9.042483165    7.399404312   453.3357   4   0   0.0218   0.0229   0.0574   0.0071   0.0107   0.0171   0.42    0.0
2022/11/10 11:05:43.416    9.042483176    7.399404306   453.3350   4   0   0.0218   0.0229   0.0574   0.0071   0.0107   0.0171   0.42    0.0
2022/11/10 11:05:44.416    9.042483192    7.399404291   453.3378   4   0   0.0218   0.0229   0.0574   0.0071   0.0107   0.0171   0.42    0.0
2022/11/10 11:05:45.416    9.042483195    7.399404298   453.3397   4   0   0.0218   0.0229   0.0574   0.0071   0.0107   0.0171   0.42    0.0
2022/11/10 11:05:46.416    9.042483183    7.399404306   453.3362   4   0   0.0218   0.0229   0.0574   0.0071   0.0107   0.0171   0.42    0.0
2022/11/10 11:05:47.416    9.042483177    7.399404300   453.3358   4   0   0.0218   0.0229   0.0574   0.0071   0.0107   0.0171   0.42    0.0
2022/11/10 11:05:48.416    9.042483176    7.399404298   453.3375   4   0   0.0218   0.0229   0.0574   0.0071   0.0107   0.0171   0.42    0.0
2022/11/10 11:05:49.416    9.042483178    7.399404300   453.3365   4   0   0.0218   0.0229   0.0574   0.0071   0.0107   0.0171   0.42    0.0
2022/11/10 11:05:50.416    9.042483189    7.399404297   453.3389   4   0   0.0218   0.0229   0.0574   0.0071   0.0107   0.0171   0.42    0.0
2022/11/10 11:05:51.416    9.042483170    7.399404302   453.3355   4   0   0.0218   0.0229   0.0574   0.0071   0.0107   0.0171   0.42    0.0
2022/11/10 11:05:52.416    9.042483171    7.399404300   453.3359   4   0   0.0218   0.0229   0.0574   0.0071   0.0107   0.0171   0.42    0.0
2022/11/10 11:05:53.416    9.042483170    7.399404292   453.3373   4   0   0.0218   0.0229   0.0574   0.0071   0.0107   0.0171   0.42    0.0
2022/11/10 11:05:54.416    9.042483172    7.399404290   453.3387   4   0   0.0218   0.0229   0.0574   0.0071   0.0107   0.0171   0.42    0.0
2022/11/10 11:05:55.416    9.042483166    7.399404284   453.3378   4   0   0.0218   0.0229   0.0574   0.0071   0.0107   0.0171   0.42    0.0
2022/11/10 11:05:56.416    9.042483162    7.399404290   453.3342   4   0   0.0218   0.0229   0.0574   0.0071   0.0107   0.0171   0.42    0.0
2022/11/10 11:05:57.416    9.042483167    7.399404286   453.3371   4   0   0.0218   0.0229   0.0574   0.0071   0.0107   0.0171   0.42    0.0
2022/11/10 11:05:58.416    9.042483167    7.399404291   453.3368   4   0   0.0218   0.0229   0.0574   0.0071   0.0107   0.0171   0.42    0.0
2022/11/10 11:05:59.416    9.042483166    7.399404289   453.3367   4   0   0.0218   0.0229   0.0574   0.0071   0.0107   0.0171   0.42    0.0
2022/11/10 11:06:00.416    9.042483161    7.399404283   453.3343   4   0   0.0218   0.0229   0.0574   0.0071   0.0107   0.0171   0.42    0.0
2022/11/10 11:06:01.416    9.042483165    7.399404280   453.3359   4   0   0.0218   0.0229   0.0574   0.0071   0.0107   0.0171   0.42    0.0
2022/11/10 11:06:02.416    9.042483160    7.399404280   453.3337   4   0   0.0218   0.0229   0.0574   0.0071   0.0107   0.0171   0.42    0.0
2022/11/10 11:06:03.416    9.042483173    7.399404274   453.3381   4   0   0.0218   0.0229   0.0574   0.0071   0.0107   0.0171   0.42    0.0
2022/11/10 11:06:04.416    9.042483179    7.399404269   453.3380   4   0   0.0218   0.0229   0.0574   0.0071   0.0107   0.0171   0.42    0.0
2022/11/10 11:06:05.416    9.042483159    7.399404266   453.3364   4   0   0.0218   0.0229   0.0574   0.0071   0.0107   0.0171   0.42    0.0
2022/11/10 11:06:06.416    9.042483155    7.399404269   453.3346   4   0   0.0218   0.0229   0.0574   0.0071   0.0107   0.0171   0.42    0.0
2022/11/10 11:06:07.416    9.042483160    7.399404261   453.3334   4   0   0.0218   0.0229   0.0574   0.0071   0.0107   0.0171   0.42    0.0
2022/11/10 11:06:08.416    9.042483160    7.399404268   453.3304   4   0   0.0218   0.0229   0.0574   0.0071   0.0107   0.0171   0.42    0.0
2022/11/10 11:06:09.416    9.042483157    7.399404268   453.3290   4   0   0.0218   0.0229   0.0574   0.0071   0.0107   0.0171   0.42    0.0
2022/11/10 11:06:10.416    9.042483167    7.399404266   453.3330   4   0   0.0218   0.0229   0.0574   0.0071   0.0107   0.0171   0.42    0.0
2022/11/10 11:06:11.416    9.042483161    7.399404272   453.3352   4   0   0.0218   0.0229   0.0574   0.0071   0.0107   0.0171   0.42    0.0
2022/11/10 11:06:12.416    9.042483176    7.399404263   453.3352   4   0   0.0218   0.0229   0.0574   0.0071   0.0107   0.0171   0.42    0.0
2022/11/10 11:06:13.416    9.042483166    7.399404260   453.3358   4   0   0.0218   0.0229   0.0574   0.0071   0.0107   0.0171   0.42    0.0
2022/11/10 11:06:14.416    9.042483183    7.399404272   453.3366   4   0   0.0218   0.0229   0.0574   0.0071   0.0107   0.0171   0.42    0.0
2022/11/10 11:06:15.416    9.042483178    7.399404263   453.3314   4   0   0.0218   0.0229   0.0574   0.0071   0.0107   0.0171   0.42    0.0
2022/11/10 11:06:16.416    9.042483177    7.399404263   453.3327   4   0   0.0218   0.0229   0.0574   0.0071   0.0107   0.0171   0.42    0.0
2022/11/10 11:06:17.416    9.042483169    7.399404275   453.3340   4   0   0.0218   0.0229   0.0574   0.0071   0.0107   0.0171   0.42    0.0
2022/11/10 11:06:18.416    9.042483164    7.399404273   453.3322   4   0   0.0218   0.0229   0.0574   0.0071   0.0107   0.0171   0.42    0.0
2022/11/10 11:06:19.416    9.042483175    7.399404266   453.3315   4   0   0.0218   0.0229   0.0574   0.0071   0.0107   0.0171   0.42    0.0
2022/11/10 11:06:20.416    9.042483158    7.399404264   453.3334   4   0   0.0218   0.0229   0.0574   0.0071   0.0107   0.0171   0.42    0.0
2022/11/10 11:06:21.416    9.042483168    7.399404279   453.3318   4   0   0.0218   0.0229   0.0574   0.0071   0.0107   0.0171   0.42    0.0
2022/11/10 11:06:22.416    9.042483165    7.399404256   453.3366   4   0   0.0218   0.0229   0.0574   0.0071   0.0107   0.0171   0.42    0.0
2022/11/10 11:06:23.416    9.042483174    7.399404268   453.3332   4   0   0.0218   0.0229   0.0574   0.0071   0.0107   0.0171   0.42    0.0
2022/11/10 11:06:24.416    9.042483175    7.399404272   453.3349   4   0   0.0218   0.0229   0.0574   0.0071   0.0107   0.0171   0.42    0.0
2022/11/10 11:06:25.416    9.042483170    7.399404262   453.3344   4   0   0.0218   0.0229   0.0574   0.0071   0.0107   0.0171   0.42    0.0
2022/11/10 11:06:26.416    9.042483180    7.399404262   453.3346   4   0   0.0218   0.0229   0.0574   0.0071   0.0107   0.0171   0.42    0.0
2022/11/10 11:06:27.416    9.042483177    7.399404256   453.3367   4   0   0.0218   0.0229   0.0574   0.0071   0.0107   0.0171   0.42    0.0
2022/11/10 11:06:28.416    9.042483173    7.399404260   453.3351   4   0   0.0218   0.0229   0.0574   0.0071   0.0107   0.0171   0.42    0.0
2022/11/10 11:06:29.416    9.042483189    7.399404265   453.3365   4   0   0.0218   0.0229   0.0574   0.0071   0.0107   0.0171   0.42    0.0
2022/11/10 11:06:30.416    9.042483179    7.399404266   453.3345   4   0   0.0218   0.0229   0.0574   0.0071   0.0107   0.0171   0.42    0.0
2022/11/10 11:06:31.416    9.042483170    7.399404268   453.3338   4   0   0.0218   0.0229   0.0574   0.0071   0.0107   0.0171   0.42    0.0
2022/11/10 11:06:32.416    9.042483170    7.399404272   453.3316   4   0   0.0218   0.0229   0.0574   0.0071   0.0107   0.0171   0.42    0.0
2022/11/10 11:06:33.416    9.042483172    7.399404264   453.3327   4   0   0.0218   0.0229   0.0574   0.0071   0.0107   0.0171   0.42    0.0
2022/11/10 11:06:34.416    9.042483165    7.399404270   453.3312   4   0   0.0218   0.0229   0.0574   0.0071   0.0107   0.0171   0.42    0.0
2022/11/10 11:06:35.416    9.042483164    7.399404257   453.3334   4   0   0.0218   0.0229   0.0574   0.0071   0.0107   0.0171   0.42    0.0
2022/11/10 11:06:36.416    9.042483160    7.399404262   453.3332   4   0   0.0218   0.0229   0.0574   0.0071   0.0107   0.0171   0.42    0.0
2022/11/10 11:06:37.416    9.042483167    7.399404272   453.3324   4   0   0.0218   0.0229   0.0574   0.0071   0.0107   0.0171   0.42    0.0
2022/11/10 11:06:38.416    9.042483174    7.399404259   453.3348   4   0   0.0218   0.0229   0.0574   0.0071   0.0107   0.0171   0.42    0.0
2022/11/10 11:06:39.416    9.042483186    7.399404264   453.3339   4   0   0.0218   0.0229   0.0574   0.0071   0.0107   0.0171   0.42    0.0
2022/11/10 11:06:40.416    9.042483175    7.399404254   453.3368   4   0   0.0218   0.0229   0.0574   0.0071   0.0107   0.0171   0.42    0.0
2022/11/10 11:06:41.416    9.042483175    7.399404270   453.3350   4   0   0.0218   0.0229   0.0574   0.0071   0.0107   0.0171   0.42    0.0
2022/11/10 11:06:42.416    9.042483186    7.399404253   453.3400   4   0   0.0218   0.0229   0.0574   0.0071   0.0107   0.0171   0.42    0.0
2022/11/10 11:06:43.416    9.042483166    7.399404265   453.3397   4   0   0.0218   0.0229   0.0574   0.0071   0.0107   0.0171   0.42    0.0
2022/11/10 11:06:44.416    9.042483166    7.399404251   453.3400   4   0   0.0218   0.0229   0.0574   0.0071   0.0107   0.0171   0.42    0.0
2022/11/10 11:06:45.416    9.042483158    7.399404252   453.3415   4   0   0.0218   0.0229   0.0574   0.0071   0.0107   0.0171   0.42    0.0
2022/11/10 11:06:46.416    9.042483165    7.399404248   453.3407   4   0   0.0218   0.0229   0.0574   0.0071   0.0107   0.0171   0.42    0.0
2022/11/10 11:06:47.416    9.042483165    7.399404246   453.3408   4   0   0.0218   0.0229   0.0574   0.0071   0.0107   0.0171   0.42    0.0
2022/11/10 11:06:48.416    9.042483154    7.399404255   453.3389   4   0   0.0218   0.0229   0.0574   0.0071   0.0107   0.0171   0.42    0.0
2022/11/10 11:06:49.416    9.042483150    7.399404248   453.3399   4   0   0.0218   0.0229   0.0574   0.0071   0.0107   0.0171   0.42    0.0
2022/11/10 11:06:50.416    9.042483153    7.399404248   453.3415   4   0   0.0218   0.0229   0.0574   0.0071   0.0107   0.0171   0.42    0.0
2022/11/10 11:06:51.416    9.042483157    7.399404254   453.3390   4   0   0.0218   0.0229   0.0574   0.0071   0.0107   0.0171   0.42    0.0
2022/11/10 11:06:52.416    9.042483166    7.399404249   453.3396   4   0   0.0218   0.0229   0.0574   0.0071   0.0107   0.0171   0.42    0.0
2022/11/10 11:06:53.416    9.042483171    7.399404254   453.3389   4   0   0.0218   0.0229   0.0574   0.0071   0.0107   0.0171   0.42    0.0
2022/11/10 11:06:54.416    9.042483170    7.399404247   453.3448   4   0   0.0218   0.0229   0.0574   0.0071   0.0107   0.0171   0.42    0.0
