% program   : RTKPOST ver.demo5 b34g
% inp file  : C:\Users\Abdullateef\Documents\PHD\Research on Precision Agriculture Navigation Technology\nav data\GNSS Log file\Geo++\GEOP314L.22o
% inp file  : C:\Users\Abdullateef\Documents\PHD\Research on Precision Agriculture Navigation Technology\nav data\GNSS Log file\Base file\ABFC00NGA_R_20223141100_01H_1S_MO.22D
% inp file  : C:\Users\Abdullateef\Documents\PHD\Research on Precision Agriculture Navigation Technology\nav data\GNSS Log file\Nav file\BRDC00WRD_S_20223140000_01D_MN.rnx\BRDC00WRD_S_20223140000_01D_MN.rnx
% obs start : 2022/11/10 11:00:00.4 GPST (week2235 385200.4s)
% obs end   : 2022/11/10 11:39:12.4 GPST (week2235 387552.4s)
% pos mode  : Static
% freqs     : L1+L2/E5b+L5
% solution  : Combined-No Phase Reset
% elev mask : 0.0 deg
% dynamics  : on
% tidecorr  : off
% ionos opt : Broadcast
% tropo opt : Saastamoinen
% ephemeris : Broadcast
% navi sys  : GPS GLONASS Galileo BDS
% amb res   : Fix and Hold
% amb glo   : Fix and Hold
% val thres : 3.0
% antenna1  :                       ( 0.0000  0.0000  0.0000)
% antenna2  :                       ( 0.0000  0.0000  0.0000)
% ref pos   :  9.027665666    7.486341687   532.6449
%
% (lat/lon/height=WGS84/ellipsoidal,Q=1:fix,2:float,3:sbas,4:dgps,5:single,6:ppp,ns=# of satellites)
%  GPST                  latitude(deg) longitude(deg)  height(m)   Q  ns   sdn(m)   sde(m)   sdu(m)  sdne(m)  sdeu(m)  sdun(m) age(s)  ratio
2022/11/10 11:00:00.416    9.042482983    7.399404287   453.2412   4   0   0.0218   0.0228   0.0571   0.0070   0.0102   0.0171   0.42    0.0
2022/11/10 11:00:01.416    9.042482995    7.399404278   453.2420   4   0   0.0218   0.0228   0.0571   0.0070   0.0102   0.0171   0.42    0.0
2022/11/10 11:00:02.416    9.042483004    7.399404283   453.2448   4   0   0.0218   0.0228   0.0571   0.0070   0.0102   0.0171   0.42    0.0
2022/11/10 11:00:03.416    9.042483004    7.399404284   453.2412   4   0   0.0218   0.0228   0.0571   0.0070   0.0102   0.0171   0.42    0.0
2022/11/10 11:00:04.416    9.042483017    7.399404275   453.2440   4   0   0.0218   0.0228   0.0571   0.0070   0.0102   0.0171   0.42    0.0
2022/11/10 11:00:05.416    9.042483039    7.399404265   453.2489   4   0   0.0218   0.0228   0.0571   0.0070   0.0102   0.0171   0.42    0.0
2022/11/10 11:00:06.416    9.042483071    7.399404226   453.2530   4   0   0.0218   0.0228   0.0571   0.0070   0.0102   0.0171   0.42    0.0
2022/11/10 11:00:07.416    9.042483101    7.399404229   453.2545   4   0   0.0218   0.0228   0.0571   0.0070   0.0102   0.0171   0.42    0.0
2022/11/10 11:00:08.416    9.042483116    7.399404215   453.2593   4   0   0.0218   0.0228   0.0571   0.0070   0.0102   0.0171   0.42    0.0
2022/11/10 11:00:09.416    9.042483098    7.399404234   453.2565   4   0   0.0218   0.0228   0.0571   0.0070   0.0102   0.0171   0.42    0.0
2022/11/10 11:00:10.416    9.042483110    7.399404231   453.2612   4   0   0.0218   0.0228   0.0571   0.0070   0.0102   0.0171   0.42    0.0
2022/11/10 11:00:11.416    9.042483095    7.399404237   453.2595   4   0   0.0218   0.0228   0.0571   0.0070   0.0102   0.0171   0.42    0.0
2022/11/10 11:00:12.416    9.042483113    7.399404230   453.2601   4   0   0.0218   0.0228   0.0571   0.0070   0.0102   0.0171   0.42    0.0
2022/11/10 11:00:13.416    9.042483107    7.399404223   453.2595   4   0   0.0218   0.0228   0.0571   0.0070   0.0102   0.0171   0.42    0.0
2022/11/10 11:00:14.416    9.042483118    7.399404227   453.2628   4   0   0.0218   0.0228   0.0571   0.0070   0.0102   0.0171   0.42    0.0
2022/11/10 11:00:15.416    9.042483126    7.399404225   453.2629   4   0   0.0218   0.0228   0.0571   0.0070   0.0102   0.0171   0.42    0.0
2022/11/10 11:00:16.416    9.042483122    7.399404224   453.2642   4   0   0.0218   0.0228   0.0571   0.0070   0.0102   0.0171   0.42    0.0
2022/11/10 11:00:17.416    9.042483126    7.399404222   453.2674   4   0   0.0218   0.0228   0.0571   0.0070   0.0102   0.0171   0.42    0.0
2022/11/10 11:00:18.416    9.042483123    7.399404229   453.2694   4   0   0.0218   0.0228   0.0571   0.0070   0.0102   0.0171   0.42    0.0
2022/11/10 11:00:19.416    9.042483116    7.399404228   453.2684   4   0   0.0218   0.0228   0.0571   0.0070   0.0102   0.0171   0.42    0.0
2022/11/10 11:00:20.416    9.042483157    7.399404213   453.2710   4   0   0.0218   0.0228   0.0571   0.0070   0.0102   0.0171   0.42    0.0
2022/11/10 11:00:21.416    9.042483142    7.399404220   453.2724   4   0   0.0218   0.0228   0.0571   0.0070   0.0102   0.0171   0.42    0.0
2022/11/10 11:00:22.416    9.042483161    7.399404219   453.2735   4   0   0.0218   0.0228   0.0571   0.0070   0.0102   0.0171   0.42    0.0
2022/11/10 11:00:23.416    9.042483149    7.399404224   453.2735   4   0   0.0218   0.0228   0.0571   0.0070   0.0102   0.0171   0.42    0.0
2022/11/10 11:00:24.416    9.042483136    7.399404212   453.2738   4   0   0.0218   0.0228   0.0571   0.0070   0.0102   0.0171   0.42    0.0
2022/11/10 11:00:25.416    9.042483134    7.399404212   453.2740   4   0   0.0218   0.0228   0.0571   0.0070   0.0102   0.0171   0.42    0.0
2022/11/10 11:00:26.416    9.042483141    7.399404228   453.2715   4   0   0.0218   0.0228   0.0571   0.0070   0.0102   0.0171   0.42    0.0
2022/11/10 11:00:27.416    9.042483146    7.399404225   453.2735   4   0   0.0218   0.0228   0.0571   0.0070   0.0102   0.0171   0.42    0.0
2022/11/10 11:00:28.416    9.042483150    7.399404215   453.2714   4   0   0.0218   0.0228   0.0571   0.0070   0.0102   0.0171   0.42    0.0
2022/11/10 11:00:29.416    9.042483146    7.399404218   453.2714   4   0   0.0218   0.0228   0.0571   0.0070   0.0102   0.0171   0.42    0.0
2022/11/10 11:00:30.416    9.042483145    7.399404222   453.2708   4   0   0.0218   0.0228   0.0571   0.0070   0.0102   0.0171   0.42    0.0
2022/11/10 11:00:31.416    9.042483151    7.399404216   453.2710   4   0   0.0218   0.0228   0.0571   0.0070   0.0102   0.0171   0.42    0.0
2022/11/10 11:00:32.416    9.042483140    7.399404203   453.2728   4   0   0.0218   0.0228   0.0571   0.0070   0.0102   0.0171   0.42    0.0
2022/11/10 11:00:33.416    9.042483133    7.399404216   453.2732   4   0   0.0218   0.0228   0.0571   0.0070   0.0102   0.0171   0.42    0.0
2022/11/10 11:00:34.416    9.042483143    7.399404217   453.2729   4   0   0.0218   0.0228   0.0571   0.0070   0.0102   0.0171   0.42    0.0
2022/11/10 11:00:35.416    9.042483146    7.399404220   453.2698   4   0   0.0218   0.0228   0.0571   0.0070   0.0102   0.0171   0.42    0.0
2022/11/10 11:00:36.416    9.042483154    7.399404235   453.2716   4   0   0.0218   0.0228   0.0571   0.0070   0.0102   0.0171   0.42    0.0
2022/11/10 11:00:37.416    9.042483139    7.399404227   453.2678   4   0   0.0218   0.0228   0.0571   0.0070   0.0102   0.0171   0.42    0.0
2022/11/10 11:00:38.416    9.042483154    7.399404220   453.2699   4   0   0.0218   0.0228   0.0571   0.0070   0.0102   0.0171   0.42    0.0
2022/11/10 11:00:39.416    9.042483153    7.399404220   453.2722   4   0   0.0218   0.0228   0.0571   0.0070   0.0102   0.0171   0.42    0.0
2022/11/10 11:00:40.416    9.042483145    7.399404222   453.2757   4   0   0.0218   0.0228   0.0571   0.0070   0.0102   0.0171   0.42    0.0
2022/11/10 11:00:41.416    9.042483156    7.399404219   453.2724   4   0   0.0218   0.0228   0.0571   0.0070   0.0102   0.0171   0.42    0.0
2022/11/10 11:00:42.416    9.042483160    7.399404212   453.2783   4   0   0.0218   0.0228   0.0571   0.0070   0.0102   0.0171   0.42    0.0
2022/11/10 11:00:43.416    9.042483143    7.399404220   453.2780   4   0   0.0218   0.0228   0.0571   0.0070   0.0102   0.0171   0.42    0.0
2022/11/10 11:00:44.416    9.042483147    7.399404215   453.2770   4   0   0.0218   0.0228   0.0571   0.0070   0.0102   0.0171   0.42    0.0
2022/11/10 11:00:45.416    9.042483166    7.399404225   453.2738   4   0   0.0218   0.0228   0.0571   0.0070   0.0102   0.0171   0.42    0.0
2022/11/10 11:00:46.416    9.042483167    7.399404241   453.2746   4   0   0.0218   0.0228   0.0571   0.0070   0.0102   0.0171   0.42    0.0
2022/11/10 11:00:47.416    9.042483161    7.399404232   453.2741   4   0   0.0218   0.0228   0.0571   0.0070   0.0102   0.0171   0.42    0.0
2022/11/10 11:00:48.416    9.042483161    7.399404214   453.2744   4   0   0.0218   0.0228   0.0571   0.0070   0.0102   0.0171   0.42    0.0
2022/11/10 11:00:49.416    9.042483166    7.399404232   453.2746   4   0   0.0218   0.0228   0.0571   0.0070   0.0102   0.0171   0.42    0.0
2022/11/10 11:00:50.416    9.042483177    7.399404231   453.2796   4   0   0.0218   0.0228   0.0571   0.0070   0.0102   0.0171   0.42    0.0
2022/11/10 11:00:51.416    9.042483165    7.399404219   453.2753   4   0   0.0218   0.0228   0.0571   0.0070   0.0102   0.0171   0.42    0.0
2022/11/10 11:00:52.416    9.042483170    7.399404208   453.2759   4   0   0.0218   0.0228   0.0571   0.0070   0.0102   0.0171   0.42    0.0
2022/11/10 11:00:53.416    9.042483165    7.399404211   453.2741   4   0   0.0218   0.0228   0.0571   0.0070   0.0102   0.0171   0.42    0.0
2022/11/10 11:00:54.416    9.042483165    7.399404216   453.2749   4   0   0.0218   0.0228   0.0571   0.0070   0.0102   0.0171   0.42    0.0
2022/11/10 11:00:55.416    9.042483165    7.399404197   453.2760   4   0   0.0218   0.0228   0.0571   0.0070   0.0102   0.0171   0.42    0.0
2022/11/10 11:00:56.416    9.042483172    7.399404206   453.2743   4   0   0.0218   0.0228   0.0571   0.0070   0.0102   0.0171   0.42    0.0
2022/11/10 11:00:57.416    9.042483162    7.399404193   453.2753   4   0   0.0218   0.0228   0.0571   0.0070   0.0102   0.0171   0.42    0.0
2022/11/10 11:00:58.416    9.042483173    7.399404185   453.2742   4   0   0.0218   0.0228   0.0571   0.0070   0.0102   0.0171   0.42    0.0
2022/11/10 11:00:59.416    9.042483169    7.399404186   453.2737   4   0   0.0218   0.0228   0.0571   0.0070   0.0102   0.0171   0.42    0.0
2022/11/10 11:01:00.416    9.042483182    7.399404196   453.2742   4   0   0.0218   0.0228   0.0571   0.0070   0.0102   0.0171   0.42    0.0
2022/11/10 11:01:01.416    9.042483176    7.399404185   453.2723   4   0   0.0218   0.0228   0.0571   0.0070   0.0102   0.0171   0.42    0.0
2022/11/10 11:01:02.416    9.042483183    7.399404194   453.2758   4   0   0.0218   0.0228   0.0571   0.0070   0.0102   0.0171   0.42    0.0
2022/11/10 11:01:03.416    9.042483182    7.399404190   453.2747   4   0   0.0218   0.0228   0.0571   0.0070   0.0102   0.0171   0.42    0.0
2022/11/10 11:01:04.416    9.042483188    7.399404195   453.2757   4   0   0.0218   0.0228   0.0571   0.0070   0.0102   0.0171   0.42    0.0
2022/11/10 11:01:05.416    9.042483165    7.399404200   453.2772   4   0   0.0218   0.0228   0.0571   0.0070   0.0102   0.0171   0.42    0.0
2022/11/10 11:01:06.416    9.042483173    7.399404191   453.2745   4   0   0.0218   0.0228   0.0571   0.0070   0.0102   0.0171   0.42    0.0
2022/11/10 11:01:07.416    9.042483173    7.399404198   453.2764   4   0   0.0218   0.0228   0.0571   0.0070   0.0102   0.0171   0.42    0.0
2022/11/10 11:01:08.416    9.042483169    7.399404192   453.2773   4   0   0.0218   0.0228   0.0571   0.0070   0.0102   0.0171   0.42    0.0
2022/11/10 11:01:09.416    9.042483168    7.399404192   453.2767   4   0   0.0218   0.0228   0.0571   0.0070   0.0102   0.0171   0.42    0.0
2022/11/10 11:01:10.416    9.042483167    7.399404184   453.2756   4   0   0.0218   0.0228   0.0571   0.0070   0.0102   0.0171   0.42    0.0
2022/11/10 11:01:11.416    9.042483163    7.399404186   453.2757   4   0   0.0218   0.0228   0.0571   0.0070   0.0102   0.0171   0.42    0.0
2022/11/10 11:01:12.416    9.042483173    7.399404184   453.2765   4   0   0.0218   0.0228   0.0571   0.0070   0.0102   0.0171   0.42    0.0
2022/11/10 11:01:13.416    9.042483168    7.399404193   453.2789   4   0   0.0218   0.0228   0.0571   0.0070   0.0102   0.0171   0.42    0.0
2022/11/10 11:01:14.416    9.042483176    7.399404191   453.2756   4   0   0.0218   0.0228   0.0571   0.0070   0.0102   0.0171   0.42    0.0
2022/11/10 11:01:15.416    9.042483179    7.399404184   453.2756   4   0   0.0218   0.0228   0.0571   0.0070   0.0102   0.0171   0.42    0.0
2022/11/10 11:01:16.416    9.042483202    7.399404170   453.2815   4   0   0.0218   0.0228   0.0571   0.0070   0.0102   0.0171   0.42    0.0
2022/11/10 11:01:17.416    9.042483191    7.399404169   453.2805   4   0   0.0218   0.0228   0.0571   0.0070   0.0102   0.0171   0.42    0.0
2022/11/10 11:01:18.416    9.042483195    7.399404170   453.2738   4   0   0.0218   0.0228   0.0571   0.0070   0.0102   0.0171   0.42    0.0
2022/11/10 11:01:19.416    9.042483208    7.399404158   453.2811   4   0   0.0218   0.0228   0.0571   0.0070   0.0102   0.0171   0.42    0.0
2022/11/10 11:01:20.416    9.042483191    7.399404161   453.2811   4   0   0.0218   0.0228   0.0571   0.0070   0.0102   0.0171   0.42    0.0
2022/11/10 11:01:21.416    9.042483211    7.399404155   453.2837   4   0   0.0218   0.0228   0.0571   0.0070   0.0102   0.0171   0.42    0.0
2022/11/10 11:01:22.416    9.042483196    7.399404156   453.2813   4   0   0.0218   0.0228   0.0571   0.0070   0.0102   0.0171   0.42    0.0
2022/11/10 11:01:23.416    9.042483190    7.399404151   453.2818   4   0   0.0218   0.0228   0.0571   0.0070   0.0102   0.0171   0.42    0.0
2022/11/10 11:01:24.416    9.042483180    7.399404146   453.2826   4   0   0.0218   0.0228   0.0571   0.0070   0.0102   0.0171   0.42    0.0
2022/11/10 11:01:25.416    9.042483180    7.399404147   453.2802   4   0   0.0218   0.0228   0.0571   0.0070   0.0102   0.0171   0.42    0.0
2022/11/10 11:01:26.416    9.042483179    7.399404155   453.2799   4   0   0.0218   0.0228   0.0571   0.0070   0.0102   0.0171   0.42    0.0
2022/11/10 11:01:27.416    9.042483188    7.399404155   453.2794   4   0   0.0218   0.0228   0.0571   0.0070   0.0102   0.0171   0.42    0.0
2022/11/10 11:01:28.416    9.042483181    7.399404165   453.2803   4   0   0.0218   0.0228   0.0571   0.0070   0.0102   0.0171   0.42    0.0
2022/11/10 11:01:29.416    9.042483202    7.399404145   453.2839   4   0   0.0218   0.0228   0.0570   0.0070   0.0102   0.0171   0.42    0.0
2022/11/10 11:01:30.416    9.042483181    7.399404159   453.2841   4   0   0.0218   0.0228   0.0571   0.0070   0.0102   0.0171   0.42    0.0
2022/11/10 11:01:31.416    9.042483183    7.399404162   453.2806   4   0   0.0218   0.0228   0.0571   0.0070   0.0102   0.0171   0.42    0.0
2022/11/10 11:01:32.416    9.042483171    7.399404152   453.2838   4   0   0.0218   0.0228   0.0571   0.0070   0.0102   0.0171   0.42    0.0
2022/11/10 11:01:33.416    9.042483186    7.399404160   453.2814   4   0   0.0218   0.0228   0.0571   0.0070   0.0102   0.0171   0.42    0.0
2022/11/10 11:01:34.416    9.042483179    7.399404157   453.2795   4   0   0.0218   0.0228   0.0571   0.0070   0.0102   0.0171   0.42    0.0
2022/11/10 11:01:35.416    9.042483204    7.399404152   453.2799   4   0   0.0218   0.0228   0.0571   0.0070   0.0102   0.0171   0.42    0.0
2022/11/10 11:01:36.416    9.042483187    7.399404153   453.2798   4   0   0.0218   0.0228   0.0571   0.0070   0.0102   0.0171   0.42    0.0
2022/11/10 11:01:37.416    9.042483182    7.399404158   453.2759   4   0   0.0218   0.0228   0.0571   0.0070   0.0102   0.0171   0.42    0.0
2022/11/10 11:01:38.416    9.042483191    7.399404157   453.2749   4   0   0.0218   0.0228   0.0571   0.0070   0.0102   0.0171   0.42    0.0
2022/11/10 11:01:39.416    9.042483187    7.399404156   453.2739   4   0   0.0218   0.0228   0.0571   0.0070   0.0102   0.0171   0.42    0.0
2022/11/10 11:01:40.416    9.042483183    7.399404146   453.2775   4   0   0.0218   0.0228   0.0571   0.0070   0.0102   0.0171   0.42    0.0
2022/11/10 11:01:41.416    9.042483184    7.399404158   453.2764   4   0   0.0218   0.0228   0.0571   0.0070   0.0102   0.0171   0.42    0.0
2022/11/10 11:01:42.416    9.042483181    7.399404154   453.2755   4   0   0.0218   0.0228   0.0571   0.0070   0.0102   0.0171   0.42    0.0
2022/11/10 11:01:43.416    9.042483184    7.399404157   453.2741   4   0   0.0218   0.0228   0.0571   0.0070   0.0102   0.0171   0.42    0.0
2022/11/10 11:01:44.416    9.042483183    7.399404159   453.2778   4   0   0.0218   0.0228   0.0571   0.0070   0.0102   0.0171   0.42    0.0
2022/11/10 11:01:45.416    9.042483192    7.399404156   453.2757   4   0   0.0218   0.0228   0.0571   0.0070   0.0102   0.0171   0.42    0.0
2022/11/10 11:01:46.416    9.042483188    7.399404152   453.2755   4   0   0.0218   0.0228   0.0571   0.0070   0.0102   0.0171   0.42    0.0
2022/11/10 11:01:47.416    9.042483181    7.399404154   453.2761   4   0   0.0218   0.0228   0.0571   0.0070   0.0102   0.0171   0.42    0.0
2022/11/10 11:01:48.416    9.042483180    7.399404159   453.2742   4   0   0.0218   0.0228   0.0571   0.0070   0.0102   0.0171   0.42    0.0
2022/11/10 11:01:49.416    9.042483188    7.399404160   453.2784   4   0   0.0218   0.0228   0.0571   0.0070   0.0102   0.0171   0.42    0.0
2022/11/10 11:01:50.416    9.042483167    7.399404160   453.2775   4   0   0.0218   0.0228   0.0570   0.0070   0.0102   0.0171   0.42    0.0
2022/11/10 11:01:51.416    9.042483170    7.399404163   453.2781   4   0   0.0218   0.0228   0.0570   0.0070   0.0102   0.0171   0.42    0.0
2022/11/10 11:01:52.416    9.042483182    7.399404162   453.2797   4   0   0.0218   0.0228   0.0571   0.0070   0.0102   0.0171   0.42    0.0
2022/11/10 11:01:53.416    9.042483181    7.399404150   453.2797   4   0   0.0218   0.0228   0.0570   0.0070   0.0102   0.0171   0.42    0.0
2022/11/10 11:01:54.416    9.042483196    7.399404165   453.2806   4   0   0.0218   0.0228   0.0571   0.0070   0.0102   0.0171   0.42    0.0
2022/11/10 11:01:55.416    9.042483177    7.399404159   453.2787   4   0   0.0218   0.0228   0.0571   0.0070   0.0102   0.0171   0.42    0.0
2022/11/10 11:01:56.416    9.042483189    7.399404162   453.2770   4   0   0.0218   0.0228   0.0571   0.0070   0.0102   0.0171   0.42    0.0
2022/11/10 11:01:57.416    9.042483194    7.399404164   453.2783   4   0   0.0218   0.0228   0.0571   0.0070   0.0102   0.0171   0.42    0.0
2022/11/10 11:01:58.416    9.042483188    7.399404155   453.2759   4   0   0.0218   0.0228   0.0571   0.0070   0.0102   0.0171   0.42    0.0
2022/11/10 11:01:59.416    9.042483217    7.399404162   453.2793   4   0   0.0218   0.0228   0.0571   0.0070   0.0102   0.0171   0.42    0.0
2022/11/10 11:02:00.416    9.042483195    7.399404153   453.2765   4   0   0.0218   0.0228   0.0571   0.0070   0.0102   0.0171   0.42    0.0
2022/11/10 11:02:01.416    9.042483208    7.399404167   453.2762   4   0   0.0218   0.0228   0.0571   0.0070   0.0102   0.0171   0.42    0.0
2022/11/10 11:02:02.416    9.042483222    7.399404154   453.2789   4   0   0.0218   0.0228   0.0571   0.0070   0.0102   0.0171   0.42    0.0
2022/11/10 11:02:03.416    9.042483214    7.399404149   453.2777   4   0   0.0218   0.0228   0.0571   0.0070   0.0102   0.0171   0.42    0.0
2022/11/10 11:02:04.416    9.042483209    7.399404138   453.2764   4   0   0.0218   0.0228   0.0571   0.0070   0.0102   0.0171   0.42    0.0
2022/11/10 11:02:05.416    9.042483211    7.399404142   453.2751   4   0   0.0218   0.0228   0.0571   0.0070   0.0102   0.0171   0.42    0.0
2022/11/10 11:02:06.416    9.042483204    7.399404124   453.2756   4   0   0.0218   0.0228   0.0571   0.0070   0.0102   0.0171   0.42    0.0
2022/11/10 11:02:07.416    9.042483194    7.399404119   453.2709   4   0   0.0218   0.0228   0.0571   0.0070   0.0102   0.0171   0.42    0.0
2022/11/10 11:02:08.416    9.042483194    7.399404095   453.2720   4   0   0.0218   0.0228   0.0571   0.0070   0.0102   0.0171   0.42    0.0
2022/11/10 11:02:09.416    9.042483198    7.399404105   453.2723   4   0   0.0218   0.0228   0.0571   0.0070   0.0102   0.0171   0.42    0.0
2022/11/10 11:02:10.416    9.042483200    7.399404102   453.2749   4   0   0.0218   0.0228   0.0571   0.0070   0.0102   0.0171   0.42    0.0
2022/11/10 11:02:11.416    9.042483175    7.399404100   453.2820   4   0   0.0218   0.0228   0.0571   0.0070   0.0102   0.0171   0.42    0.0
2022/11/10 11:02:12.416    9.042483185    7.399404089   453.2809   4   0   0.0218   0.0228   0.0571   0.0070   0.0102   0.0171   0.42    0.0
2022/11/10 11:02:13.416    9.042483189    7.399404113   453.2830   4   0   0.0218   0.0228   0.0571   0.0070   0.0102   0.0171   0.42    0.0
2022/11/10 11:02:14.416    9.042483191    7.399404083   453.2778   4   0   0.0218   0.0228   0.0571   0.0070   0.0102   0.0171   0.42    0.0
2022/11/10 11:02:15.416    9.042483198    7.399404103   453.2774   4   0   0.0218   0.0228   0.0571   0.0070   0.0102   0.0171   0.42    0.0
2022/11/10 11:02:16.416    9.042483187    7.399404088   453.2793   4   0   0.0218   0.0228   0.0571   0.0070   0.0102   0.0171   0.42    0.0
2022/11/10 11:02:17.416    9.042483194    7.399404088   453.2752   4   0   0.0218   0.0228   0.0571   0.0070   0.0102   0.0171   0.42    0.0
2022/11/10 11:02:18.416    9.042483189    7.399404087   453.2747   4   0   0.0218   0.0228   0.0571   0.0070   0.0102   0.0171   0.42    0.0
2022/11/10 11:02:19.416    9.042483197    7.399404089   453.2759   4   0   0.0218   0.0228   0.0571   0.0070   0.0102   0.0171   0.42    0.0
2022/11/10 11:02:20.416    9.042483203    7.399404078   453.2795   4   0   0.0218   0.0228   0.0571   0.0070   0.0102   0.0171   0.42    0.0
2022/11/10 11:02:21.416    9.042483167    7.399404086   453.2742   4   0   0.0218   0.0228   0.0571   0.0070   0.0102   0.0171   0.42    0.0
2022/11/10 11:02:22.416    9.042483166    7.399404069   453.2751   4   0   0.0218   0.0228   0.0571   0.0070   0.0102   0.0171   0.42    0.0
2022/11/10 11:02:23.416    9.042483168    7.399404070   453.2764   4   0   0.0218   0.0228   0.0571   0.0070   0.0102   0.0171   0.42    0.0
2022/11/10 11:02:24.416    9.042483173    7.399404063   453.2804   4   0   0.0218   0.0228   0.0571   0.0070   0.0102   0.0171   0.42    0.0
2022/11/10 11:02:25.416    9.042483176    7.399404077   453.2736   4   0   0.0218   0.0228   0.0571   0.0070   0.0102   0.0171   0.42    0.0
2022/11/10 11:02:26.416    9.042483174    7.399404064   453.2769   4   0   0.0218   0.0228   0.0571   0.0070   0.0102   0.0171   0.42    0.0
2022/11/10 11:02:27.416    9.042483164    7.399404070   453.2746   4   0   0.0218   0.0228   0.0571   0.0070   0.0102   0.0171   0.42    0.0
2022/11/10 11:02:28.416    9.042483177    7.399404066   453.2788   4   0   0.0218   0.0228   0.0571   0.0070   0.0102   0.0171   0.42    0.0
2022/11/10 11:02:29.416    9.042483175    7.399404075   453.2762   4   0   0.0218   0.0228   0.0571   0.0070   0.0102   0.0171   0.42    0.0
2022/11/10 11:02:30.416    9.042483167    7.399404070   453.2730   4   0   0.0218   0.0228   0.0571   0.0070   0.0102   0.0171   0.42    0.0
2022/11/10 11:02:31.416    9.042483177    7.399404070   453.2720   4   0   0.0218   0.0228   0.0571   0.0070   0.0102   0.0171   0.42    0.0
2022/11/10 11:02:32.416    9.042483188    7.399404072   453.2743   4   0   0.0218   0.0228   0.0571   0.0070   0.0102   0.0171   0.42    0.0
2022/11/10 11:02:33.416    9.042483187    7.399404069   453.2737   4   0   0.0218   0.0228   0.0571   0.0070   0.0102   0.0171   0.42    0.0
2022/11/10 11:02:34.416    9.042483172    7.399404078   453.2684   4   0   0.0218   0.0228   0.0571   0.0070   0.0102   0.0171   0.42    0.0
2022/11/10 11:02:35.416    9.042483191    7.399404076   453.2740   4   0   0.0218   0.0228   0.0571   0.0070   0.0102   0.0171   0.42    0.0
2022/11/10 11:02:36.416    9.042483164    7.399404084   453.2679   4   0   0.0218   0.0228   0.0571   0.0070   0.0102   0.0171   0.42    0.0
2022/11/10 11:02:37.416    9.042483171    7.399404080   453.2663   4   0   0.0218   0.0228   0.0571   0.0070   0.0102   0.0171   0.42    0.0
2022/11/10 11:02:38.416    9.042483184    7.399404072   453.2696   4   0   0.0218   0.0228   0.0571   0.0070   0.0102   0.0171   0.42    0.0
2022/11/10 11:02:39.416    9.042483168    7.399404083   453.2665   4   0   0.0218   0.0228   0.0571   0.0070   0.0102   0.0171   0.42    0.0
2022/11/10 11:02:40.416    9.042483167    7.399404071   453.2689   4   0   0.0218   0.0228   0.0571   0.0070   0.0102   0.0171   0.42    0.0
2022/11/10 11:02:41.416    9.042483176    7.399404072   453.2693   4   0   0.0218   0.0228   0.0571   0.0070   0.0102   0.0171   0.42    0.0
2022/11/10 11:02:42.416    9.042483175    7.399404064   453.2699   4   0   0.0218   0.0228   0.0571   0.0070   0.0102   0.0171   0.42    0.0
2022/11/10 11:02:43.416    9.042483171    7.399404081   453.2710   4   0   0.0218   0.0228   0.0571   0.0070   0.0102   0.0171   0.42    0.0
2022/11/10 11:02:44.416    9.042483168    7.399404076   453.2721   4   0   0.0218   0.0228   0.0571   0.0070   0.0102   0.0171   0.42    0.0
2022/11/10 11:02:45.416    9.042483162    7.399404072   453.2761   4   0   0.0218   0.0228   0.0571   0.0070   0.0102   0.0171   0.42    0.0
2022/11/10 11:02:46.416    9.042483162    7.399404079   453.2715   4   0   0.0218   0.0228   0.0571   0.0070   0.0102   0.0171   0.42    0.0
2022/11/10 11:02:47.416    9.042483172    7.399404067   453.2724   4   0   0.0218   0.0228   0.0571   0.0070   0.0102   0.0171   0.42    0.0
2022/11/10 11:02:48.416    9.042483167    7.399404065   453.2720   4   0   0.0218   0.0228   0.0571   0.0070   0.0102   0.0171   0.42    0.0
2022/11/10 11:02:49.416    9.042483147    7.399404071   453.2716   4   0   0.0218   0.0228   0.0571   0.0070   0.0102   0.0171   0.42    0.0
2022/11/10 11:02:50.416    9.042483156    7.399404076   453.2729   4   0   0.0218   0.0228   0.0571   0.0070   0.0102   0.0171   0.42    0.0
2022/11/10 11:02:51.416    9.042483155    7.399404082   453.2676   4   0   0.0218   0.0228   0.0571   0.0070   0.0102   0.0171   0.42    0.0
2022/11/10 11:02:52.416    9.042483160    7.399404077   453.2681   4   0   0.0218   0.0228   0.0571   0.0070   0.0102   0.0171   0.42    0.0
2022/11/10 11:02:53.416    9.042483155    7.399404075   453.2662   4   0   0.0218   0.0228   0.0571   0.0070   0.0102   0.0171   0.42    0.0
2022/11/10 11:02:54.416    9.042483160    7.399404068   453.2687   4   0   0.0218   0.0228   0.0571   0.0070   0.0102   0.0171   0.42    0.0
2022/11/10 11:02:55.416    9.042483161    7.399404079   453.2652   4   0   0.0218   0.0228   0.0571   0.0070   0.0102   0.0171   0.42    0.0
2022/11/10 11:02:56.416    9.042483157    7.399404077   453.2634   4   0   0.0218   0.0228   0.0571   0.0070   0.0102   0.0171   0.42    0.0
2022/11/10 11:02:57.416    9.042483149    7.399404069   453.2641   4   0   0.0218   0.0228   0.0571   0.0070   0.0102   0.0171   0.42    0.0
2022/11/10 11:02:58.416    9.042483150    7.399404069   453.2618   4   0   0.0218   0.0228   0.0571   0.0070   0.0102   0.0171   0.42    0.0
2022/11/10 11:02:59.416    9.042483149    7.399404074   453.2634   4   0   0.0218   0.0228   0.0571   0.0070   0.0102   0.0171   0.42    0.0
2022/11/10 11:03:00.416    9.042483156    7.399404076   453.2669   4   0   0.0218   0.0228   0.0571   0.0070   0.0102   0.0171   0.42    0.0
2022/11/10 11:03:01.416    9.042483160    7.399404077   453.2677   4   0   0.0218   0.0228   0.0571   0.0070   0.0102   0.0171   0.42    0.0
2022/11/10 11:03:02.416    9.042483160    7.399404075   453.2669   4   0   0.0218   0.0228   0.0571   0.0070   0.0102   0.0171   0.42    0.0
2022/11/10 11:03:03.416    9.042483153    7.399404070   453.2677   4   0   0.0218   0.0228   0.0571   0.0070   0.0102   0.0171   0.42    0.0
2022/11/10 11:03:04.416    9.042483142    7.399404072   453.2653   4   0   0.0218   0.0228   0.0571   0.0070   0.0102   0.0171   0.42    0.0
2022/11/10 11:03:05.416    9.042483156    7.399404073   453.2647   4   0   0.0218   0.0228   0.0571   0.0070   0.0102   0.0171   0.42    0.0
2022/11/10 11:03:06.416    9.042483153    7.399404078   453.2642   4   0   0.0218   0.0228   0.0571   0.0070   0.0102   0.0171   0.42    0.0
2022/11/10 11:03:07.416    9.042483161    7.399404081   453.2657   4   0   0.0218   0.0228   0.0571   0.0070   0.0102   0.0171   0.42    0.0
2022/11/10 11:03:08.416    9.042483164    7.399404071   453.2672   4   0   0.0218   0.0228   0.0571   0.0070   0.0102   0.0171   0.42    0.0
2022/11/10 11:03:09.416    9.042483157    7.399404071   453.2660   4   0   0.0218   0.0228   0.0571   0.0070   0.0102   0.0171   0.42    0.0
2022/11/10 11:03:10.416    9.042483154    7.399404064   453.2665   4   0   0.0218   0.0228   0.0571   0.0070   0.0102   0.0171   0.42    0.0
2022/11/10 11:03:11.416    9.042483162    7.399404064   453.2647   4   0   0.0218   0.0228   0.0571   0.0070   0.0102   0.0171   0.42    0.0
2022/11/10 11:03:12.416    9.042483172    7.399404067   453.2669   4   0   0.0218   0.0228   0.0571   0.0070   0.0102   0.0171   0.42    0.0
2022/11/10 11:03:13.416    9.042483161    7.399404072   453.2592   4   0   0.0218   0.0228   0.0571   0.0070   0.0102   0.0171   0.42    0.0
2022/11/10 11:03:14.416    9.042483160    7.399404061   453.2615   4   0   0.0218   0.0228   0.0571   0.0070   0.0102   0.0171   0.42    0.0
2022/11/10 11:03:15.416    9.042483155    7.399404055   453.2624   4   0   0.0218   0.0228   0.0571   0.0070   0.0102   0.0171   0.42    0.0
2022/11/10 11:03:16.416    9.042483172    7.399404055   453.2628   4   0   0.0218   0.0228   0.0571   0.0070   0.0102   0.0171   0.42    0.0
2022/11/10 11:03:17.416    9.042483167    7.399404056   453.2609   4   0   0.0218   0.0228   0.0571   0.0070   0.0102   0.0171   0.42    0.0
2022/11/10 11:03:18.416    9.042483165    7.399404063   453.2597   4   0   0.0218   0.0228   0.0571   0.0070   0.0102   0.0171   0.42    0.0
2022/11/10 11:03:19.416    9.042483171    7.399404050   453.2632   4   0   0.0218   0.0228   0.0571   0.0070   0.0102   0.0171   0.42    0.0
2022/11/10 11:03:20.416    9.042483161    7.399404056   453.2632   4   0   0.0218   0.0228   0.0571   0.0070   0.0102   0.0171   0.42    0.0
2022/11/10 11:03:21.416    9.042483163    7.399404052   453.2607   4   0   0.0218   0.0228   0.0571   0.0070   0.0102   0.0171   0.42    0.0
2022/11/10 11:03:22.416    9.042483164    7.399404057   453.2616   4   0   0.0218   0.0228   0.0571   0.0070   0.0102   0.0171   0.42    0.0
2022/11/10 11:03:23.416    9.042483153    7.399404053   453.2579   4   0   0.0218   0.0228   0.0571   0.0070   0.0102   0.0171   0.42    0.0
2022/11/10 11:03:24.416    9.042483156    7.399404050   453.2546   4   0   0.0218   0.0228   0.0571   0.0070   0.0102   0.0171   0.42    0.0
2022/11/10 11:03:25.416    9.042483158    7.399404057   453.2554   4   0   0.0218   0.0228   0.0571   0.0070   0.0102   0.0171   0.42    0.0
2022/11/10 11:03:26.416    9.042483148    7.399404066   453.2532   4   0   0.0218   0.0228   0.0571   0.0070   0.0102   0.0171   0.42    0.0
2022/11/10 11:03:27.416    9.042483162    7.399404053   453.2547   4   0   0.0218   0.0228   0.0571   0.0070   0.0102   0.0171   0.42    0.0
2022/11/10 11:03:28.416    9.042483151    7.399404053   453.2520   4   0   0.0218   0.0228   0.0571   0.0070   0.0102   0.0171   0.42    0.0
2022/11/10 11:03:29.416    9.042483175    7.399404050   453.2576   4   0   0.0218   0.0228   0.0571   0.0070   0.0102   0.0171   0.42    0.0
2022/11/10 11:03:30.416    9.042483167    7.399404045   453.2584   4   0   0.0218   0.0228   0.0571   0.0070   0.0102   0.0171   0.42    0.0
2022/11/10 11:03:31.416    9.042483164    7.399404056   453.2562   4   0   0.0218   0.0228   0.0571   0.0070   0.0102   0.0171   0.42    0.0
2022/11/10 11:03:32.416    9.042483169    7.399404038   453.2545   4   0   0.0218   0.0228   0.0571   0.0070   0.0102   0.0171   0.42    0.0
2022/11/10 11:03:33.416    9.042483170    7.399404052   453.2584   4   0   0.0218   0.0228   0.0571   0.0070   0.0102   0.0171   0.42    0.0
2022/11/10 11:03:34.416    9.042483164    7.399404046   453.2596   4   0   0.0218   0.0228   0.0571   0.0070   0.0102   0.0171   0.42    0.0
2022/11/10 11:03:35.416    9.042483158    7.399404045   453.2547   4   0   0.0218   0.0228   0.0571   0.0070   0.0102   0.0171   0.42    0.0
2022/11/10 11:03:36.416    9.042483157    7.399404053   453.2573   4   0   0.0218   0.0228   0.0571   0.0070   0.0102   0.0171   0.42    0.0
2022/11/10 11:03:37.416    9.042483162    7.399404045   453.2589   4   0   0.0218   0.0228   0.0571   0.0070   0.0102   0.0171   0.42    0.0
2022/11/10 11:03:38.416    9.042483163    7.399404041   453.2557   4   0   0.0218   0.0228   0.0571   0.0070   0.0102   0.0171   0.42    0.0
2022/11/10 11:03:39.416    9.042483165    7.399404042   453.2570   4   0   0.0218   0.0228   0.0571   0.0070   0.0102   0.0171   0.42    0.0
2022/11/10 11:03:40.416    9.042483151    7.399404042   453.2560   4   0   0.0218   0.0228   0.0571   0.0070   0.0102   0.0171   0.42    0.0
2022/11/10 11:03:41.416    9.042483149    7.399404049   453.2529   4   0   0.0218   0.0228   0.0571   0.0070   0.0102   0.0171   0.42    0.0
2022/11/10 11:03:42.416    9.042483166    7.399404047   453.2570   4   0   0.0218   0.0228   0.0571   0.0070   0.0102   0.0171   0.42    0.0
2022/11/10 11:03:43.416    9.042483156    7.399404045   453.2547   4   0   0.0218   0.0228   0.0571   0.0070   0.0102   0.0171   0.42    0.0
2022/11/10 11:03:44.416    9.042483179    7.399404039   453.2582   4   0   0.0218   0.0228   0.0571   0.0070   0.0102   0.0171   0.42    0.0
2022/11/10 11:03:45.416    9.042483179    7.399404038   453.2555   4   0   0.0218   0.0228   0.0571   0.0070   0.0102   0.0171   0.42    0.0
2022/11/10 11:03:46.416    9.042483168    7.399404044   453.2512   4   0   0.0218   0.0228   0.0571   0.0070   0.0102   0.0171   0.42    0.0
2022/11/10 11:03:47.416    9.042483166    7.399404047   453.2538   4   0   0.0218   0.0228   0.0571   0.0070   0.0102   0.0171   0.42    0.0
2022/11/10 11:03:48.416    9.042483174    7.399404044   453.2524   4   0   0.0218   0.0228   0.0571   0.0070   0.0102   0.0171   0.42    0.0
2022/11/10 11:03:49.416    9.042483178    7.399404045   453.2559   4   0   0.0218   0.0228   0.0571   0.0070   0.0102   0.0171   0.42    0.0
2022/11/10 11:03:50.416    9.042483178    7.399404043   453.2537   4   0   0.0218   0.0228   0.0571   0.0070   0.0102   0.0171   0.42    0.0
2022/11/10 11:03:51.416    9.042483173    7.399404043   453.2547   4   0   0.0218   0.0228   0.0571   0.0070   0.0102   0.0171   0.42    0.0
2022/11/10 11:03:52.416    9.042483165    7.399404045   453.2508   4   0   0.0218   0.0228   0.0571   0.0070   0.0102   0.0171   0.42    0.0
2022/11/10 11:03:53.416    9.042483170    7.399404050   453.2536   4   0   0.0218   0.0228   0.0571   0.0070   0.0102   0.0171   0.42    0.0
2022/11/10 11:03:54.416    9.042483155    7.399404043   453.2515   4   0   0.0218   0.0228   0.0571   0.0070   0.0102   0.0171   0.42    0.0
2022/11/10 11:03:55.416    9.042483170    7.399404047   453.2563   4   0   0.0218   0.0228   0.0571   0.0070   0.0102   0.0171   0.42    0.0
2022/11/10 11:03:56.416    9.042483172    7.399404035   453.2562   4   0   0.0218   0.0228   0.0571   0.0070   0.0102   0.0171   0.42    0.0
2022/11/10 11:03:57.416    9.042483177    7.399404048   453.2569   4   0   0.0218   0.0228   0.0571   0.0070   0.0102   0.0171   0.42    0.0
2022/11/10 11:03:58.416    9.042483171    7.399404037   453.2544   4   0   0.0218   0.0228   0.0571   0.0070   0.0102   0.0171   0.42    0.0
2022/11/10 11:03:59.416    9.042483172    7.399404037   453.2560   4   0   0.0218   0.0228   0.0571   0.0070   0.0102   0.0171   0.42    0.0
2022/11/10 11:04:00.416    9.042483167    7.399404045   453.2541   4   0   0.0218   0.0228   0.0571   0.0070   0.0102   0.0171   0.42    0.0
2022/11/10 11:04:01.416    9.042483176    7.399404046   453.2517   4   0   0.0218   0.0228   0.0571   0.0070   0.0102   0.0171   0.42    0.0
2022/11/10 11:04:02.416    9.042483164    7.399404037   453.2491   4   0   0.0218   0.0228   0.0571   0.0070   0.0102   0.0171   0.42    0.0
2022/11/10 11:04:03.416    9.042483162    7.399404022   453.2554   4   0   0.0218   0.0228   0.0571   0.0070   0.0102   0.0171   0.42    0.0
2022/11/10 11:04:04.416    9.042483172    7.399404024   453.2525   4   0   0.0218   0.0228   0.0571   0.0070   0.0102   0.0171   0.42    0.0
2022/11/10 11:04:05.416    9.042483156    7.399404034   453.2505   4   0   0.0218   0.0228   0.0571   0.0070   0.0102   0.0171   0.42    0.0
2022/11/10 11:04:06.416    9.042483162    7.399404027   453.2517   4   0   0.0218   0.0228   0.0571   0.0070   0.0102   0.0171   0.42    0.0
2022/11/10 11:04:07.416    9.042483160    7.399404027   453.2532   4   0   0.0218   0.0228   0.0571   0.0070   0.0102   0.0171   0.42    0.0
2022/11/10 11:04:08.416    9.042483157    7.399404035   453.2506   4   0   0.0218   0.0228   0.0571   0.0070   0.0102   0.0171   0.42    0.0
2022/11/10 11:04:09.416    9.042483157    7.399404029   453.2497   4   0   0.0218   0.0228   0.0571   0.0070   0.0102   0.0171   0.42    0.0
2022/11/10 11:04:10.416    9.042483167    7.399404033   453.2553   4   0   0.0218   0.0228   0.0571   0.0070   0.0102   0.0171   0.42    0.0
2022/11/10 11:04:11.416    9.042483156    7.399404040   453.2514   4   0   0.0218   0.0228   0.0571   0.0070   0.0102   0.0171   0.42    0.0
2022/11/10 11:04:12.416    9.042483152    7.399404045   453.2509   4   0   0.0218   0.0228   0.0571   0.0070   0.0102   0.0171   0.42    0.0
2022/11/10 11:04:13.416    9.042483151    7.399404038   453.2490   4   0   0.0218   0.0228   0.0571   0.0070   0.0102   0.0171   0.42    0.0
2022/11/10 11:04:14.416    9.042483157    7.399404041   453.2545   4   0   0.0218   0.0228   0.0571   0.0070   0.0102   0.0171   0.42    0.0
2022/11/10 11:04:15.416    9.042483163    7.399404033   453.2531   4   0   0.0218   0.0228   0.0571   0.0070   0.0102   0.0171   0.42    0.0
2022/11/10 11:04:16.416    9.042483165    7.399404038   453.2540   4   0   0.0218   0.0228   0.0571   0.0070   0.0102   0.0171   0.42    0.0
2022/11/10 11:04:17.416    9.042483168    7.399404040   453.2537   4   0   0.0218   0.0228   0.0571   0.0070   0.0102   0.0171   0.42    0.0
2022/11/10 11:04:18.416    9.042483152    7.399404042   453.2526   4   0   0.0218   0.0228   0.0571   0.0070   0.0102   0.0171   0.42    0.0
2022/11/10 11:04:19.416    9.042483173    7.399404041   453.2542   4   0   0.0218   0.0228   0.0571   0.0070   0.0102   0.0171   0.42    0.0
2022/11/10 11:04:20.416    9.042483173    7.399404040   453.2557   4   0   0.0218   0.0228   0.0571   0.0070   0.0102   0.0171   0.42    0.0
2022/11/10 11:04:21.416    9.042483169    7.399404042   453.2556   4   0   0.0218   0.0228   0.0571   0.0070   0.0102   0.0171   0.42    0.0
2022/11/10 11:04:22.416    9.042483159    7.399404041   453.2525   4   0   0.0218   0.0228   0.0571   0.0070   0.0102   0.0171   0.42    0.0
2022/11/10 11:04:23.416    9.042483171    7.399404036   453.2561   4   0   0.0218   0.0228   0.0571   0.0070   0.0102   0.0171   0.42    0.0
2022/11/10 11:04:24.416    9.042483159    7.399404038   453.2548   4   0   0.0218   0.0228   0.0571   0.0070   0.0102   0.0171   0.42    0.0
2022/11/10 11:04:25.416    9.042483166    7.399404033   453.2536   4   0   0.0218   0.0228   0.0571   0.0070   0.0102   0.0171   0.42    0.0
2022/11/10 11:04:26.416    9.042483165    7.399404034   453.2553   4   0   0.0218   0.0228   0.0571   0.0070   0.0102   0.0171   0.42    0.0
2022/11/10 11:04:27.416    9.042483160    7.399404027   453.2553   4   0   0.0218   0.0228   0.0571   0.0070   0.0102   0.0171   0.42    0.0
2022/11/10 11:04:28.416    9.042483161    7.399404029   453.2543   4   0   0.0218   0.0228   0.0571   0.0070   0.0102   0.0171   0.42    0.0
2022/11/10 11:04:29.416    9.042483153    7.399404030   453.2528   4   0   0.0218   0.0228   0.0571   0.0070   0.0102   0.0171   0.42    0.0
2022/11/10 11:04:30.416    9.042483158    7.399404029   453.2528   4   0   0.0218   0.0228   0.0571   0.0070   0.0102   0.0171   0.42    0.0
2022/11/10 11:04:31.416    9.042483158    7.399404032   453.2509   4   0   0.0218   0.0228   0.0571   0.0070   0.0102   0.0171   0.42    0.0
2022/11/10 11:04:32.416    9.042483161    7.399404028   453.2519   4   0   0.0218   0.0228   0.0571   0.0070   0.0102   0.0171   0.42    0.0
2022/11/10 11:04:33.416    9.042483161    7.399404029   453.2518   4   0   0.0218   0.0228   0.0571   0.0070   0.0102   0.0171   0.42    0.0
2022/11/10 11:04:34.416    9.042483151    7.399404030   453.2499   4   0   0.0218   0.0228   0.0571   0.0070   0.0102   0.0171   0.42    0.0
2022/11/10 11:04:35.416    9.042483159    7.399404032   453.2524   4   0   0.0218   0.0228   0.0571   0.0070   0.0102   0.0171   0.42    0.0
2022/11/10 11:04:36.416    9.042483153    7.399404032   453.2503   4   0   0.0218   0.0228   0.0571   0.0070   0.0102   0.0171   0.42    0.0
2022/11/10 11:04:37.416    9.042483157    7.399404034   453.2510   4   0   0.0218   0.0228   0.0571   0.0070   0.0102   0.0171   0.42    0.0
2022/11/10 11:04:38.416    9.042483155    7.399404028   453.2507   4   0   0.0218   0.0228   0.0571   0.0070   0.0102   0.0171   0.42    0.0
2022/11/10 11:04:39.416    9.042483152    7.399404046   453.2505   4   0   0.0218   0.0228   0.0571   0.0070   0.0102   0.0171   0.42    0.0
2022/11/10 11:04:40.416    9.042483144    7.399404037   453.2482   4   0   0.0218   0.0228   0.0571   0.0070   0.0102   0.0171   0.42    0.0
2022/11/10 11:04:41.416    9.042483148    7.399404042   453.2490   4   0   0.0218   0.0228   0.0571   0.0070   0.0102   0.0171   0.42    0.0
2022/11/10 11:04:42.416    9.042483160    7.399404043   453.2500   4   0   0.0218   0.0228   0.0571   0.0070   0.0102   0.0171   0.42    0.0
2022/11/10 11:04:43.416    9.042483150    7.399404035   453.2502   4   0   0.0218   0.0228   0.0571   0.0070   0.0102   0.0171   0.42    0.0
2022/11/10 11:04:44.416    9.042483159    7.399404035   453.2531   4   0   0.0218   0.0228   0.0571   0.0070   0.0102   0.0171   0.42    0.0
2022/11/10 11:04:45.416    9.042483150    7.399404036   453.2503   4   0   0.0218   0.0228   0.0571   0.0070   0.0102   0.0171   0.42    0.0
2022/11/10 11:04:46.416    9.042483160    7.399404027   453.2526   4   0   0.0218   0.0228   0.0571   0.0070   0.0102   0.0171   0.42    0.0
2022/11/10 11:04:47.416    9.042483157    7.399404031   453.2514   4   0   0.0218   0.0228   0.0571   0.0070   0.0102   0.0171   0.42    0.0
2022/11/10 11:04:48.416    9.042483159    7.399404037   453.2515   4   0   0.0218   0.0228   0.0571   0.0070   0.0102   0.0171   0.42    0.0
2022/11/10 11:04:49.416    9.042483157    7.399404038   453.2558   4   0   0.0218   0.0228   0.0571   0.0070   0.0102   0.0171   0.42    0.0
2022/11/10 11:04:50.416    9.042483135    7.399404042   453.2529   4   0   0.0218   0.0228   0.0571   0.0070   0.0102   0.0171   0.42    0.0
2022/11/10 11:04:51.416    9.042483146    7.399404036   453.2548   4   0   0.0218   0.0228   0.0571   0.0070   0.0102   0.0171   0.42    0.0
2022/11/10 11:04:52.416    9.042483154    7.399404035   453.2560   4   0   0.0218   0.0228   0.0571   0.0070   0.0102   0.0171   0.42    0.0
2022/11/10 11:04:53.416    9.042483155    7.399404021   453.2519   4   0   0.0218   0.0228   0.0571   0.0070   0.0102   0.0171   0.42    0.0
2022/11/10 11:04:54.416    9.042483141    7.399404032   453.2533   4   0   0.0218   0.0228   0.0571   0.0070   0.0102   0.0171   0.42    0.0
2022/11/10 11:04:55.416    9.042483150    7.399404046   453.2552   4   0   0.0218   0.0228   0.0571   0.0070   0.0102   0.0171   0.42    0.0
2022/11/10 11:04:56.416    9.042483156    7.399404049   453.2529   4   0   0.0218   0.0228   0.0571   0.0070   0.0102   0.0171   0.42    0.0
2022/11/10 11:04:57.416    9.042483141    7.399404046   453.2506   4   0   0.0218   0.0228   0.0571   0.0070   0.0102   0.0171   0.42    0.0
2022/11/10 11:04:58.416    9.042483152    7.399404043   453.2500   4   0   0.0218   0.0228   0.0571   0.0070   0.0102   0.0171   0.42    0.0
2022/11/10 11:04:59.416    9.042483132    7.399404043   453.2502   4   0   0.0218   0.0228   0.0571   0.0070   0.0102   0.0171   0.42    0.0
2022/11/10 11:05:00.416    9.042483146    7.399404047   453.2510   4   0   0.0218   0.0228   0.0571   0.0070   0.0102   0.0171   0.42    0.0
2022/11/10 11:05:01.416    9.042483144    7.399404027   453.2527   4   0   0.0218   0.0228   0.0571   0.0070   0.0102   0.0171   0.42    0.0
2022/11/10 11:05:02.416    9.042483145    7.399404034   453.2497   4   0   0.0218   0.0228   0.0571   0.0070   0.0102   0.0171   0.42    0.0
2022/11/10 11:05:03.416    9.042483149    7.399404037   453.2510   4   0   0.0218   0.0228   0.0571   0.0070   0.0102   0.0171   0.42    0.0
2022/11/10 11:05:04.416    9.042483156    7.399404033   453.2508   4   0   0.0218   0.0228   0.0571   0.0070   0.0102   0.0171   0.42    0.0
2022/11/10 11:05:05.416    9.042483150    7.399404035   453.2507   4   0   0.0218   0.0228   0.0571   0.0070   0.0102   0.0171   0.42    0.0
2022/11/10 11:05:06.416    9.042483153    7.399404044   453.2500   4   0   0.0218   0.0228   0.0571   0.0070   0.0102   0.0171   0.42    0.0
2022/11/10 11:05:07.416    9.042483161    7.399404028   453.2508   4   0   0.0218   0.0228   0.0571   0.0070   0.0102   0.0171   0.42    0.0
2022/11/10 11:05:08.416    9.042483143    7.399404032   453.2474   4   0   0.0218   0.0228   0.0571   0.0070   0.0102   0.0171   0.42    0.0
2022/11/10 11:05:09.416    9.042483154    7.399404023   453.2502   4   0   0.0218   0.0228   0.0571   0.0070   0.0102   0.0171   0.42    0.0
2022/11/10 11:05:10.416    9.042483163    7.399404027   453.2538   4   0   0.0218   0.0228   0.0571   0.0070   0.0102   0.0171   0.42    0.0
2022/11/10 11:05:11.416    9.042483155    7.399404034   453.2503   4   0   0.0218   0.0228   0.0571   0.0070   0.0102   0.0171   0.42    0.0
2022/11/10 11:05:12.416    9.042483164    7.399404031   453.2491   4   0   0.0218   0.0228   0.0571   0.0070   0.0102   0.0171   0.42    0.0
2022/11/10 11:05:13.416    9.042483158    7.399404030   453.2467   4   0   0.0218   0.0228   0.0571   0.0070   0.0102   0.0171   0.42    0.0
2022/11/10 11:05:14.416    9.042483167    7.399404043   453.2490   4   0   0.0218   0.0228   0.0571   0.0070   0.0102   0.0171   0.42    0.0
2022/11/10 11:05:15.416    9.042483167    7.399404042   453.2477   4   0   0.0218   0.0228   0.0571   0.0070   0.0102   0.0171   0.42    0.0
2022/11/10 11:05:16.416    9.042483165    7.399404043   453.2478   4   0   0.0218   0.0228   0.0571   0.0070   0.0102   0.0171   0.42    0.0
2022/11/10 11:05:17.416    9.042483160    7.399404045   453.2474   4   0   0.0218   0.0228   0.0571   0.0070   0.0102   0.0171   0.42    0.0
2022/11/10 11:05:18.416    9.042483154    7.399404040   453.2509   4   0   0.0218   0.0228   0.0571   0.0070   0.0102   0.0171   0.42    0.0
2022/11/10 11:05:19.416    9.042483159    7.399404033   453.2525   4   0   0.0218   0.0228   0.0571   0.0070   0.0102   0.0171   0.42    0.0
2022/11/10 11:05:20.416    9.042483144    7.399404029   453.2499   4   0   0.0218   0.0228   0.0571   0.0070   0.0102   0.0171   0.42    0.0
2022/11/10 11:05:21.416    9.042483147    7.399404030   453.2485   4   0   0.0218   0.0228   0.0571   0.0070   0.0102   0.0171   0.42    0.0
2022/11/10 11:05:22.416    9.042483143    7.399404021   453.2467   4   0   0.0218   0.0228   0.0571   0.0070   0.0102   0.0171   0.42    0.0
2022/11/10 11:05:23.416    9.042483136    7.399404023   453.2523   4   0   0.0218   0.0228   0.0571   0.0070   0.0102   0.0171   0.42    0.0
2022/11/10 11:05:24.416    9.042483138    7.399404020   453.2504   4   0   0.0218   0.0228   0.0571   0.0070   0.0102   0.0171   0.42    0.0
2022/11/10 11:05:25.416    9.042483135    7.399404002   453.2518   4   0   0.0218   0.0228   0.0571   0.0070   0.0102   0.0171   0.42    0.0
2022/11/10 11:05:26.416    9.042483142    7.399404010   453.2520   4   0   0.0218   0.0228   0.0571   0.0070   0.0102   0.0171   0.42    0.0
2022/11/10 11:05:27.416    9.042483134    7.399404020   453.2501   4   0   0.0218   0.0228   0.0571   0.0070   0.0102   0.0171   0.42    0.0
2022/11/10 11:05:28.416    9.042483152    7.399404011   453.2517   4   0   0.0218   0.0228   0.0571   0.0070   0.0102   0.0171   0.42    0.0
2022/11/10 11:05:29.416    9.042483142    7.399404017   453.2503   4   0   0.0218   0.0228   0.0571   0.0070   0.0102   0.0171   0.42    0.0
2022/11/10 11:05:30.416    9.042483127    7.399404002   453.2489   4   0   0.0218   0.0228   0.0571   0.0070   0.0102   0.0171   0.42    0.0
2022/11/10 11:05:31.416    9.042483122    7.399404000   453.2488   4   0   0.0218   0.0228   0.0571   0.0070   0.0102   0.0171   0.42    0.0
2022/11/10 11:05:32.416    9.042483122    7.399404023   453.2491   4   0   0.0218   0.0228   0.0571   0.0070   0.0102   0.0171   0.42    0.0
2022/11/10 11:05:33.416    9.042483125    7.399404008   453.2476   4   0   0.0218   0.0228   0.0571   0.0070   0.0102   0.0171   0.42    0.0
2022/11/10 11:05:34.416    9.042483121    7.399403999   453.2500   4   0   0.0218   0.0228   0.0571   0.0070   0.0102   0.0171   0.42    0.0
2022/11/10 11:05:35.416    9.042483125    7.399404008   453.2482   4   0   0.0218   0.0228   0.0571   0.0070   0.0102   0.0171   0.42    0.0
2022/11/10 11:05:36.416    9.042483126    7.399403996   453.2489   4   0   0.0218   0.0228   0.0571   0.0070   0.0102   0.0171   0.42    0.0
2022/11/10 11:05:37.416    9.042483114    7.399403994   453.2535   4   0   0.0218   0.0228   0.0571   0.0070   0.0102   0.0171   0.42    0.0
2022/11/10 11:05:38.416    9.042483130    7.399404003   453.2550   4   0   0.0218   0.0228   0.0571   0.0070   0.0102   0.0171   0.42    0.0
2022/11/10 11:05:39.416    9.042483122    7.399404007   453.2542   4   0   0.0218   0.0228   0.0571   0.0070   0.0102   0.0171   0.42    0.0
2022/11/10 11:05:40.416    9.042483118    7.399404002   453.2524   4   0   0.0218   0.0228   0.0571   0.0070   0.0102   0.0171   0.42    0.0
2022/11/10 11:05:41.416    9.042483114    7.399403982   453.2524   4   0   0.0218   0.0228   0.0571   0.0070   0.0102   0.0171   0.42    0.0
2022/11/10 11:05:42.416    9.042483106    7.399404006   453.2508   4   0   0.0218   0.0228   0.0571   0.0070   0.0102   0.0171   0.42    0.0
2022/11/10 11:05:43.416    9.042483117    7.399404000   453.2501   4   0   0.0218   0.0228   0.0571   0.0070   0.0102   0.0171   0.42    0.0
2022/11/10 11:05:44.416    9.042483133    7.399403985   453.2529   4   0   0.0218   0.0228   0.0571   0.0070   0.0102   0.0171   0.42    0.0
2022/11/10 11:05:45.416    9.042483136    7.399403992   453.2549   4   0   0.0218   0.0228   0.0571   0.0070   0.0102   0.0171   0.42    0.0
2022/11/10 11:05:46.416    9.042483124    7.399404000   453.2513   4   0   0.0218   0.0228   0.0571   0.0070   0.0102   0.0171   0.42    0.0
2022/11/10 11:05:47.416    9.042483117    7.399403994   453.2510   4   0   0.0218   0.0228   0.0571   0.0070   0.0102   0.0171   0.42    0.0
2022/11/10 11:05:48.416    9.042483117    7.399403992   453.2526   4   0   0.0218   0.0228   0.0571   0.0070   0.0102   0.0171   0.42    0.0
2022/11/10 11:05:49.416    9.042483118    7.399403994   453.2516   4   0   0.0218   0.0228   0.0571   0.0070   0.0102   0.0171   0.42    0.0
2022/11/10 11:05:50.416    9.042483130    7.399403992   453.2540   4   0   0.0218   0.0228   0.0571   0.0070   0.0102   0.0171   0.42    0.0
2022/11/10 11:05:51.416    9.042483111    7.399403996   453.2506   4   0   0.0218   0.0228   0.0571   0.0070   0.0102   0.0171   0.42    0.0
2022/11/10 11:05:52.416    9.042483111    7.399403995   453.2511   4   0   0.0218   0.0228   0.0571   0.0070   0.0102   0.0171   0.42    0.0
2022/11/10 11:05:53.416    9.042483110    7.399403987   453.2525   4   0   0.0218   0.0228   0.0571   0.0070   0.0102   0.0171   0.42    0.0
2022/11/10 11:05:54.416    9.042483112    7.399403984   453.2538   4   0   0.0218   0.0228   0.0571   0.0070   0.0102   0.0171   0.42    0.0
2022/11/10 11:05:55.416    9.042483106    7.399403979   453.2530   4   0   0.0218   0.0228   0.0571   0.0070   0.0102   0.0171   0.42    0.0
2022/11/10 11:05:56.416    9.042483102    7.399403984   453.2494   4   0   0.0218   0.0228   0.0571   0.0070   0.0102   0.0171   0.42    0.0
2022/11/10 11:05:57.416    9.042483107    7.399403981   453.2524   4   0   0.0218   0.0228   0.0571   0.0070   0.0102   0.0171   0.42    0.0
2022/11/10 11:05:58.416    9.042483108    7.399403985   453.2520   4   0   0.0218   0.0228   0.0571   0.0070   0.0102   0.0171   0.42    0.0
2022/11/10 11:05:59.416    9.042483107    7.399403983   453.2519   4   0   0.0218   0.0228   0.0571   0.0070   0.0102   0.0171   0.42    0.0
2022/11/10 11:06:00.416    9.042483101    7.399403978   453.2495   4   0   0.0218   0.0228   0.0571   0.0070   0.0102   0.0171   0.42    0.0
2022/11/10 11:06:01.416    9.042483106    7.399403975   453.2511   4   0   0.0218   0.0228   0.0571   0.0070   0.0102   0.0171   0.42    0.0
2022/11/10 11:06:02.416    9.042483100    7.399403975   453.2489   4   0   0.0218   0.0228   0.0571   0.0070   0.0102   0.0171   0.42    0.0
2022/11/10 11:06:03.416    9.042483113    7.399403968   453.2534   4   0   0.0218   0.0228   0.0571   0.0070   0.0102   0.0171   0.42    0.0
2022/11/10 11:06:04.416    9.042483120    7.399403963   453.2531   4   0   0.0218   0.0228   0.0571   0.0070   0.0102   0.0171   0.42    0.0
2022/11/10 11:06:05.416    9.042483100    7.399403961   453.2515   4   0   0.0218   0.0228   0.0571   0.0070   0.0102   0.0171   0.42    0.0
2022/11/10 11:06:06.416    9.042483095    7.399403963   453.2498   4   0   0.0218   0.0228   0.0571   0.0070   0.0102   0.0171   0.42    0.0
2022/11/10 11:06:07.416    9.042483101    7.399403955   453.2486   4   0   0.0218   0.0228   0.0571   0.0070   0.0102   0.0171   0.42    0.0
2022/11/10 11:06:08.416    9.042483101    7.399403963   453.2456   4   0   0.0218   0.0228   0.0571   0.0070   0.0102   0.0171   0.42    0.0
2022/11/10 11:06:09.416    9.042483098    7.399403963   453.2443   4   0   0.0218   0.0228   0.0571   0.0070   0.0102   0.0171   0.42    0.0
2022/11/10 11:06:10.416    9.042483107    7.399403960   453.2482   4   0   0.0218   0.0228   0.0571   0.0070   0.0102   0.0171   0.42    0.0
2022/11/10 11:06:11.416    9.042483101    7.399403966   453.2503   4   0   0.0218   0.0228   0.0571   0.0070   0.0102   0.0171   0.42    0.0
2022/11/10 11:06:12.416    9.042483117    7.399403957   453.2504   4   0   0.0218   0.0228   0.0571   0.0070   0.0102   0.0171   0.42    0.0
2022/11/10 11:06:13.416    9.042483106    7.399403954   453.2509   4   0   0.0218   0.0228   0.0571   0.0070   0.0102   0.0171   0.42    0.0
2022/11/10 11:06:14.416    9.042483124    7.399403967   453.2519   4   0   0.0218   0.0228   0.0571   0.0070   0.0102   0.0171   0.42    0.0
2022/11/10 11:06:15.416    9.042483118    7.399403957   453.2466   4   0   0.0218   0.0228   0.0571   0.0070   0.0102   0.0171   0.42    0.0
2022/11/10 11:06:16.416    9.042483118    7.399403957   453.2479   4   0   0.0218   0.0228   0.0571   0.0070   0.0102   0.0171   0.42    0.0
2022/11/10 11:06:17.416    9.042483110    7.399403969   453.2492   4   0   0.0218   0.0228   0.0571   0.0070   0.0102   0.0171   0.42    0.0
2022/11/10 11:06:18.416    9.042483104    7.399403967   453.2474   4   0   0.0218   0.0228   0.0571   0.0070   0.0102   0.0171   0.42    0.0
2022/11/10 11:06:19.416    9.042483116    7.399403961   453.2467   4   0   0.0218   0.0228   0.0571   0.0070   0.0102   0.0171   0.42    0.0
2022/11/10 11:06:20.416    9.042483098    7.399403958   453.2486   4   0   0.0218   0.0228   0.0571   0.0070   0.0102   0.0171   0.42    0.0
2022/11/10 11:06:21.416    9.042483108    7.399403973   453.2470   4   0   0.0218   0.0228   0.0571   0.0070   0.0102   0.0171   0.42    0.0
2022/11/10 11:06:22.416    9.042483106    7.399403950   453.2517   4   0   0.0218   0.0228   0.0571   0.0070   0.0102   0.0171   0.42    0.0
2022/11/10 11:06:23.416    9.042483115    7.399403963   453.2484   4   0   0.0218   0.0228   0.0571   0.0070   0.0102   0.0171   0.42    0.0
2022/11/10 11:06:24.416    9.042483116    7.399403966   453.2501   4   0   0.0218   0.0228   0.0571   0.0070   0.0102   0.0171   0.42    0.0
2022/11/10 11:06:25.416    9.042483110    7.399403957   453.2497   4   0   0.0218   0.0228   0.0571   0.0070   0.0102   0.0171   0.42    0.0
2022/11/10 11:06:26.416    9.042483120    7.399403957   453.2499   4   0   0.0218   0.0228   0.0571   0.0070   0.0102   0.0171   0.42    0.0
2022/11/10 11:06:27.416    9.042483118    7.399403951   453.2519   4   0   0.0218   0.0228   0.0571   0.0070   0.0102   0.0171   0.42    0.0
2022/11/10 11:06:28.416    9.042483113    7.399403954   453.2503   4   0   0.0218   0.0228   0.0571   0.0070   0.0102   0.0171   0.42    0.0
2022/11/10 11:06:29.416    9.042483130    7.399403959   453.2517   4   0   0.0218   0.0228   0.0571   0.0070   0.0102   0.0171   0.42    0.0
2022/11/10 11:06:30.416    9.042483120    7.399403961   453.2497   4   0   0.0218   0.0228   0.0571   0.0070   0.0102   0.0171   0.42    0.0
2022/11/10 11:06:31.416    9.042483111    7.399403962   453.2490   4   0   0.0218   0.0228   0.0571   0.0070   0.0102   0.0171   0.42    0.0
2022/11/10 11:06:32.416    9.042483111    7.399403966   453.2468   4   0   0.0218   0.0228   0.0571   0.0070   0.0102   0.0171   0.42    0.0
2022/11/10 11:06:33.416    9.042483113    7.399403958   453.2479   4   0   0.0218   0.0228   0.0571   0.0070   0.0102   0.0171   0.42    0.0
2022/11/10 11:06:34.416    9.042483106    7.399403965   453.2464   4   0   0.0218   0.0228   0.0571   0.0070   0.0102   0.0171   0.42    0.0
2022/11/10 11:06:35.416    9.042483104    7.399403952   453.2487   4   0   0.0218   0.0228   0.0571   0.0070   0.0102   0.0171   0.42    0.0
2022/11/10 11:06:36.416    9.042483101    7.399403956   453.2484   4   0   0.0218   0.0228   0.0571   0.0070   0.0102   0.0171   0.42    0.0
2022/11/10 11:06:37.416    9.042483107    7.399403967   453.2476   4   0   0.0218   0.0228   0.0571   0.0070   0.0102   0.0171   0.42    0.0
2022/11/10 11:06:38.416    9.042483114    7.399403954   453.2501   4   0   0.0218   0.0228   0.0571   0.0070   0.0102   0.0171   0.42    0.0
2022/11/10 11:06:39.416    9.042483127    7.399403959   453.2492   4   0   0.0218   0.0228   0.0571   0.0070   0.0102   0.0171   0.42    0.0
2022/11/10 11:06:40.416    9.042483116    7.399403949   453.2520   4   0   0.0218   0.0228   0.0571   0.0070   0.0102   0.0171   0.42    0.0
2022/11/10 11:06:41.416    9.042483115    7.399403965   453.2502   4   0   0.0218   0.0228   0.0571   0.0070   0.0102   0.0171   0.42    0.0
2022/11/10 11:06:42.416    9.042483126    7.399403947   453.2552   4   0   0.0218   0.0228   0.0571   0.0070   0.0102   0.0171   0.42    0.0
2022/11/10 11:06:43.416    9.042483107    7.399403959   453.2550   4   0   0.0218   0.0228   0.0571   0.0070   0.0102   0.0171   0.42    0.0
2022/11/10 11:06:44.416    9.042483107    7.399403946   453.2553   4   0   0.0218   0.0228   0.0571   0.0070   0.0102   0.0171   0.42    0.0
2022/11/10 11:06:45.416    9.042483099    7.399403946   453.2567   4   0   0.0218   0.0228   0.0571   0.0070   0.0102   0.0171   0.42    0.0
2022/11/10 11:06:46.416    9.042483106    7.399403943   453.2560   4   0   0.0218   0.0228   0.0571   0.0070   0.0102   0.0171   0.42    0.0
2022/11/10 11:06:47.416    9.042483106    7.399403940   453.2561   4   0   0.0218   0.0228   0.0571   0.0070   0.0102   0.0171   0.42    0.0
2022/11/10 11:06:48.416    9.042483094    7.399403950   453.2541   4   0   0.0218   0.0228   0.0571   0.0070   0.0102   0.0171   0.42    0.0
2022/11/10 11:06:49.416    9.042483091    7.399403942   453.2552   4   0   0.0218   0.0228   0.0571   0.0070   0.0102   0.0171   0.42    0.0
2022/11/10 11:06:50.416    9.042483093    7.399403943   453.2567   4   0   0.0218   0.0228   0.0571   0.0070   0.0102   0.0171   0.42    0.0
2022/11/10 11:06:51.416    9.042483097    7.399403949   453.2543   4   0   0.0218   0.0228   0.0571   0.0070   0.0102   0.0171   0.42    0.0
2022/11/10 11:06:52.416    9.042483107    7.399403944   453.2549   4   0   0.0218   0.0228   0.0571   0.0070   0.0102   0.0171   0.42    0.0
2022/11/10 11:06:53.416    9.042483111    7.399403949   453.2542   4   0   0.0218   0.0228   0.0571   0.0070   0.0102   0.0171   0.42    0.0
2022/11/10 11:06:54.416    9.042483110    7.399403941   453.2600   4   0   0.0218   0.0228   0.0571   0.0070   0.0102   0.0171   0.42    0.0
