% program   : RTKPOST ver.demo5 b34g
% inp file  : C:\Users\Abdullateef\Documents\PHD\Research on Precision Agriculture Navigation Technology\nav data\GNSS Log file\Geo++\GEOP314L.22o
% inp file  : C:\Users\Abdullateef\Documents\PHD\Research on Precision Agriculture Navigation Technology\nav data\GNSS Log file\Base file\ABFC00NGA_R_20223141100_01H_1S_MO.22D
% inp file  : C:\Users\Abdullateef\Documents\PHD\Research on Precision Agriculture Navigation Technology\nav data\GNSS Log file\Nav file\BRDC00WRD_S_20223140000_01D_MN.rnx\BRDC00WRD_S_20223140000_01D_MN.rnx
% obs start : 2022/11/10 11:00:00.4 GPST (week2235 385200.4s)
% obs end   : 2022/11/10 11:39:12.4 GPST (week2235 387552.4s)
% pos mode  : Static
% freqs     : L1+L2/E5b+L5
% solution  : Combined-No Phase Reset
% elev mask : 30.0 deg
% dynamics  : on
% tidecorr  : off
% ionos opt : Broadcast
% tropo opt : Saastamoinen
% ephemeris : Broadcast
% navi sys  : GPS GLONASS Galileo BDS
% amb res   : Fix and Hold
% amb glo   : Fix and Hold
% val thres : 3.0
% antenna1  :                       ( 0.0000  0.0000  0.0000)
% antenna2  :                       ( 0.0000  0.0000  0.0000)
% ref pos   :  9.027665666    7.486341687   532.6449
%
% (lat/lon/height=WGS84/ellipsoidal,Q=1:fix,2:float,3:sbas,4:dgps,5:single,6:ppp,ns=# of satellites)
%  GPST                  latitude(deg) longitude(deg)  height(m)   Q  ns   sdn(m)   sde(m)   sdu(m)  sdne(m)  sdeu(m)  sdun(m) age(s)  ratio
2022/11/10 11:00:00.416    9.042492582    7.399422371   458.1334   4   0   0.0279   0.0307   0.0996   0.0117   0.0164   0.0285   0.42    0.0
2022/11/10 11:00:01.416    9.042492601    7.399422352   458.1386   4   0   0.0279   0.0307   0.0996   0.0117   0.0164   0.0285   0.42    0.0
2022/11/10 11:00:02.416    9.042492618    7.399422358   458.1472   4   0   0.0279   0.0307   0.0996   0.0117   0.0164   0.0284   0.42    0.0
2022/11/10 11:00:03.416    9.042492620    7.399422349   458.1475   4   0   0.0279   0.0307   0.0996   0.0117   0.0164   0.0284   0.42    0.0
2022/11/10 11:00:04.416    9.042492629    7.399422338   458.1500   4   0   0.0279   0.0307   0.0996   0.0117   0.0164   0.0284   0.42    0.0
2022/11/10 11:00:05.416    9.042492671    7.399422329   458.1656   4   0   0.0279   0.0307   0.0996   0.0117   0.0164   0.0284   0.42    0.0
2022/11/10 11:00:06.416    9.042492669    7.399422269   458.1660   4   0   0.0279   0.0307   0.0996   0.0117   0.0164   0.0284   0.42    0.0
2022/11/10 11:00:07.416    9.042492726    7.399422278   458.1808   4   0   0.0279   0.0307   0.0996   0.0117   0.0164   0.0284   0.42    0.0
2022/11/10 11:00:08.416    9.042492715    7.399422267   458.1781   4   0   0.0279   0.0307   0.0996   0.0117   0.0164   0.0284   0.42    0.0
2022/11/10 11:00:09.416    9.042492687    7.399422302   458.1744   4   0   0.0279   0.0307   0.0996   0.0117   0.0164   0.0284   0.42    0.0
2022/11/10 11:00:10.416    9.042492705    7.399422300   458.1818   4   0   0.0279   0.0307   0.0996   0.0117   0.0164   0.0284   0.42    0.0
2022/11/10 11:00:11.416    9.042492687    7.399422307   458.1734   4   0   0.0279   0.0307   0.0996   0.0117   0.0164   0.0284   0.42    0.0
2022/11/10 11:00:12.416    9.042492697    7.399422296   458.1714   4   0   0.0279   0.0307   0.0996   0.0117   0.0164   0.0284   0.42    0.0
2022/11/10 11:00:13.416    9.042492684    7.399422277   458.1673   4   0   0.0279   0.0307   0.0996   0.0117   0.0164   0.0284   0.42    0.0
2022/11/10 11:00:14.416    9.042492712    7.399422285   458.1770   4   0   0.0279   0.0307   0.0996   0.0117   0.0164   0.0284   0.42    0.0
2022/11/10 11:00:15.416    9.042492718    7.399422289   458.1789   4   0   0.0279   0.0307   0.0996   0.0117   0.0164   0.0284   0.42    0.0
2022/11/10 11:00:16.416    9.042492720    7.399422276   458.1834   4   0   0.0279   0.0307   0.0996   0.0117   0.0164   0.0284   0.42    0.0
2022/11/10 11:00:17.416    9.042492725    7.399422277   458.1830   4   0   0.0279   0.0307   0.0996   0.0117   0.0164   0.0284   0.42    0.0
2022/11/10 11:00:18.416    9.042492721    7.399422291   458.1841   4   0   0.0279   0.0307   0.0996   0.0117   0.0164   0.0284   0.42    0.0
2022/11/10 11:00:19.416    9.042492712    7.399422293   458.1829   4   0   0.0279   0.0307   0.0996   0.0117   0.0164   0.0284   0.42    0.0
2022/11/10 11:00:20.416    9.042492767    7.399422265   458.1939   4   0   0.0279   0.0307   0.0996   0.0117   0.0164   0.0284   0.42    0.0
2022/11/10 11:00:21.416    9.042492746    7.399422272   458.1935   4   0   0.0279   0.0307   0.0996   0.0117   0.0164   0.0284   0.42    0.0
2022/11/10 11:00:22.416    9.042492775    7.399422275   458.1983   4   0   0.0279   0.0307   0.0996   0.0117   0.0164   0.0284   0.42    0.0
2022/11/10 11:00:23.416    9.042492748    7.399422283   458.1953   4   0   0.0279   0.0307   0.0996   0.0117   0.0164   0.0284   0.42    0.0
2022/11/10 11:00:24.416    9.042492732    7.399422268   458.1972   4   0   0.0279   0.0307   0.0996   0.0117   0.0164   0.0284   0.42    0.0
2022/11/10 11:00:25.416    9.042492728    7.399422265   458.1979   4   0   0.0279   0.0307   0.0996   0.0117   0.0164   0.0284   0.42    0.0
2022/11/10 11:00:26.416    9.042492736    7.399422290   458.1958   4   0   0.0279   0.0307   0.0996   0.0117   0.0164   0.0284   0.42    0.0
2022/11/10 11:00:27.416    9.042492744    7.399422285   458.1935   4   0   0.0279   0.0307   0.0996   0.0117   0.0164   0.0284   0.42    0.0
2022/11/10 11:00:28.416    9.042492744    7.399422272   458.1913   4   0   0.0279   0.0307   0.0996   0.0117   0.0164   0.0284   0.42    0.0
2022/11/10 11:00:29.416    9.042492737    7.399422273   458.1887   4   0   0.0279   0.0307   0.0996   0.0117   0.0164   0.0284   0.42    0.0
2022/11/10 11:00:30.416    9.042492734    7.399422283   458.1874   4   0   0.0279   0.0307   0.0996   0.0117   0.0164   0.0284   0.42    0.0
2022/11/10 11:00:31.416    9.042492747    7.399422277   458.1875   4   0   0.0279   0.0307   0.0996   0.0117   0.0164   0.0284   0.42    0.0
2022/11/10 11:00:32.416    9.042492725    7.399422250   458.1873   4   0   0.0279   0.0307   0.0996   0.0117   0.0164   0.0284   0.42    0.0
2022/11/10 11:00:33.416    9.042492728    7.399422277   458.1910   4   0   0.0279   0.0307   0.0996   0.0117   0.0164   0.0284   0.42    0.0
2022/11/10 11:00:34.416    9.042492731    7.399422271   458.1868   4   0   0.0279   0.0307   0.0996   0.0117   0.0164   0.0284   0.42    0.0
2022/11/10 11:00:35.416    9.042492737    7.399422284   458.1853   4   0   0.0279   0.0307   0.0996   0.0117   0.0164   0.0284   0.42    0.0
2022/11/10 11:00:36.416    9.042492748    7.399422285   458.1814   4   0   0.0279   0.0307   0.0996   0.0117   0.0164   0.0284   0.42    0.0
2022/11/10 11:00:37.416    9.042492733    7.399422267   458.1707   4   0   0.0279   0.0307   0.0996   0.0117   0.0164   0.0284   0.42    0.0
2022/11/10 11:00:38.416    9.042492740    7.399422233   458.1596   4   0   0.0279   0.0307   0.0996   0.0117   0.0164   0.0284   0.42    0.0
2022/11/10 11:00:39.416    9.042492734    7.399422214   458.1469   4   0   0.0279   0.0307   0.0996   0.0117   0.0164   0.0284   0.42    0.0
2022/11/10 11:00:40.416    9.042492721    7.399422211   458.1510   4   0   0.0279   0.0307   0.0996   0.0117   0.0164   0.0284   0.42    0.0
2022/11/10 11:00:41.416    9.042492731    7.399422212   458.1519   4   0   0.0279   0.0307   0.0996   0.0117   0.0164   0.0284   0.42    0.0
2022/11/10 11:00:42.416    9.042492733    7.399422198   458.1574   4   0   0.0279   0.0307   0.0996   0.0117   0.0164   0.0284   0.42    0.0
2022/11/10 11:00:43.416    9.042492717    7.399422213   458.1547   4   0   0.0279   0.0307   0.0996   0.0117   0.0164   0.0284   0.42    0.0
2022/11/10 11:00:44.416    9.042492728    7.399422207   458.1509   4   0   0.0279   0.0307   0.0996   0.0117   0.0164   0.0284   0.42    0.0
2022/11/10 11:00:45.416    9.042492706    7.399422186   458.1477   4   0   0.0279   0.0307   0.0996   0.0117   0.0164   0.0284   0.42    0.0
2022/11/10 11:00:46.416    9.042492700    7.399422177   458.1439   4   0   0.0279   0.0307   0.0996   0.0117   0.0164   0.0284   0.42    0.0
2022/11/10 11:00:47.416    9.042492699    7.399422171   458.1408   4   0   0.0279   0.0307   0.0996   0.0117   0.0164   0.0284   0.42    0.0
2022/11/10 11:00:48.416    9.042492681    7.399422134   458.1303   4   0   0.0279   0.0307   0.0996   0.0117   0.0164   0.0284   0.42    0.0
2022/11/10 11:00:49.416    9.042492696    7.399422144   458.1298   4   0   0.0279   0.0307   0.0996   0.0117   0.0164   0.0284   0.42    0.0
2022/11/10 11:00:50.416    9.042492715    7.399422111   458.1266   4   0   0.0279   0.0307   0.0996   0.0117   0.0164   0.0284   0.42    0.0
2022/11/10 11:00:51.416    9.042492684    7.399422079   458.1038   4   0   0.0279   0.0307   0.0996   0.0117   0.0164   0.0284   0.42    0.0
2022/11/10 11:00:52.416    9.042492688    7.399422063   458.0989   4   0   0.0279   0.0307   0.0996   0.0117   0.0164   0.0284   0.42    0.0
2022/11/10 11:00:53.416    9.042492677    7.399422040   458.0904   4   0   0.0279   0.0307   0.0996   0.0117   0.0164   0.0284   0.42    0.0
2022/11/10 11:00:54.416    9.042492673    7.399422028   458.0827   4   0   0.0279   0.0307   0.0996   0.0117   0.0164   0.0284   0.42    0.0
2022/11/10 11:00:55.416    9.042492663    7.399421998   458.0742   4   0   0.0279   0.0307   0.0996   0.0117   0.0164   0.0284   0.42    0.0
2022/11/10 11:00:56.416    9.042492669    7.399421994   458.0607   4   0   0.0279   0.0307   0.0995   0.0117   0.0164   0.0284   0.42    0.0
2022/11/10 11:00:57.416    9.042492653    7.399421964   458.0537   4   0   0.0279   0.0307   0.0995   0.0117   0.0164   0.0284   0.42    0.0
2022/11/10 11:00:58.416    9.042492653    7.399421954   458.0515   4   0   0.0279   0.0307   0.0995   0.0117   0.0164   0.0284   0.42    0.0
2022/11/10 11:00:59.416    9.042492654    7.399421940   458.0444   4   0   0.0279   0.0307   0.0995   0.0117   0.0164   0.0284   0.42    0.0
2022/11/10 11:01:00.416    9.042492675    7.399421950   458.0452   4   0   0.0279   0.0307   0.0995   0.0117   0.0164   0.0284   0.42    0.0
2022/11/10 11:01:01.416    9.042492668    7.399421939   458.0439   4   0   0.0279   0.0307   0.0995   0.0117   0.0164   0.0284   0.42    0.0
2022/11/10 11:01:02.416    9.042492670    7.399421955   458.0461   4   0   0.0279   0.0307   0.0995   0.0117   0.0164   0.0284   0.42    0.0
2022/11/10 11:01:03.416    9.042492665    7.399421942   458.0482   4   0   0.0279   0.0307   0.0995   0.0117   0.0164   0.0284   0.42    0.0
2022/11/10 11:01:04.416    9.042492683    7.399421961   458.0494   4   0   0.0279   0.0307   0.0995   0.0117   0.0164   0.0284   0.42    0.0
2022/11/10 11:01:05.416    9.042492657    7.399421961   458.0508   4   0   0.0279   0.0307   0.0995   0.0117   0.0164   0.0284   0.42    0.0
2022/11/10 11:01:06.416    9.042492667    7.399421955   458.0484   4   0   0.0279   0.0307   0.0995   0.0117   0.0164   0.0284   0.42    0.0
2022/11/10 11:01:07.416    9.042492671    7.399421967   458.0516   4   0   0.0279   0.0307   0.0995   0.0117   0.0164   0.0284   0.42    0.0
2022/11/10 11:01:08.416    9.042492673    7.399421959   458.0515   4   0   0.0279   0.0307   0.0995   0.0117   0.0164   0.0284   0.42    0.0
2022/11/10 11:01:09.416    9.042492673    7.399421966   458.0512   4   0   0.0279   0.0307   0.0995   0.0117   0.0164   0.0284   0.42    0.0
2022/11/10 11:01:10.416    9.042492663    7.399421949   458.0513   4   0   0.0279   0.0307   0.0995   0.0117   0.0164   0.0284   0.42    0.0
2022/11/10 11:01:11.416    9.042492666    7.399421951   458.0471   4   0   0.0279   0.0307   0.0995   0.0117   0.0164   0.0284   0.42    0.0
2022/11/10 11:01:12.416    9.042492673    7.399421957   458.0478   4   0   0.0279   0.0307   0.0995   0.0117   0.0164   0.0284   0.42    0.0
2022/11/10 11:01:13.416    9.042492667    7.399421969   458.0530   4   0   0.0279   0.0307   0.0995   0.0117   0.0164   0.0284   0.42    0.0
2022/11/10 11:01:14.416    9.042492683    7.399421973   458.0480   4   0   0.0279   0.0307   0.0995   0.0117   0.0164   0.0284   0.42    0.0
2022/11/10 11:01:15.416    9.042492680    7.399421956   458.0460   4   0   0.0279   0.0307   0.0995   0.0117   0.0164   0.0284   0.42    0.0
2022/11/10 11:01:16.416    9.042492662    7.399421945   458.0454   4   0   0.0279   0.0307   0.0995   0.0117   0.0164   0.0284   0.42    0.0
2022/11/10 11:01:17.416    9.042492607    7.399421915   458.0183   4   0   0.0279   0.0307   0.0995   0.0117   0.0164   0.0284   0.42    0.0
2022/11/10 11:01:18.416    9.042492618    7.399421917   458.0093   4   0   0.0279   0.0307   0.0995   0.0117   0.0164   0.0284   0.42    0.0
2022/11/10 11:01:19.416    9.042492632    7.399421876   458.0284   4   0   0.0279   0.0307   0.0995   0.0117   0.0164   0.0284   0.42    0.0
2022/11/10 11:01:20.416    9.042492594    7.399421838   458.0087   4   0   0.0279   0.0307   0.0995   0.0117   0.0164   0.0284   0.42    0.0
2022/11/10 11:01:21.416    9.042492627    7.399421832   458.0198   4   0   0.0279   0.0307   0.0995   0.0117   0.0164   0.0284   0.42    0.0
2022/11/10 11:01:22.416    9.042492607    7.399421832   458.0150   4   0   0.0279   0.0307   0.0995   0.0117   0.0164   0.0284   0.42    0.0
2022/11/10 11:01:23.416    9.042492592    7.399421824   458.0098   4   0   0.0279   0.0307   0.0995   0.0117   0.0164   0.0284   0.42    0.0
2022/11/10 11:01:24.416    9.042492586    7.399421828   458.0144   4   0   0.0279   0.0307   0.0995   0.0117   0.0164   0.0284   0.42    0.0
2022/11/10 11:01:25.416    9.042492591    7.399421825   458.0146   4   0   0.0279   0.0307   0.0995   0.0117   0.0164   0.0284   0.42    0.0
2022/11/10 11:01:26.416    9.042492591    7.399421837   458.0147   4   0   0.0279   0.0307   0.0995   0.0117   0.0164   0.0284   0.42    0.0
2022/11/10 11:01:27.416    9.042492595    7.399421830   458.0123   4   0   0.0279   0.0307   0.0995   0.0117   0.0164   0.0284   0.42    0.0
2022/11/10 11:01:28.416    9.042492596    7.399421854   458.0172   4   0   0.0279   0.0307   0.0995   0.0117   0.0164   0.0284   0.42    0.0
2022/11/10 11:01:29.416    9.042492620    7.399421820   458.0267   4   0   0.0279   0.0307   0.0995   0.0117   0.0164   0.0284   0.42    0.0
2022/11/10 11:01:30.416    9.042492577    7.399421842   458.0187   4   0   0.0279   0.0307   0.0995   0.0117   0.0164   0.0284   0.42    0.0
2022/11/10 11:01:31.416    9.042492591    7.399421850   458.0152   4   0   0.0279   0.0307   0.0995   0.0117   0.0164   0.0284   0.42    0.0
2022/11/10 11:01:32.416    9.042492570    7.399421822   458.0184   4   0   0.0279   0.0307   0.0995   0.0117   0.0164   0.0284   0.42    0.0
2022/11/10 11:01:33.416    9.042492590    7.399421842   458.0123   4   0   0.0279   0.0307   0.0995   0.0117   0.0164   0.0284   0.42    0.0
2022/11/10 11:01:34.416    9.042492577    7.399421831   458.0142   4   0   0.0279   0.0307   0.0995   0.0117   0.0164   0.0284   0.42    0.0
2022/11/10 11:01:35.416    9.042492614    7.399421832   458.0210   4   0   0.0279   0.0307   0.0995   0.0117   0.0164   0.0284   0.42    0.0
2022/11/10 11:01:36.416    9.042492578    7.399421838   458.0109   4   0   0.0279   0.0307   0.0995   0.0117   0.0164   0.0284   0.42    0.0
2022/11/10 11:01:37.416    9.042492563    7.399421839   458.0093   4   0   0.0279   0.0307   0.0995   0.0117   0.0164   0.0284   0.42    0.0
2022/11/10 11:01:38.416    9.042492580    7.399421831   458.0085   4   0   0.0279   0.0307   0.0995   0.0117   0.0164   0.0284   0.42    0.0
2022/11/10 11:01:39.416    9.042492569    7.399421824   458.0099   4   0   0.0279   0.0307   0.0995   0.0117   0.0164   0.0284   0.42    0.0
2022/11/10 11:01:40.416    9.042492564    7.399421815   458.0166   4   0   0.0279   0.0307   0.0995   0.0117   0.0164   0.0284   0.42    0.0
2022/11/10 11:01:41.416    9.042492582    7.399421842   458.0161   4   0   0.0279   0.0307   0.0995   0.0117   0.0164   0.0284   0.42    0.0
2022/11/10 11:01:42.416    9.042492577    7.399421833   458.0151   4   0   0.0279   0.0307   0.0995   0.0117   0.0164   0.0284   0.42    0.0
2022/11/10 11:01:43.416    9.042492562    7.399421822   458.0180   4   0   0.0279   0.0307   0.0995   0.0117   0.0164   0.0284   0.42    0.0
2022/11/10 11:01:44.416    9.042492568    7.399421824   458.0211   4   0   0.0279   0.0307   0.0995   0.0117   0.0164   0.0284   0.42    0.0
2022/11/10 11:01:45.416    9.042492582    7.399421824   458.0244   4   0   0.0279   0.0307   0.0995   0.0117   0.0164   0.0284   0.42    0.0
2022/11/10 11:01:46.416    9.042492580    7.399421815   458.0207   4   0   0.0279   0.0307   0.0995   0.0117   0.0164   0.0284   0.42    0.0
2022/11/10 11:01:47.416    9.042492570    7.399421821   458.0225   4   0   0.0279   0.0307   0.0995   0.0117   0.0164   0.0284   0.42    0.0
2022/11/10 11:01:48.416    9.042492569    7.399421823   458.0177   4   0   0.0279   0.0307   0.0995   0.0117   0.0164   0.0284   0.42    0.0
2022/11/10 11:01:49.416    9.042492586    7.399421830   458.0262   4   0   0.0279   0.0307   0.0995   0.0117   0.0164   0.0284   0.42    0.0
2022/11/10 11:01:50.416    9.042492559    7.399421829   458.0241   4   0   0.0279   0.0307   0.0995   0.0117   0.0164   0.0284   0.42    0.0
2022/11/10 11:01:51.416    9.042492561    7.399421835   458.0222   4   0   0.0279   0.0307   0.0995   0.0117   0.0164   0.0284   0.42    0.0
2022/11/10 11:01:52.416    9.042492562    7.399421827   458.0256   4   0   0.0279   0.0307   0.0995   0.0117   0.0164   0.0284   0.42    0.0
2022/11/10 11:01:53.416    9.042492557    7.399421814   458.0241   4   0   0.0279   0.0307   0.0995   0.0117   0.0164   0.0284   0.42    0.0
2022/11/10 11:01:54.416    9.042492559    7.399421833   458.0201   4   0   0.0279   0.0307   0.0995   0.0117   0.0164   0.0284   0.42    0.0
2022/11/10 11:01:55.416    9.042492532    7.399421832   458.0171   4   0   0.0279   0.0307   0.0995   0.0117   0.0164   0.0284   0.42    0.0
2022/11/10 11:01:56.416    9.042492538    7.399421840   458.0099   4   0   0.0279   0.0307   0.0995   0.0117   0.0164   0.0284   0.42    0.0
2022/11/10 11:01:57.416    9.042492525    7.399421835   458.0036   4   0   0.0279   0.0307   0.0995   0.0117   0.0164   0.0284   0.42    0.0
2022/11/10 11:01:58.416    9.042492481    7.399421835   457.9919   4   0   0.0279   0.0307   0.0995   0.0117   0.0164   0.0284   0.42    0.0
2022/11/10 11:01:59.416    9.042492510    7.399421836   457.9956   4   0   0.0279   0.0307   0.0995   0.0117   0.0164   0.0284   0.42    0.0
2022/11/10 11:02:00.416    9.042492479    7.399421833   457.9855   4   0   0.0279   0.0307   0.0995   0.0117   0.0164   0.0284   0.42    0.0
2022/11/10 11:02:01.416    9.042492479    7.399421801   457.9707   4   0   0.0279   0.0307   0.0995   0.0117   0.0163   0.0284   0.42    0.0
2022/11/10 11:02:02.416    9.042443095    7.399352387   434.0186   4   0   0.1839   0.1902   0.5458   0.0916   0.0986   0.1688   0.42    0.0
2022/11/10 11:02:03.416    9.042492417    7.399421777   457.9358   4   0   0.0279   0.0307   0.0995   0.0117   0.0163   0.0284   0.42    0.0
2022/11/10 11:02:04.416    9.042492418    7.399421774   457.9289   4   0   0.0279   0.0307   0.0995   0.0117   0.0163   0.0284   0.42    0.0
2022/11/10 11:02:05.416    9.042492409    7.399421756   457.9225   4   0   0.0279   0.0307   0.0995   0.0117   0.0163   0.0284   0.42    0.0
2022/11/10 11:02:06.416    9.042492399    7.399421717   457.9169   4   0   0.0279   0.0307   0.0995   0.0117   0.0163   0.0284   0.42    0.0
2022/11/10 11:02:07.416    9.042492385    7.399421712   457.9146   4   0   0.0279   0.0307   0.0995   0.0117   0.0163   0.0284   0.42    0.0
2022/11/10 11:02:08.416    9.042492390    7.399421691   457.9139   4   0   0.0279   0.0307   0.0995   0.0117   0.0163   0.0284   0.42    0.0
2022/11/10 11:02:09.416    9.042492397    7.399421704   457.9119   4   0   0.0279   0.0307   0.0995   0.0117   0.0163   0.0284   0.42    0.0
2022/11/10 11:02:10.416    9.042492383    7.399421669   457.9096   4   0   0.0279   0.0307   0.0995   0.0117   0.0163   0.0284   0.42    0.0
2022/11/10 11:02:11.416    9.042492362    7.399421676   457.9184   4   0   0.0279   0.0307   0.0995   0.0117   0.0163   0.0284   0.42    0.0
2022/11/10 11:02:12.416    9.042492373    7.399421666   457.9184   4   0   0.0279   0.0307   0.0995   0.0117   0.0163   0.0284   0.42    0.0
2022/11/10 11:02:13.416    9.042493793    7.399423729   458.8360   4   0   0.0283   0.0312   0.1013   0.0118   0.0166   0.0289   0.42    0.0
2022/11/10 11:02:14.416    9.042492405    7.399421647   457.9128   4   0   0.0279   0.0307   0.0995   0.0117   0.0163   0.0284   0.42    0.0
2022/11/10 11:02:16.416    9.042492383    7.399421638   457.9113   4   0   0.0279   0.0307   0.0995   0.0117   0.0163   0.0284   0.42    0.0
2022/11/10 11:02:18.416    9.042492388    7.399421605   457.8943   4   0   0.0279   0.0307   0.0995   0.0117   0.0163   0.0284   0.42    0.0
2022/11/10 11:02:20.416    9.042492384    7.399421571   457.9041   4   0   0.0279   0.0307   0.0995   0.0117   0.0163   0.0284   0.42    0.0
2022/11/10 11:02:21.416    9.042492331    7.399421585   457.8901   4   0   0.0279   0.0307   0.0995   0.0117   0.0163   0.0284   0.42    0.0
2022/11/10 11:02:22.416    9.042492302    7.399421578   457.8851   4   0   0.0279   0.0307   0.0995   0.0117   0.0163   0.0284   0.42    0.0
2022/11/10 11:02:23.416    9.042492335    7.399421584   457.8971   4   0   0.0279   0.0307   0.0995   0.0117   0.0163   0.0284   0.42    0.0
2022/11/10 11:02:24.416    9.042492338    7.399421568   457.9042   4   0   0.0279   0.0307   0.0995   0.0117   0.0163   0.0284   0.42    0.0
2022/11/10 11:02:25.416    9.042492321    7.399421563   457.8920   4   0   0.0279   0.0307   0.0995   0.0117   0.0163   0.0284   0.42    0.0
2022/11/10 11:02:26.416    9.042492327    7.399421558   457.9105   4   0   0.0279   0.0307   0.0995   0.0117   0.0163   0.0284   0.42    0.0
2022/11/10 11:02:27.416    9.042492311    7.399421550   457.8979   4   0   0.0279   0.0307   0.0995   0.0117   0.0163   0.0284   0.42    0.0
2022/11/10 11:02:28.416    9.042492332    7.399421545   457.9097   4   0   0.0279   0.0307   0.0995   0.0117   0.0163   0.0284   0.42    0.0
2022/11/10 11:02:29.416    9.042492328    7.399421559   457.9020   4   0   0.0279   0.0307   0.0995   0.0117   0.0163   0.0284   0.42    0.0
2022/11/10 11:02:30.416    9.042492321    7.399421554   457.8981   4   0   0.0279   0.0307   0.0995   0.0117   0.0163   0.0284   0.42    0.0
2022/11/10 11:02:31.416    9.042492337    7.399421548   457.8991   4   0   0.0279   0.0307   0.0995   0.0117   0.0163   0.0284   0.42    0.0
2022/11/10 11:02:32.416    9.042492324    7.399421562   457.8933   4   0   0.0279   0.0307   0.0995   0.0117   0.0163   0.0284   0.42    0.0
2022/11/10 11:02:33.416    9.042492322    7.399421555   457.8915   4   0   0.0279   0.0307   0.0995   0.0117   0.0163   0.0284   0.42    0.0
2022/11/10 11:02:34.416    9.042492307    7.399421579   457.8769   4   0   0.0279   0.0307   0.0995   0.0117   0.0163   0.0284   0.42    0.0
2022/11/10 11:02:35.416    9.042492313    7.399421579   457.8856   4   0   0.0279   0.0307   0.0995   0.0117   0.0163   0.0284   0.42    0.0
2022/11/10 11:02:36.416    9.042492262    7.399421586   457.8666   4   0   0.0279   0.0307   0.0995   0.0117   0.0163   0.0284   0.42    0.0
2022/11/10 11:02:37.416    9.042492280    7.399421582   457.8680   4   0   0.0279   0.0307   0.0995   0.0117   0.0163   0.0284   0.42    0.0
2022/11/10 11:02:38.416    9.042492305    7.399421576   457.8807   4   0   0.0279   0.0307   0.0995   0.0117   0.0163   0.0284   0.42    0.0
2022/11/10 11:02:39.416    9.042492277    7.399421587   457.8688   4   0   0.0279   0.0307   0.0995   0.0117   0.0163   0.0284   0.42    0.0
2022/11/10 11:02:40.416    9.042492289    7.399421581   457.8771   4   0   0.0279   0.0307   0.0995   0.0117   0.0163   0.0284   0.42    0.0
2022/11/10 11:02:41.416    9.042492300    7.399421571   457.8805   4   0   0.0279   0.0307   0.0995   0.0117   0.0163   0.0284   0.42    0.0
2022/11/10 11:02:42.416    9.042492291    7.399421578   457.8797   4   0   0.0279   0.0307   0.0995   0.0117   0.0163   0.0284   0.42    0.0
2022/11/10 11:02:43.416    9.042492272    7.399421594   457.8677   4   0   0.0279   0.0307   0.0995   0.0117   0.0163   0.0284   0.42    0.0
2022/11/10 11:02:44.416    9.042492268    7.399421591   457.8750   4   0   0.0279   0.0307   0.0995   0.0117   0.0163   0.0284   0.42    0.0
2022/11/10 11:02:45.416    9.042492242    7.399421597   457.8722   4   0   0.0279   0.0307   0.0995   0.0117   0.0163   0.0284   0.42    0.0
2022/11/10 11:02:46.416    9.042492241    7.399421603   457.8684   4   0   0.0279   0.0307   0.0995   0.0117   0.0163   0.0284   0.42    0.0
2022/11/10 11:02:47.416    9.042492240    7.399421583   457.8687   4   0   0.0279   0.0307   0.0995   0.0117   0.0163   0.0284   0.42    0.0
2022/11/10 11:02:48.416    9.042492217    7.399421584   457.8647   4   0   0.0279   0.0307   0.0995   0.0117   0.0163   0.0285   0.42    0.0
2022/11/10 11:02:49.416    9.042492192    7.399421592   457.8607   4   0   0.0279   0.0307   0.0995   0.0117   0.0163   0.0285   0.42    0.0
2022/11/10 11:02:50.416    9.042492197    7.399421600   457.8624   4   0   0.0279   0.0307   0.0995   0.0117   0.0163   0.0285   0.42    0.0
2022/11/10 11:02:51.416    9.042492193    7.399421599   457.8581   4   0   0.0279   0.0307   0.0995   0.0117   0.0163   0.0285   0.42    0.0
2022/11/10 11:02:52.416    9.042492201    7.399421596   457.8573   4   0   0.0279   0.0307   0.0995   0.0117   0.0163   0.0285   0.42    0.0
2022/11/10 11:02:53.416    9.042492194    7.399421588   457.8541   4   0   0.0279   0.0307   0.0995   0.0117   0.0163   0.0285   0.42    0.0
2022/11/10 11:02:54.416    9.042492206    7.399421582   457.8601   4   0   0.0279   0.0307   0.0995   0.0117   0.0163   0.0285   0.42    0.0
2022/11/10 11:02:55.416    9.042492198    7.399421598   457.8549   4   0   0.0279   0.0307   0.0995   0.0117   0.0163   0.0285   0.42    0.0
2022/11/10 11:02:56.416    9.042492203    7.399421598   457.8528   4   0   0.0279   0.0307   0.0995   0.0117   0.0163   0.0285   0.42    0.0
2022/11/10 11:02:57.416    9.042492192    7.399421587   457.8554   4   0   0.0279   0.0307   0.0995   0.0117   0.0163   0.0285   0.42    0.0
2022/11/10 11:02:58.416    9.042492186    7.399421582   457.8508   4   0   0.0279   0.0307   0.0995   0.0117   0.0163   0.0285   0.42    0.0
2022/11/10 11:02:59.416    9.042492192    7.399421590   457.8557   4   0   0.0279   0.0307   0.0995   0.0117   0.0163   0.0285   0.42    0.0
2022/11/10 11:03:00.416    9.042492193    7.399421594   457.8550   4   0   0.0279   0.0307   0.0995   0.0117   0.0163   0.0285   0.42    0.0
2022/11/10 11:03:01.416    9.042492201    7.399421592   457.8614   4   0   0.0279   0.0307   0.0995   0.0117   0.0163   0.0285   0.42    0.0
2022/11/10 11:03:02.416    9.042492207    7.399421595   457.8617   4   0   0.0279   0.0307   0.0995   0.0117   0.0163   0.0285   0.42    0.0
2022/11/10 11:03:03.416    9.042492196    7.399421583   457.8672   4   0   0.0279   0.0307   0.0995   0.0117   0.0163   0.0285   0.42    0.0
2022/11/10 11:03:04.416    9.042492186    7.399421598   457.8571   4   0   0.0279   0.0307   0.0995   0.0117   0.0163   0.0285   0.42    0.0
2022/11/10 11:03:05.416    9.042492197    7.399421595   457.8602   4   0   0.0279   0.0307   0.0995   0.0117   0.0163   0.0285   0.42    0.0
2022/11/10 11:03:06.416    9.042492199    7.399421600   457.8619   4   0   0.0279   0.0307   0.0995   0.0117   0.0163   0.0285   0.42    0.0
2022/11/10 11:03:07.416    9.042492208    7.399421603   457.8632   4   0   0.0279   0.0307   0.0995   0.0117   0.0163   0.0285   0.42    0.0
2022/11/10 11:03:08.416    9.042492215    7.399421596   457.8700   4   0   0.0279   0.0307   0.0995   0.0117   0.0163   0.0285   0.42    0.0
2022/11/10 11:03:09.416    9.042492199    7.399421595   457.8652   4   0   0.0279   0.0307   0.0995   0.0117   0.0163   0.0285   0.42    0.0
2022/11/10 11:03:10.416    9.042492195    7.399421592   457.8651   4   0   0.0279   0.0307   0.0995   0.0117   0.0163   0.0285   0.42    0.0
2022/11/10 11:03:11.416    9.042492202    7.399421590   457.8671   4   0   0.0279   0.0307   0.0995   0.0117   0.0163   0.0285   0.42    0.0
2022/11/10 11:03:12.416    9.042492207    7.399421589   457.8692   4   0   0.0279   0.0307   0.0995   0.0117   0.0163   0.0285   0.42    0.0
2022/11/10 11:03:13.416    9.042492198    7.399421599   457.8673   4   0   0.0279   0.0307   0.0995   0.0117   0.0163   0.0285   0.42    0.0
2022/11/10 11:03:14.416    9.042492197    7.399421591   457.8669   4   0   0.0279   0.0307   0.0995   0.0117   0.0163   0.0285   0.42    0.0
2022/11/10 11:03:15.416    9.042492191    7.399421586   457.8655   4   0   0.0279   0.0307   0.0995   0.0117   0.0163   0.0285   0.42    0.0
2022/11/10 11:03:16.416    9.042492211    7.399421585   457.8683   4   0   0.0279   0.0307   0.0995   0.0117   0.0163   0.0285   0.42    0.0
2022/11/10 11:03:17.416    9.042492209    7.399421584   457.8684   4   0   0.0279   0.0307   0.0995   0.0117   0.0163   0.0285   0.42    0.0
2022/11/10 11:03:18.416    9.042492209    7.399421593   457.8655   4   0   0.0279   0.0307   0.0995   0.0117   0.0163   0.0285   0.42    0.0
2022/11/10 11:03:19.416    9.042492202    7.399421586   457.8694   4   0   0.0279   0.0307   0.0995   0.0117   0.0163   0.0285   0.42    0.0
2022/11/10 11:03:20.416    9.042492190    7.399421589   457.8642   4   0   0.0279   0.0307   0.0995   0.0117   0.0163   0.0285   0.42    0.0
2022/11/10 11:03:21.416    9.042492184    7.399421588   457.8585   4   0   0.0279   0.0307   0.0995   0.0117   0.0163   0.0285   0.42    0.0
2022/11/10 11:03:22.416    9.042492182    7.399421594   457.8596   4   0   0.0279   0.0307   0.0995   0.0117   0.0163   0.0285   0.42    0.0
2022/11/10 11:03:23.416    9.042492173    7.399421595   457.8579   4   0   0.0279   0.0307   0.0995   0.0117   0.0163   0.0285   0.42    0.0
2022/11/10 11:03:24.416    9.042492171    7.399421594   457.8552   4   0   0.0279   0.0307   0.0995   0.0117   0.0163   0.0285   0.42    0.0
2022/11/10 11:03:25.416    9.042492170    7.399421596   457.8538   4   0   0.0279   0.0307   0.0995   0.0117   0.0163   0.0285   0.42    0.0
2022/11/10 11:03:26.416    9.042492167    7.399421616   457.8484   4   0   0.0279   0.0307   0.0995   0.0117   0.0163   0.0285   0.42    0.0
2022/11/10 11:03:27.416    9.042492182    7.399421599   457.8575   4   0   0.0279   0.0307   0.0995   0.0117   0.0163   0.0285   0.42    0.0
2022/11/10 11:03:28.416    9.042492170    7.399421606   457.8532   4   0   0.0279   0.0307   0.0995   0.0117   0.0163   0.0285   0.42    0.0
2022/11/10 11:03:29.416    9.042492200    7.399421598   457.8666   4   0   0.0279   0.0307   0.0995   0.0117   0.0163   0.0285   0.42    0.0
2022/11/10 11:03:30.416    9.042492192    7.399421596   457.8649   4   0   0.0279   0.0307   0.0995   0.0117   0.0163   0.0285   0.42    0.0
2022/11/10 11:03:31.416    9.042492184    7.399421603   457.8606   4   0   0.0279   0.0307   0.0995   0.0117   0.0163   0.0285   0.42    0.0
2022/11/10 11:03:32.416    9.042492198    7.399421581   457.8652   4   0   0.0279   0.0307   0.0995   0.0117   0.0163   0.0285   0.42    0.0
2022/11/10 11:03:33.416    9.042492196    7.399421592   457.8661   4   0   0.0279   0.0307   0.0995   0.0117   0.0163   0.0285   0.42    0.0
2022/11/10 11:03:34.416    9.042492187    7.399421584   457.8667   4   0   0.0279   0.0307   0.0995   0.0117   0.0163   0.0285   0.42    0.0
2022/11/10 11:03:35.416    9.042492174    7.399421589   457.8610   4   0   0.0279   0.0307   0.0995   0.0117   0.0163   0.0285   0.42    0.0
2022/11/10 11:03:36.416    9.042492176    7.399421596   457.8606   4   0   0.0279   0.0307   0.0995   0.0117   0.0163   0.0285   0.42    0.0
2022/11/10 11:03:37.416    9.042492186    7.399421584   457.8656   4   0   0.0279   0.0307   0.0995   0.0117   0.0163   0.0285   0.42    0.0
2022/11/10 11:03:38.416    9.042492176    7.399421580   457.8632   4   0   0.0279   0.0307   0.0995   0.0117   0.0163   0.0285   0.42    0.0
2022/11/10 11:03:39.416    9.042492195    7.399421585   457.8657   4   0   0.0279   0.0307   0.0995   0.0117   0.0163   0.0285   0.42    0.0
2022/11/10 11:03:40.416    9.042492163    7.399421575   457.8528   4   0   0.0279   0.0307   0.0995   0.0117   0.0163   0.0285   0.42    0.0
2022/11/10 11:03:41.416    9.042492169    7.399421596   457.8513   4   0   0.0279   0.0307   0.0995   0.0117   0.0163   0.0285   0.42    0.0
2022/11/10 11:03:42.416    9.042492187    7.399421595   457.8567   4   0   0.0279   0.0307   0.0995   0.0117   0.0163   0.0285   0.42    0.0
2022/11/10 11:03:43.416    9.042492167    7.399421587   457.8523   4   0   0.0279   0.0307   0.0995   0.0117   0.0163   0.0285   0.42    0.0
2022/11/10 11:03:44.416    9.042492180    7.399421589   457.8544   4   0   0.0279   0.0307   0.0995   0.0117   0.0163   0.0285   0.42    0.0
2022/11/10 11:03:45.416    9.042492173    7.399421586   457.8484   4   0   0.0279   0.0307   0.0995   0.0117   0.0163   0.0285   0.42    0.0
2022/11/10 11:03:46.416    9.042492159    7.399421597   457.8395   4   0   0.0279   0.0307   0.0995   0.0117   0.0163   0.0285   0.42    0.0
2022/11/10 11:03:47.416    9.042492153    7.399421601   457.8427   4   0   0.0279   0.0307   0.0995   0.0117   0.0163   0.0285   0.42    0.0
2022/11/10 11:03:48.416    9.042492159    7.399421596   457.8389   4   0   0.0279   0.0307   0.0995   0.0117   0.0163   0.0285   0.42    0.0
2022/11/10 11:03:49.416    9.042492170    7.399421597   457.8467   4   0   0.0279   0.0307   0.0995   0.0117   0.0163   0.0285   0.42    0.0
2022/11/10 11:03:50.416    9.042492161    7.399421598   457.8420   4   0   0.0279   0.0307   0.0995   0.0117   0.0163   0.0285   0.42    0.0
2022/11/10 11:03:51.416    9.042492157    7.399421591   457.8405   4   0   0.0279   0.0307   0.0995   0.0117   0.0163   0.0285   0.42    0.0
2022/11/10 11:03:52.416    9.042492154    7.399421597   457.8381   4   0   0.0279   0.0307   0.0995   0.0117   0.0163   0.0285   0.42    0.0
2022/11/10 11:03:53.416    9.042492156    7.399421606   457.8412   4   0   0.0279   0.0307   0.0995   0.0117   0.0163   0.0285   0.42    0.0
2022/11/10 11:03:54.416    9.042492135    7.399421592   457.8367   4   0   0.0279   0.0307   0.0995   0.0117   0.0163   0.0285   0.42    0.0
2022/11/10 11:03:55.416    9.042492150    7.399421593   457.8397   4   0   0.0279   0.0307   0.0995   0.0117   0.0163   0.0285   0.42    0.0
2022/11/10 11:03:56.416    9.042492155    7.399421578   457.8440   4   0   0.0279   0.0307   0.0995   0.0117   0.0163   0.0285   0.42    0.0
2022/11/10 11:03:57.416    9.042492162    7.399421600   457.8480   4   0   0.0279   0.0307   0.0995   0.0117   0.0163   0.0285   0.42    0.0
2022/11/10 11:03:58.416    9.042492171    7.399421585   457.8493   4   0   0.0279   0.0307   0.0995   0.0117   0.0163   0.0285   0.42    0.0
2022/11/10 11:03:59.416    9.042492163    7.399421582   457.8471   4   0   0.0279   0.0307   0.0995   0.0117   0.0163   0.0285   0.42    0.0
2022/11/10 11:04:00.416    9.042492162    7.399421601   457.8458   4   0   0.0279   0.0307   0.0995   0.0117   0.0163   0.0285   0.42    0.0
2022/11/10 11:04:01.416    9.042492171    7.399421604   457.8433   4   0   0.0279   0.0307   0.0995   0.0117   0.0163   0.0285   0.42    0.0
2022/11/10 11:04:02.416    9.042492154    7.399421594   457.8389   4   0   0.0279   0.0307   0.0995   0.0117   0.0163   0.0285   0.42    0.0
2022/11/10 11:04:03.416    9.042492150    7.399421562   457.8462   4   0   0.0279   0.0307   0.0995   0.0117   0.0163   0.0285   0.42    0.0
2022/11/10 11:04:04.416    9.042492167    7.399421575   457.8483   4   0   0.0279   0.0307   0.0995   0.0117   0.0163   0.0285   0.42    0.0
2022/11/10 11:04:05.416    9.042492142    7.399421587   457.8401   4   0   0.0279   0.0307   0.0995   0.0117   0.0163   0.0285   0.42    0.0
2022/11/10 11:04:06.416    9.042492155    7.399421575   457.8458   4   0   0.0279   0.0307   0.0995   0.0117   0.0163   0.0285   0.42    0.0
2022/11/10 11:04:07.416    9.042492152    7.399421574   457.8478   4   0   0.0279   0.0307   0.0995   0.0117   0.0163   0.0285   0.42    0.0
2022/11/10 11:04:08.416    9.042492149    7.399421591   457.8437   4   0   0.0279   0.0307   0.0995   0.0117   0.0163   0.0285   0.42    0.0
2022/11/10 11:04:09.416    9.042492150    7.399421584   457.8464   4   0   0.0279   0.0307   0.0995   0.0117   0.0163   0.0285   0.42    0.0
2022/11/10 11:04:10.416    9.042492164    7.399421588   457.8504   4   0   0.0279   0.0307   0.0995   0.0117   0.0163   0.0285   0.42    0.0
2022/11/10 11:04:11.416    9.042492155    7.399421599   457.8440   4   0   0.0279   0.0307   0.0995   0.0117   0.0163   0.0285   0.42    0.0
2022/11/10 11:04:12.416    9.042492150    7.399421605   457.8424   4   0   0.0279   0.0307   0.0995   0.0117   0.0163   0.0285   0.42    0.0
2022/11/10 11:04:13.416    9.042492137    7.399421593   457.8400   4   0   0.0279   0.0307   0.0995   0.0117   0.0163   0.0285   0.42    0.0
2022/11/10 11:04:14.416    9.042492141    7.399421592   457.8428   4   0   0.0279   0.0307   0.0995   0.0117   0.0163   0.0285   0.42    0.0
2022/11/10 11:04:15.416    9.042492127    7.399421589   457.8403   4   0   0.0279   0.0307   0.0995   0.0117   0.0163   0.0285   0.42    0.0
2022/11/10 11:04:16.416    9.042492101    7.399421593   457.8278   4   0   0.0279   0.0307   0.0995   0.0117   0.0163   0.0285   0.42    0.0
2022/11/10 11:04:17.416    9.042492113    7.399421601   457.8317   4   0   0.0279   0.0307   0.0995   0.0117   0.0163   0.0285   0.42    0.0
2022/11/10 11:04:18.416    9.042492096    7.399421598   457.8250   4   0   0.0279   0.0307   0.0995   0.0117   0.0163   0.0285   0.42    0.0
2022/11/10 11:04:19.416    9.042492123    7.399421601   457.8351   4   0   0.0279   0.0307   0.0995   0.0117   0.0163   0.0285   0.42    0.0
2022/11/10 11:04:20.416    9.042492122    7.399421597   457.8357   4   0   0.0279   0.0307   0.0995   0.0117   0.0163   0.0285   0.42    0.0
2022/11/10 11:04:21.416    9.042492118    7.399421603   457.8319   4   0   0.0279   0.0307   0.0995   0.0117   0.0163   0.0285   0.42    0.0
2022/11/10 11:04:22.416    9.042492101    7.399421604   457.8296   4   0   0.0279   0.0307   0.0995   0.0117   0.0163   0.0285   0.42    0.0
2022/11/10 11:04:23.416    9.042492110    7.399421594   457.8365   4   0   0.0279   0.0307   0.0995   0.0117   0.0163   0.0285   0.42    0.0
2022/11/10 11:04:24.416    9.042492096    7.399421591   457.8299   4   0   0.0279   0.0307   0.0995   0.0117   0.0163   0.0285   0.42    0.0
2022/11/10 11:04:25.416    9.042492107    7.399421593   457.8349   4   0   0.0279   0.0307   0.0995   0.0117   0.0163   0.0285   0.42    0.0
2022/11/10 11:04:26.416    9.042492111    7.399421591   457.8395   4   0   0.0279   0.0307   0.0995   0.0117   0.0163   0.0285   0.42    0.0
2022/11/10 11:04:27.416    9.042492106    7.399421586   457.8414   4   0   0.0279   0.0307   0.0995   0.0117   0.0163   0.0285   0.42    0.0
2022/11/10 11:04:28.416    9.042492108    7.399421588   457.8418   4   0   0.0279   0.0307   0.0995   0.0117   0.0163   0.0285   0.42    0.0
2022/11/10 11:04:29.416    9.042492118    7.399421597   457.8437   4   0   0.0279   0.0307   0.0995   0.0117   0.0163   0.0285   0.42    0.0
2022/11/10 11:04:30.416    9.042492107    7.399421588   457.8389   4   0   0.0279   0.0307   0.0995   0.0117   0.0163   0.0285   0.42    0.0
2022/11/10 11:04:31.416    9.042492113    7.399421598   457.8349   4   0   0.0279   0.0307   0.0995   0.0117   0.0163   0.0285   0.42    0.0
2022/11/10 11:04:32.416    9.042492114    7.399421590   457.8365   4   0   0.0279   0.0307   0.0995   0.0117   0.0163   0.0285   0.42    0.0
2022/11/10 11:04:33.416    9.042492111    7.399421589   457.8352   4   0   0.0279   0.0307   0.0995   0.0117   0.0163   0.0285   0.42    0.0
2022/11/10 11:04:34.416    9.042492104    7.399421599   457.8311   4   0   0.0279   0.0307   0.0995   0.0117   0.0163   0.0285   0.42    0.0
2022/11/10 11:04:35.416    9.042492101    7.399421592   457.8320   4   0   0.0279   0.0307   0.0995   0.0117   0.0163   0.0285   0.42    0.0
2022/11/10 11:04:36.416    9.042492100    7.399421598   457.8319   4   0   0.0279   0.0307   0.0995   0.0117   0.0163   0.0285   0.42    0.0
2022/11/10 11:04:37.416    9.042492103    7.399421597   457.8333   4   0   0.0279   0.0307   0.0995   0.0117   0.0163   0.0285   0.42    0.0
2022/11/10 11:04:38.416    9.042492102    7.399421588   457.8321   4   0   0.0279   0.0307   0.0995   0.0117   0.0163   0.0285   0.42    0.0
2022/11/10 11:04:39.416    9.042492089    7.399421611   457.8260   4   0   0.0279   0.0307   0.0995   0.0117   0.0163   0.0285   0.42    0.0
2022/11/10 11:04:40.416    9.042492085    7.399421604   457.8244   4   0   0.0279   0.0307   0.0995   0.0117   0.0163   0.0285   0.42    0.0
2022/11/10 11:04:41.416    9.042492082    7.399421609   457.8232   4   0   0.0279   0.0307   0.0995   0.0117   0.0163   0.0285   0.42    0.0
2022/11/10 11:04:42.416    9.042492074    7.399421614   457.8201   4   0   0.0279   0.0307   0.0995   0.0117   0.0163   0.0285   0.42    0.0
2022/11/10 11:04:43.416    9.042492067    7.399421604   457.8217   4   0   0.0279   0.0307   0.0995   0.0117   0.0163   0.0285   0.42    0.0
2022/11/10 11:04:44.416    9.042492071    7.399421603   457.8230   4   0   0.0279   0.0307   0.0995   0.0117   0.0163   0.0285   0.42    0.0
2022/11/10 11:04:45.416    9.042492069    7.399421616   457.8192   4   0   0.0279   0.0307   0.0995   0.0117   0.0163   0.0285   0.42    0.0
2022/11/10 11:04:46.416    9.042492085    7.399421596   457.8270   4   0   0.0279   0.0307   0.0995   0.0117   0.0163   0.0285   0.42    0.0
2022/11/10 11:04:47.416    9.042492078    7.399421604   457.8262   4   0   0.0279   0.0307   0.0995   0.0117   0.0163   0.0285   0.42    0.0
2022/11/10 11:04:48.416    9.042492081    7.399421612   457.8242   4   0   0.0279   0.0307   0.0995   0.0117   0.0163   0.0285   0.42    0.0
2022/11/10 11:04:49.416    9.042492076    7.399421610   457.8297   4   0   0.0279   0.0307   0.0995   0.0117   0.0163   0.0285   0.42    0.0
2022/11/10 11:04:50.416    9.042492054    7.399421614   457.8225   4   0   0.0279   0.0307   0.0995   0.0117   0.0163   0.0285   0.42    0.0
2022/11/10 11:04:51.416    9.042492067    7.399421605   457.8261   4   0   0.0279   0.0307   0.0995   0.0117   0.0163   0.0285   0.42    0.0
2022/11/10 11:04:52.416    9.042492074    7.399421598   457.8331   4   0   0.0279   0.0307   0.0995   0.0117   0.0163   0.0285   0.42    0.0
2022/11/10 11:04:53.416    9.042492073    7.399421584   457.8266   4   0   0.0279   0.0307   0.0995   0.0117   0.0163   0.0285   0.42    0.0
2022/11/10 11:04:54.416    9.042492063    7.399421579   457.8265   4   0   0.0279   0.0307   0.0995   0.0117   0.0163   0.0285   0.42    0.0
2022/11/10 11:04:55.416    9.042492067    7.399421590   457.8190   4   0   0.0279   0.0307   0.0995   0.0117   0.0163   0.0285   0.42    0.0
2022/11/10 11:04:56.416    9.042492086    7.399421605   457.8266   4   0   0.0279   0.0307   0.0995   0.0117   0.0163   0.0285   0.42    0.0
2022/11/10 11:04:57.416    9.042492066    7.399421599   457.8174   4   0   0.0279   0.0307   0.0995   0.0117   0.0163   0.0285   0.42    0.0
2022/11/10 11:04:58.416    9.042492082    7.399421599   457.8219   4   0   0.0279   0.0307   0.0995   0.0117   0.0163   0.0285   0.42    0.0
2022/11/10 11:04:59.416    9.042492055    7.399421594   457.8134   4   0   0.0279   0.0307   0.0995   0.0117   0.0163   0.0285   0.42    0.0
2022/11/10 11:05:00.416    9.042492062    7.399421600   457.8152   4   0   0.0279   0.0307   0.0995   0.0117   0.0163   0.0285   0.42    0.0
2022/11/10 11:05:01.416    9.042492070    7.399421561   457.8195   4   0   0.0279   0.0307   0.0995   0.0117   0.0163   0.0285   0.42    0.0
2022/11/10 11:05:02.416    9.042492066    7.399421579   457.8158   4   0   0.0279   0.0307   0.0995   0.0117   0.0163   0.0285   0.42    0.0
2022/11/10 11:05:03.416    9.042492068    7.399421577   457.8138   4   0   0.0279   0.0307   0.0995   0.0117   0.0163   0.0285   0.42    0.0
2022/11/10 11:05:04.416    9.042492065    7.399421551   457.8190   4   0   0.0279   0.0307   0.0995   0.0117   0.0163   0.0285   0.42    0.0
2022/11/10 11:05:05.416    9.042492069    7.399421557   457.8173   4   0   0.0279   0.0307   0.0995   0.0117   0.0163   0.0285   0.42    0.0
2022/11/10 11:05:06.416    9.042492040    7.399421552   457.8121   4   0   0.0279   0.0307   0.0995   0.0117   0.0163   0.0285   0.42    0.0
2022/11/10 11:05:07.416    9.042492060    7.399421536   457.8219   4   0   0.0279   0.0307   0.0995   0.0117   0.0163   0.0285   0.42    0.0
2022/11/10 11:05:08.416    9.042492038    7.399421542   457.8162   4   0   0.0279   0.0307   0.0995   0.0117   0.0163   0.0285   0.42    0.0
2022/11/10 11:05:09.416    9.042492057    7.399421527   457.8215   4   0   0.0279   0.0307   0.0995   0.0117   0.0163   0.0285   0.42    0.0
2022/11/10 11:05:10.416    9.042492061    7.399421529   457.8263   4   0   0.0279   0.0307   0.0995   0.0117   0.0163   0.0285   0.42    0.0
2022/11/10 11:05:11.416    9.042492064    7.399421543   457.8237   4   0   0.0279   0.0307   0.0995   0.0117   0.0163   0.0285   0.42    0.0
2022/11/10 11:05:12.416    9.042492062    7.399421542   457.8212   4   0   0.0279   0.0307   0.0995   0.0117   0.0163   0.0285   0.42    0.0
2022/11/10 11:05:13.416    9.042492056    7.399421540   457.8187   4   0   0.0279   0.0307   0.0995   0.0117   0.0163   0.0285   0.42    0.0
2022/11/10 11:05:14.416    9.042492070    7.399421553   457.8190   4   0   0.0279   0.0307   0.0995   0.0117   0.0163   0.0285   0.42    0.0
2022/11/10 11:05:15.416    9.042492068    7.399421553   457.8157   4   0   0.0279   0.0307   0.0995   0.0117   0.0163   0.0285   0.42    0.0
2022/11/10 11:05:16.416    9.042492055    7.399421553   457.8139   4   0   0.0279   0.0307   0.0995   0.0117   0.0163   0.0285   0.42    0.0
2022/11/10 11:05:17.416    9.042492061    7.399421558   457.8182   4   0   0.0279   0.0307   0.0995   0.0117   0.0163   0.0285   0.42    0.0
2022/11/10 11:05:18.416    9.042492058    7.399421548   457.8224   4   0   0.0279   0.0307   0.0995   0.0117   0.0163   0.0285   0.42    0.0
2022/11/10 11:05:19.416    9.042492063    7.399421551   457.8164   4   0   0.0279   0.0307   0.0995   0.0117   0.0163   0.0285   0.42    0.0
2022/11/10 11:05:20.416    9.042492034    7.399421543   457.8162   4   0   0.0279   0.0307   0.0995   0.0117   0.0163   0.0285   0.42    0.0
2022/11/10 11:05:21.416    9.042492047    7.399421543   457.8202   4   0   0.0279   0.0307   0.0995   0.0117   0.0163   0.0285   0.42    0.0
2022/11/10 11:05:22.416    9.042492062    7.399421539   457.8181   4   0   0.0279   0.0307   0.0995   0.0117   0.0163   0.0285   0.42    0.0
2022/11/10 11:05:23.416    9.042492053    7.399421553   457.8148   4   0   0.0279   0.0307   0.0995   0.0117   0.0163   0.0285   0.42    0.0
2022/11/10 11:05:24.416    9.042492056    7.399421552   457.8131   4   0   0.0279   0.0307   0.0995   0.0117   0.0163   0.0285   0.42    0.0
2022/11/10 11:05:25.416    9.042492066    7.399421537   457.8189   4   0   0.0279   0.0307   0.0995   0.0117   0.0163   0.0285   0.42    0.0
2022/11/10 11:05:26.416    9.042492058    7.399421544   457.8143   4   0   0.0279   0.0307   0.0995   0.0117   0.0163   0.0285   0.42    0.0
2022/11/10 11:05:27.416    9.042492043    7.399421549   457.8075   4   0   0.0279   0.0307   0.0995   0.0117   0.0163   0.0285   0.42    0.0
2022/11/10 11:05:28.416    9.042492073    7.399421530   457.8124   4   0   0.0279   0.0307   0.0995   0.0117   0.0163   0.0285   0.42    0.0
2022/11/10 11:05:29.416    9.042492065    7.399421541   457.8070   4   0   0.0279   0.0307   0.0995   0.0117   0.0163   0.0285   0.42    0.0
2022/11/10 11:05:30.416    9.042492049    7.399421523   457.8094   4   0   0.0279   0.0307   0.0995   0.0117   0.0163   0.0285   0.42    0.0
2022/11/10 11:05:31.416    9.042492037    7.399421519   457.8076   4   0   0.0279   0.0307   0.0995   0.0117   0.0163   0.0285   0.42    0.0
2022/11/10 11:05:32.416    9.042492038    7.399421525   457.8028   4   0   0.0279   0.0307   0.0995   0.0117   0.0163   0.0285   0.42    0.0
2022/11/10 11:05:33.416    9.042492013    7.399421519   457.7919   4   0   0.0279   0.0307   0.0995   0.0117   0.0163   0.0285   0.42    0.0
2022/11/10 11:05:34.416    9.042492004    7.399421504   457.7966   4   0   0.0279   0.0307   0.0995   0.0117   0.0163   0.0285   0.42    0.0
2022/11/10 11:05:35.416    9.042492005    7.399421517   457.7914   4   0   0.0279   0.0307   0.0995   0.0117   0.0163   0.0285   0.42    0.0
2022/11/10 11:05:36.416    9.042492003    7.399421491   457.7929   4   0   0.0279   0.0307   0.0995   0.0117   0.0163   0.0285   0.42    0.0
2022/11/10 11:05:37.416    9.042492000    7.399421496   457.8028   4   0   0.0279   0.0307   0.0995   0.0117   0.0163   0.0285   0.42    0.0
2022/11/10 11:05:38.416    9.042492024    7.399421513   457.8076   4   0   0.0279   0.0307   0.0995   0.0117   0.0163   0.0285   0.42    0.0
2022/11/10 11:05:39.416    9.042492021    7.399421504   457.8042   4   0   0.0279   0.0307   0.0995   0.0117   0.0163   0.0285   0.42    0.0
2022/11/10 11:05:40.416    9.042492001    7.399421513   457.8018   4   0   0.0279   0.0307   0.0995   0.0117   0.0163   0.0285   0.42    0.0
2022/11/10 11:05:41.416    9.042492003    7.399421483   457.8049   4   0   0.0279   0.0307   0.0995   0.0117   0.0163   0.0285   0.42    0.0
2022/11/10 11:05:42.416    9.042491990    7.399421524   457.7991   4   0   0.0279   0.0307   0.0995   0.0117   0.0163   0.0285   0.42    0.0
2022/11/10 11:05:43.416    9.042492004    7.399421512   457.8014   4   0   0.0279   0.0307   0.0995   0.0117   0.0163   0.0285   0.42    0.0
2022/11/10 11:05:44.416    9.042492029    7.399421484   457.8087   4   0   0.0279   0.0307   0.0995   0.0117   0.0163   0.0285   0.42    0.0
2022/11/10 11:05:45.416    9.042494154    7.399424682   459.1908   4   0   0.0291   0.0319   0.1051   0.0118   0.0164   0.0305   0.42    0.0
2022/11/10 11:05:50.416    9.042494124    7.399424689   459.1700   4   0   0.0291   0.0319   0.1052   0.0118   0.0164   0.0305   0.42    0.0
2022/11/10 11:05:51.416    9.042491976    7.399421494   457.7649   4   0   0.0279   0.0307   0.0996   0.0117   0.0163   0.0285   0.42    0.0
2022/11/10 11:05:52.416    9.042491962    7.399421488   457.7574   4   0   0.0279   0.0307   0.0996   0.0117   0.0163   0.0285   0.42    0.0
2022/11/10 11:05:53.416    9.042491969    7.399421480   457.7650   4   0   0.0279   0.0307   0.0996   0.0117   0.0163   0.0285   0.42    0.0
2022/11/10 11:05:54.416    9.042491970    7.399421476   457.7627   4   0   0.0279   0.0307   0.0996   0.0117   0.0163   0.0285   0.42    0.0
2022/11/10 11:05:55.416    9.042491952    7.399421477   457.7521   4   0   0.0279   0.0307   0.0996   0.0117   0.0163   0.0285   0.42    0.0
2022/11/10 11:05:56.416    9.042491939    7.399421483   457.7477   4   0   0.0279   0.0307   0.0996   0.0117   0.0163   0.0285   0.42    0.0
2022/11/10 11:05:57.416    9.042491936    7.399421484   457.7423   4   0   0.0279   0.0307   0.0996   0.0117   0.0163   0.0285   0.42    0.0
2022/11/10 11:05:58.416    9.042491927    7.399421491   457.7413   4   0   0.0279   0.0307   0.0996   0.0117   0.0163   0.0285   0.42    0.0
2022/11/10 11:05:59.416    9.042491922    7.399421484   457.7406   4   0   0.0279   0.0307   0.0996   0.0117   0.0163   0.0285   0.42    0.0
2022/11/10 11:06:00.416    9.042491942    7.399421485   457.7431   4   0   0.0279   0.0307   0.0996   0.0117   0.0163   0.0285   0.42    0.0
2022/11/10 11:06:01.416    9.042491937    7.399421474   457.7484   4   0   0.0279   0.0307   0.0996   0.0117   0.0163   0.0285   0.42    0.0
2022/11/10 11:06:02.416    9.042491929    7.399421479   457.7431   4   0   0.0279   0.0307   0.0996   0.0117   0.0163   0.0285   0.42    0.0
2022/11/10 11:06:03.416    9.042491941    7.399421481   457.7405   4   0   0.0279   0.0307   0.0996   0.0117   0.0163   0.0285   0.42    0.0
2022/11/10 11:06:04.416    9.042491934    7.399421490   457.7375   4   0   0.0279   0.0307   0.0996   0.0117   0.0163   0.0285   0.42    0.0
2022/11/10 11:06:05.416    9.042491903    7.399421485   457.7313   4   0   0.0279   0.0307   0.0996   0.0117   0.0163   0.0285   0.42    0.0
2022/11/10 11:06:06.416    9.042491896    7.399421487   457.7290   4   0   0.0279   0.0307   0.0996   0.0117   0.0163   0.0285   0.42    0.0
2022/11/10 11:06:07.416    9.042491901    7.399421477   457.7236   4   0   0.0279   0.0307   0.0996   0.0117   0.0163   0.0285   0.42    0.0
2022/11/10 11:06:08.416    9.042491902    7.399421485   457.7236   4   0   0.0279   0.0307   0.0996   0.0117   0.0163   0.0285   0.42    0.0
2022/11/10 11:06:09.416    9.042491887    7.399421483   457.7153   4   0   0.0279   0.0307   0.0996   0.0117   0.0163   0.0285   0.42    0.0
2022/11/10 11:06:10.416    9.042491897    7.399421477   457.7227   4   0   0.0279   0.0307   0.0996   0.0117   0.0163   0.0285   0.42    0.0
2022/11/10 11:06:11.416    9.042491903    7.399421490   457.7284   4   0   0.0279   0.0307   0.0996   0.0117   0.0163   0.0285   0.42    0.0
2022/11/10 11:06:12.416    9.042491923    7.399421476   457.7300   4   0   0.0279   0.0307   0.0996   0.0117   0.0163   0.0285   0.42    0.0
2022/11/10 11:06:13.416    9.042491903    7.399421474   457.7286   4   0   0.0279   0.0307   0.0996   0.0117   0.0163   0.0285   0.42    0.0
2022/11/10 11:06:14.416    9.042491926    7.399421490   457.7300   4   0   0.0279   0.0307   0.0996   0.0117   0.0163   0.0285   0.42    0.0
2022/11/10 11:06:15.416    9.042491916    7.399421475   457.7227   4   0   0.0279   0.0307   0.0996   0.0117   0.0163   0.0285   0.42    0.0
2022/11/10 11:06:16.416    9.042491917    7.399421475   457.7270   4   0   0.0279   0.0307   0.0996   0.0117   0.0163   0.0285   0.42    0.0
2022/11/10 11:06:17.416    9.042491913    7.399421494   457.7216   4   0   0.0279   0.0307   0.0996   0.0117   0.0163   0.0285   0.42    0.0
2022/11/10 11:06:18.416    9.042491904    7.399421494   457.7204   4   0   0.0279   0.0307   0.0996   0.0117   0.0163   0.0285   0.42    0.0
2022/11/10 11:06:19.416    9.042491925    7.399421487   457.7252   4   0   0.0279   0.0307   0.0996   0.0117   0.0163   0.0285   0.42    0.0
2022/11/10 11:06:20.416    9.042491892    7.399421482   457.7216   4   0   0.0279   0.0307   0.0996   0.0117   0.0163   0.0285   0.42    0.0
2022/11/10 11:06:21.416    9.042491889    7.399421475   457.7235   4   0   0.0279   0.0307   0.0996   0.0117   0.0163   0.0285   0.42    0.0
2022/11/10 11:06:22.416    9.042491894    7.399421438   457.7306   4   0   0.0279   0.0307   0.0996   0.0117   0.0163   0.0285   0.42    0.0
2022/11/10 11:06:23.416    9.042491890    7.399421436   457.7368   4   0   0.0279   0.0307   0.0996   0.0117   0.0163   0.0285   0.42    0.0
2022/11/10 11:06:24.416    9.042491900    7.399421441   457.7350   4   0   0.0279   0.0307   0.0996   0.0117   0.0163   0.0285   0.42    0.0
2022/11/10 11:06:25.416    9.042491888    7.399421432   457.7355   4   0   0.0279   0.0307   0.0996   0.0117   0.0163   0.0285   0.42    0.0
2022/11/10 11:06:26.416    9.042491895    7.399421430   457.7357   4   0   0.0279   0.0307   0.0996   0.0117   0.0163   0.0285   0.42    0.0
2022/11/10 11:06:27.416    9.042491898    7.399421423   457.7412   4   0   0.0279   0.0307   0.0996   0.0117   0.0163   0.0285   0.42    0.0
2022/11/10 11:06:28.416    9.042491889    7.399421433   457.7357   4   0   0.0279   0.0307   0.0996   0.0117   0.0163   0.0285   0.42    0.0
2022/11/10 11:06:29.416    9.042491911    7.399421437   457.7421   4   0   0.0279   0.0307   0.0996   0.0117   0.0163   0.0285   0.42    0.0
2022/11/10 11:06:30.416    9.042491901    7.399421443   457.7350   4   0   0.0279   0.0307   0.0996   0.0117   0.0163   0.0285   0.42    0.0
2022/11/10 11:06:31.416    9.042491888    7.399421448   457.7306   4   0   0.0279   0.0307   0.0996   0.0117   0.0163   0.0285   0.42    0.0
2022/11/10 11:06:32.416    9.042491884    7.399421450   457.7277   4   0   0.0279   0.0307   0.0996   0.0117   0.0163   0.0285   0.42    0.0
2022/11/10 11:06:33.416    9.042491884    7.399421438   457.7301   4   0   0.0279   0.0307   0.0996   0.0117   0.0163   0.0285   0.42    0.0
2022/11/10 11:06:34.416    9.042491878    7.399421448   457.7321   4   0   0.0279   0.0307   0.0996   0.0117   0.0163   0.0285   0.42    0.0
2022/11/10 11:06:35.416    9.042491878    7.399421426   457.7315   4   0   0.0279   0.0307   0.0996   0.0117   0.0163   0.0285   0.42    0.0
2022/11/10 11:06:36.416    9.042491870    7.399421434   457.7343   4   0   0.0279   0.0307   0.0996   0.0117   0.0163   0.0285   0.42    0.0
2022/11/10 11:06:37.416    9.042491878    7.399421450   457.7307   4   0   0.0279   0.0307   0.0996   0.0117   0.0163   0.0285   0.42    0.0
2022/11/10 11:06:38.416    9.042491893    7.399421429   457.7381   4   0   0.0279   0.0307   0.0996   0.0117   0.0163   0.0285   0.42    0.0
2022/11/10 11:06:39.416    9.042491912    7.399421435   457.7374   4   0   0.0279   0.0307   0.0996   0.0117   0.0163   0.0285   0.42    0.0
2022/11/10 11:06:40.416    9.042491899    7.399421425   457.7424   4   0   0.0279   0.0307   0.0996   0.0117   0.0163   0.0285   0.42    0.0
2022/11/10 11:06:41.416    9.042491895    7.399421444   457.7407   4   0   0.0279   0.0307   0.0996   0.0117   0.0163   0.0285   0.42    0.0
2022/11/10 11:06:42.416    9.042491910    7.399421419   457.7499   4   0   0.0279   0.0307   0.0996   0.0117   0.0163   0.0285   0.42    0.0
2022/11/10 11:06:43.416    9.042491889    7.399421436   457.7398   4   0   0.0279   0.0307   0.0996   0.0117   0.0163   0.0285   0.42    0.0
2022/11/10 11:06:44.416    9.042491889    7.399421420   457.7483   4   0   0.0279   0.0307   0.0996   0.0117   0.0163   0.0285   0.42    0.0
2022/11/10 11:06:45.416    9.042491887    7.399421420   457.7474   4   0   0.0279   0.0307   0.0996   0.0117   0.0163   0.0285   0.42    0.0
2022/11/10 11:06:46.416    9.042491885    7.399421407   457.7513   4   0   0.0279   0.0307   0.0996   0.0117   0.0163   0.0285   0.42    0.0
2022/11/10 11:06:47.416    9.042491889    7.399421411   457.7478   4   0   0.0279   0.0307   0.0996   0.0117   0.0163   0.0285   0.42    0.0
2022/11/10 11:06:48.416    9.042491867    7.399421421   457.7377   4   0   0.0279   0.0307   0.0996   0.0117   0.0163   0.0285   0.42    0.0
2022/11/10 11:06:49.416    9.042491859    7.399421417   457.7389   4   0   0.0279   0.0307   0.0996   0.0117   0.0163   0.0285   0.42    0.0
2022/11/10 11:06:50.416    9.042491866    7.399421416   457.7452   4   0   0.0279   0.0307   0.0996   0.0117   0.0163   0.0285   0.42    0.0
2022/11/10 11:06:51.416    9.042491870    7.399421420   457.7451   4   0   0.0279   0.0307   0.0996   0.0117   0.0163   0.0285   0.42    0.0
2022/11/10 11:06:52.416    9.042491880    7.399421407   457.7468   4   0   0.0279   0.0307   0.0996   0.0117   0.0163   0.0285   0.42    0.0
2022/11/10 11:06:53.416    9.042491882    7.399421422   457.7438   4   0   0.0279   0.0307   0.0996   0.0117   0.0163   0.0285   0.42    0.0
2022/11/10 11:06:54.416    9.042491884    7.399421408   457.7537   4   0   0.0279   0.0307   0.0996   0.0117   0.0163   0.0285   0.42    0.0
2022/11/10 11:06:55.416    9.042491859    7.399421396   457.7514   4   0   0.0279   0.0307   0.0996   0.0117   0.0163   0.0285   0.42    0.0
2022/11/10 11:06:56.416    9.042491866    7.399421414   457.7449   4   0   0.0279   0.0307   0.0996   0.0117   0.0163   0.0285   0.42    0.0
2022/11/10 11:06:57.416    9.042491855    7.399421386   457.7500   4   0   0.0279   0.0307   0.0996   0.0117   0.0163   0.0285   0.42    0.0
2022/11/10 11:06:58.416    9.042491876    7.399421405   457.7473   4   0   0.0279   0.0307   0.0996   0.0117   0.0163   0.0285   0.42    0.0
2022/11/10 11:06:59.416    9.042491863    7.399421389   457.7483   4   0   0.0279   0.0307   0.0996   0.0117   0.0163   0.0285   0.42    0.0
2022/11/10 11:07:00.416    9.042491865    7.399421393   457.7479   4   0   0.0279   0.0307   0.0996   0.0117   0.0163   0.0285   0.42    0.0
2022/11/10 11:07:01.416    9.042491860    7.399421384   457.7475   4   0   0.0279   0.0307   0.0996   0.0117   0.0163   0.0285   0.42    0.0
