% program   : RTKPOST ver.demo5 b34g
% inp file  : C:\Users\Abdullateef\Documents\PHD\Research on Precision Agriculture Navigation Technology\nav data\GNSS Log file\Geo++\GEOP314L.22o
% inp file  : C:\Users\Abdullateef\Documents\PHD\Research on Precision Agriculture Navigation Technology\nav data\GNSS Log file\Base file\ABFC00NGA_R_20223141100_01H_1S_MO.22D
% inp file  : C:\Users\Abdullateef\Documents\PHD\Research on Precision Agriculture Navigation Technology\nav data\GNSS Log file\Nav file\BRDC00WRD_S_20223140000_01D_MN.rnx\BRDC00WRD_S_20223140000_01D_MN.rnx
% obs start : 2022/11/10 11:00:00.4 GPST (week2235 385200.4s)
% obs end   : 2022/11/10 11:39:12.4 GPST (week2235 387552.4s)
% pos mode  : Static
% freqs     : L1+L2/E5b+L5
% solution  : Combined-No Phase Reset
% elev mask : 15.0 deg
% dynamics  : on
% tidecorr  : off
% ionos opt : Broadcast
% tropo opt : Saastamoinen
% ephemeris : Broadcast
% navi sys  : GPS GLONASS Galileo BDS
% amb res   : Fix and Hold
% amb glo   : Fix and Hold
% val thres : 3.0
% antenna1  :                       ( 0.0000  0.0000  0.0000)
% antenna2  :                       ( 0.0000  0.0000  0.0000)
% ref pos   :  9.027665666    7.486341687   532.6449
%
% (lat/lon/height=WGS84/ellipsoidal,Q=1:fix,2:float,3:sbas,4:dgps,5:single,6:ppp,ns=# of satellites)
%  GPST                  latitude(deg) longitude(deg)  height(m)   Q  ns   sdn(m)   sde(m)   sdu(m)  sdne(m)  sdeu(m)  sdun(m) age(s)  ratio
2022/11/10 11:00:00.416    9.042484117    7.399406449   453.9568   4   0   0.0237   0.0239   0.0683   0.0088   0.0177   0.0242   0.42    0.0
2022/11/10 11:00:01.416    9.042484132    7.399406441   453.9588   4   0   0.0237   0.0239   0.0683   0.0088   0.0177   0.0242   0.42    0.0
2022/11/10 11:00:02.416    9.042484144    7.399406448   453.9630   4   0   0.0237   0.0239   0.0683   0.0088   0.0177   0.0242   0.42    0.0
2022/11/10 11:00:03.416    9.042484149    7.399406447   453.9601   4   0   0.0237   0.0239   0.0683   0.0088   0.0177   0.0242   0.42    0.0
2022/11/10 11:00:04.416    9.042484156    7.399406437   453.9609   4   0   0.0237   0.0239   0.0683   0.0088   0.0177   0.0242   0.42    0.0
2022/11/10 11:00:05.416    9.042484186    7.399406430   453.9690   4   0   0.0237   0.0239   0.0683   0.0088   0.0177   0.0242   0.42    0.0
2022/11/10 11:00:06.416    9.042484190    7.399406395   453.9666   4   0   0.0237   0.0239   0.0683   0.0088   0.0177   0.0242   0.42    0.0
2022/11/10 11:00:07.416    9.042484231    7.399406403   453.9726   4   0   0.0237   0.0239   0.0683   0.0088   0.0177   0.0242   0.42    0.0
2022/11/10 11:00:08.416    9.042484253    7.399406390   453.9798   4   0   0.0237   0.0239   0.0683   0.0088   0.0177   0.0242   0.42    0.0
2022/11/10 11:00:09.416    9.042484230    7.399406409   453.9753   4   0   0.0237   0.0239   0.0683   0.0088   0.0177   0.0242   0.42    0.0
2022/11/10 11:00:10.416    9.042484243    7.399406408   453.9812   4   0   0.0237   0.0239   0.0683   0.0088   0.0177   0.0242   0.42    0.0
2022/11/10 11:00:11.416    9.042484229    7.399406414   453.9795   4   0   0.0237   0.0239   0.0683   0.0088   0.0177   0.0242   0.42    0.0
2022/11/10 11:00:12.416    9.042484237    7.399406406   453.9771   4   0   0.0237   0.0239   0.0683   0.0088   0.0177   0.0242   0.42    0.0
2022/11/10 11:00:13.416    9.042484229    7.399406397   453.9753   4   0   0.0237   0.0239   0.0683   0.0088   0.0177   0.0242   0.42    0.0
2022/11/10 11:00:14.416    9.042484247    7.399406405   453.9817   4   0   0.0237   0.0239   0.0683   0.0088   0.0177   0.0242   0.42    0.0
2022/11/10 11:00:15.416    9.042484253    7.399406401   453.9806   4   0   0.0237   0.0239   0.0683   0.0088   0.0177   0.0242   0.42    0.0
2022/11/10 11:00:16.416    9.042484254    7.399406401   453.9839   4   0   0.0237   0.0239   0.0683   0.0088   0.0177   0.0242   0.42    0.0
2022/11/10 11:00:17.416    9.042484257    7.399406401   453.9870   4   0   0.0237   0.0239   0.0683   0.0088   0.0177   0.0242   0.42    0.0
2022/11/10 11:00:18.416    9.042484251    7.399406407   453.9888   4   0   0.0237   0.0239   0.0683   0.0088   0.0177   0.0242   0.42    0.0
2022/11/10 11:00:19.416    9.042484245    7.399406405   453.9875   4   0   0.0237   0.0239   0.0683   0.0088   0.0177   0.0242   0.42    0.0
2022/11/10 11:00:20.416    9.042484288    7.399406393   453.9911   4   0   0.0237   0.0239   0.0683   0.0088   0.0177   0.0242   0.42    0.0
2022/11/10 11:00:21.416    9.042484272    7.399406400   453.9923   4   0   0.0237   0.0239   0.0683   0.0088   0.0177   0.0242   0.42    0.0
2022/11/10 11:00:22.416    9.042484293    7.399406400   453.9938   4   0   0.0237   0.0239   0.0683   0.0088   0.0177   0.0242   0.42    0.0
2022/11/10 11:00:23.416    9.042484274    7.399406404   453.9916   4   0   0.0237   0.0239   0.0683   0.0088   0.0177   0.0242   0.42    0.0
2022/11/10 11:00:24.416    9.042484263    7.399406391   453.9919   4   0   0.0237   0.0239   0.0683   0.0088   0.0177   0.0242   0.42    0.0
2022/11/10 11:00:25.416    9.042484261    7.399406391   453.9927   4   0   0.0237   0.0239   0.0683   0.0088   0.0177   0.0242   0.42    0.0
2022/11/10 11:00:26.416    9.042484269    7.399406409   453.9904   4   0   0.0237   0.0239   0.0683   0.0088   0.0177   0.0242   0.42    0.0
2022/11/10 11:00:27.416    9.042484273    7.399406407   453.9919   4   0   0.0237   0.0239   0.0683   0.0088   0.0177   0.0242   0.42    0.0
2022/11/10 11:00:28.416    9.042484275    7.399406395   453.9887   4   0   0.0237   0.0239   0.0683   0.0088   0.0177   0.0242   0.42    0.0
2022/11/10 11:00:29.416    9.042484269    7.399406397   453.9874   4   0   0.0237   0.0239   0.0683   0.0088   0.0177   0.0242   0.42    0.0
2022/11/10 11:00:30.416    9.042484267    7.399406401   453.9862   4   0   0.0237   0.0239   0.0683   0.0088   0.0177   0.0242   0.42    0.0
2022/11/10 11:00:31.416    9.042484274    7.399406395   453.9869   4   0   0.0237   0.0239   0.0683   0.0088   0.0177   0.0242   0.42    0.0
2022/11/10 11:00:32.416    9.042484260    7.399406381   453.9876   4   0   0.0237   0.0239   0.0683   0.0088   0.0177   0.0242   0.42    0.0
2022/11/10 11:00:33.416    9.042484254    7.399406394   453.9888   4   0   0.0237   0.0239   0.0683   0.0088   0.0177   0.0242   0.42    0.0
2022/11/10 11:00:34.416    9.042484264    7.399406397   453.9882   4   0   0.0237   0.0239   0.0683   0.0088   0.0177   0.0242   0.42    0.0
2022/11/10 11:00:35.416    9.042484268    7.399406398   453.9853   4   0   0.0237   0.0239   0.0683   0.0088   0.0177   0.0242   0.42    0.0
2022/11/10 11:00:36.416    9.042484279    7.399406416   453.9888   4   0   0.0237   0.0239   0.0683   0.0088   0.0177   0.0242   0.42    0.0
2022/11/10 11:00:37.416    9.042484261    7.399406405   453.9834   4   0   0.0237   0.0239   0.0683   0.0088   0.0177   0.0242   0.42    0.0
2022/11/10 11:00:38.416    9.042484277    7.399406400   453.9856   4   0   0.0237   0.0239   0.0683   0.0088   0.0177   0.0242   0.42    0.0
2022/11/10 11:00:39.416    9.042484272    7.399406404   453.9865   4   0   0.0237   0.0239   0.0683   0.0088   0.0177   0.0242   0.42    0.0
2022/11/10 11:00:40.416    9.042484262    7.399406408   453.9891   4   0   0.0237   0.0239   0.0683   0.0088   0.0177   0.0242   0.42    0.0
2022/11/10 11:00:41.416    9.042484272    7.399406403   453.9853   4   0   0.0237   0.0239   0.0683   0.0088   0.0177   0.0242   0.42    0.0
2022/11/10 11:00:42.416    9.042484282    7.399406397   453.9936   4   0   0.0237   0.0239   0.0683   0.0088   0.0177   0.0242   0.42    0.0
2022/11/10 11:00:43.416    9.042484260    7.399406406   453.9918   4   0   0.0237   0.0239   0.0683   0.0088   0.0177   0.0242   0.42    0.0
2022/11/10 11:00:44.416    9.042484263    7.399406401   453.9907   4   0   0.0237   0.0239   0.0683   0.0088   0.0177   0.0242   0.42    0.0
2022/11/10 11:00:45.416    9.042484284    7.399406411   453.9874   4   0   0.0237   0.0239   0.0683   0.0088   0.0177   0.0242   0.42    0.0
2022/11/10 11:00:46.416    9.042484282    7.399406430   453.9885   4   0   0.0237   0.0239   0.0683   0.0088   0.0177   0.0242   0.42    0.0
2022/11/10 11:00:47.416    9.042484280    7.399406420   453.9890   4   0   0.0237   0.0239   0.0683   0.0088   0.0177   0.0242   0.42    0.0
2022/11/10 11:00:48.416    9.042484278    7.399406400   453.9876   4   0   0.0237   0.0239   0.0683   0.0088   0.0177   0.0242   0.42    0.0
2022/11/10 11:00:49.416    9.042484283    7.399406420   453.9887   4   0   0.0237   0.0239   0.0683   0.0088   0.0177   0.0242   0.42    0.0
2022/11/10 11:00:50.416    9.042484299    7.399406423   453.9959   4   0   0.0237   0.0239   0.0683   0.0088   0.0177   0.0242   0.42    0.0
2022/11/10 11:00:51.416    9.042484279    7.399406418   453.9906   4   0   0.0237   0.0239   0.0683   0.0088   0.0177   0.0242   0.42    0.0
2022/11/10 11:00:52.416    9.042484284    7.399406407   453.9915   4   0   0.0237   0.0239   0.0683   0.0088   0.0177   0.0242   0.42    0.0
2022/11/10 11:00:53.416    9.042484275    7.399406407   453.9876   4   0   0.0237   0.0239   0.0683   0.0088   0.0177   0.0242   0.42    0.0
2022/11/10 11:00:54.416    9.042484274    7.399406412   453.9877   4   0   0.0237   0.0239   0.0683   0.0088   0.0177   0.0242   0.42    0.0
2022/11/10 11:00:55.416    9.042484267    7.399406402   453.9888   4   0   0.0237   0.0239   0.0683   0.0088   0.0177   0.0242   0.42    0.0
2022/11/10 11:00:56.416    9.042484271    7.399406411   453.9855   4   0   0.0237   0.0239   0.0683   0.0088   0.0177   0.0242   0.42    0.0
2022/11/10 11:00:57.416    9.042484267    7.399406401   453.9894   4   0   0.0237   0.0239   0.0683   0.0088   0.0177   0.0242   0.42    0.0
2022/11/10 11:00:58.416    9.042484277    7.399406390   453.9877   4   0   0.0237   0.0239   0.0683   0.0088   0.0177   0.0242   0.42    0.0
2022/11/10 11:00:59.416    9.042484268    7.399406392   453.9852   4   0   0.0237   0.0239   0.0683   0.0088   0.0177   0.0242   0.42    0.0
2022/11/10 11:01:00.416    9.042484292    7.399406403   453.9900   4   0   0.0237   0.0239   0.0683   0.0088   0.0177   0.0242   0.42    0.0
2022/11/10 11:01:01.416    9.042484281    7.399406393   453.9857   4   0   0.0237   0.0239   0.0683   0.0088   0.0177   0.0242   0.42    0.0
2022/11/10 11:01:02.416    9.042484286    7.399406403   453.9887   4   0   0.0237   0.0239   0.0683   0.0088   0.0177   0.0242   0.42    0.0
2022/11/10 11:01:03.416    9.042484285    7.399406399   453.9874   4   0   0.0237   0.0239   0.0683   0.0088   0.0177   0.0242   0.42    0.0
2022/11/10 11:01:04.416    9.042484290    7.399406403   453.9884   4   0   0.0237   0.0239   0.0683   0.0088   0.0177   0.0242   0.42    0.0
2022/11/10 11:01:05.416    9.042484269    7.399406409   453.9909   4   0   0.0237   0.0239   0.0683   0.0088   0.0177   0.0242   0.42    0.0
2022/11/10 11:01:06.416    9.042484278    7.399406400   453.9883   4   0   0.0237   0.0239   0.0683   0.0088   0.0177   0.0242   0.42    0.0
2022/11/10 11:01:07.416    9.042484277    7.399406405   453.9899   4   0   0.0237   0.0239   0.0683   0.0088   0.0177   0.0242   0.42    0.0
2022/11/10 11:01:08.416    9.042484276    7.399406401   453.9922   4   0   0.0237   0.0239   0.0683   0.0088   0.0177   0.0242   0.42    0.0
2022/11/10 11:01:09.416    9.042484275    7.399406399   453.9907   4   0   0.0237   0.0239   0.0683   0.0088   0.0177   0.0242   0.42    0.0
2022/11/10 11:01:10.416    9.042484269    7.399406391   453.9877   4   0   0.0237   0.0239   0.0683   0.0088   0.0177   0.0242   0.42    0.0
2022/11/10 11:01:11.416    9.042484268    7.399406394   453.9886   4   0   0.0237   0.0239   0.0683   0.0088   0.0177   0.0242   0.42    0.0
2022/11/10 11:01:12.416    9.042484276    7.399406395   453.9890   4   0   0.0237   0.0239   0.0683   0.0088   0.0177   0.0242   0.42    0.0
2022/11/10 11:01:13.416    9.042484272    7.399406404   453.9922   4   0   0.0237   0.0239   0.0683   0.0088   0.0177   0.0242   0.42    0.0
2022/11/10 11:01:14.416    9.042484279    7.399406403   453.9887   4   0   0.0237   0.0239   0.0683   0.0088   0.0177   0.0242   0.42    0.0
2022/11/10 11:01:15.416    9.042484280    7.399406396   453.9876   4   0   0.0237   0.0239   0.0683   0.0088   0.0177   0.0242   0.42    0.0
2022/11/10 11:01:16.416    9.042484271    7.399406388   453.9881   4   0   0.0237   0.0239   0.0683   0.0088   0.0177   0.0242   0.42    0.0
2022/11/10 11:01:17.416    9.042484265    7.399406386   453.9883   4   0   0.0237   0.0239   0.0683   0.0088   0.0177   0.0242   0.42    0.0
2022/11/10 11:01:18.416    9.042484267    7.399406385   453.9803   4   0   0.0237   0.0239   0.0683   0.0088   0.0177   0.0242   0.42    0.0
2022/11/10 11:01:19.416    9.042484287    7.399406376   453.9911   4   0   0.0237   0.0239   0.0683   0.0088   0.0177   0.0242   0.42    0.0
2022/11/10 11:01:20.416    9.042484265    7.399406379   453.9887   4   0   0.0237   0.0239   0.0683   0.0088   0.0177   0.0242   0.42    0.0
2022/11/10 11:01:21.416    9.042484282    7.399406371   453.9902   4   0   0.0237   0.0239   0.0683   0.0088   0.0177   0.0242   0.42    0.0
2022/11/10 11:01:22.416    9.042484258    7.399406366   453.9850   4   0   0.0237   0.0239   0.0683   0.0088   0.0177   0.0242   0.42    0.0
2022/11/10 11:01:23.416    9.042484249    7.399406363   453.9838   4   0   0.0237   0.0239   0.0683   0.0088   0.0177   0.0242   0.42    0.0
2022/11/10 11:01:24.416    9.042484240    7.399406360   453.9856   4   0   0.0237   0.0239   0.0683   0.0088   0.0177   0.0242   0.42    0.0
2022/11/10 11:01:25.416    9.042484241    7.399406359   453.9834   4   0   0.0237   0.0239   0.0683   0.0088   0.0177   0.0242   0.42    0.0
2022/11/10 11:01:26.416    9.042484239    7.399406369   453.9833   4   0   0.0237   0.0239   0.0683   0.0088   0.0177   0.0242   0.42    0.0
2022/11/10 11:01:27.416    9.042484250    7.399406366   453.9833   4   0   0.0237   0.0239   0.0683   0.0088   0.0177   0.0242   0.42    0.0
2022/11/10 11:01:28.416    9.042484243    7.399406380   453.9851   4   0   0.0237   0.0239   0.0683   0.0088   0.0177   0.0242   0.42    0.0
2022/11/10 11:01:29.416    9.042484267    7.399406359   453.9895   4   0   0.0237   0.0239   0.0683   0.0088   0.0177   0.0242   0.42    0.0
2022/11/10 11:01:30.416    9.042484239    7.399406373   453.9877   4   0   0.0237   0.0239   0.0683   0.0088   0.0177   0.0242   0.42    0.0
2022/11/10 11:01:31.416    9.042484243    7.399406375   453.9846   4   0   0.0237   0.0239   0.0683   0.0088   0.0177   0.0242   0.42    0.0
2022/11/10 11:01:32.416    9.042484233    7.399406364   453.9883   4   0   0.0237   0.0239   0.0683   0.0088   0.0177   0.0242   0.42    0.0
2022/11/10 11:01:33.416    9.042484247    7.399406373   453.9856   4   0   0.0237   0.0239   0.0683   0.0088   0.0177   0.0242   0.42    0.0
2022/11/10 11:01:34.416    9.042484236    7.399406367   453.9818   4   0   0.0237   0.0239   0.0683   0.0088   0.0177   0.0242   0.42    0.0
2022/11/10 11:01:35.416    9.042484267    7.399406364   453.9839   4   0   0.0237   0.0239   0.0683   0.0088   0.0177   0.0242   0.42    0.0
2022/11/10 11:01:36.416    9.042484243    7.399406363   453.9817   4   0   0.0237   0.0239   0.0683   0.0088   0.0177   0.0242   0.42    0.0
2022/11/10 11:01:37.416    9.042484237    7.399406367   453.9768   4   0   0.0237   0.0239   0.0683   0.0088   0.0177   0.0242   0.42    0.0
2022/11/10 11:01:38.416    9.042484251    7.399406367   453.9775   4   0   0.0237   0.0239   0.0683   0.0088   0.0177   0.0242   0.42    0.0
2022/11/10 11:01:39.416    9.042484245    7.399406365   453.9761   4   0   0.0237   0.0239   0.0683   0.0088   0.0177   0.0242   0.42    0.0
2022/11/10 11:01:40.416    9.042484238    7.399406356   453.9786   4   0   0.0237   0.0239   0.0683   0.0088   0.0177   0.0242   0.42    0.0
2022/11/10 11:01:41.416    9.042484245    7.399406370   453.9796   4   0   0.0237   0.0239   0.0683   0.0088   0.0177   0.0242   0.42    0.0
2022/11/10 11:01:42.416    9.042484239    7.399406365   453.9783   4   0   0.0237   0.0239   0.0683   0.0088   0.0177   0.0242   0.42    0.0
2022/11/10 11:01:43.416    9.042484239    7.399406365   453.9749   4   0   0.0237   0.0239   0.0683   0.0088   0.0177   0.0242   0.42    0.0
2022/11/10 11:01:44.416    9.042484229    7.399406365   453.9765   4   0   0.0237   0.0239   0.0683   0.0088   0.0177   0.0242   0.42    0.0
2022/11/10 11:01:45.416    9.042484241    7.399406361   453.9753   4   0   0.0237   0.0239   0.0683   0.0088   0.0177   0.0242   0.42    0.0
2022/11/10 11:01:46.416    9.042484239    7.399406360   453.9756   4   0   0.0237   0.0239   0.0683   0.0088   0.0177   0.0242   0.42    0.0
2022/11/10 11:01:47.416    9.042484232    7.399406363   453.9764   4   0   0.0237   0.0239   0.0683   0.0088   0.0177   0.0242   0.42    0.0
2022/11/10 11:01:48.416    9.042484231    7.399406365   453.9742   4   0   0.0237   0.0239   0.0683   0.0088   0.0177   0.0242   0.42    0.0
2022/11/10 11:01:49.416    9.042484242    7.399406370   453.9804   4   0   0.0237   0.0239   0.0683   0.0088   0.0177   0.0242   0.42    0.0
2022/11/10 11:01:50.416    9.042484216    7.399406363   453.9745   4   0   0.0237   0.0239   0.0683   0.0087   0.0177   0.0242   0.42    0.0
2022/11/10 11:01:51.416    9.042484223    7.399406368   453.9769   4   0   0.0237   0.0239   0.0683   0.0087   0.0177   0.0242   0.42    0.0
2022/11/10 11:01:52.416    9.042484232    7.399406364   453.9770   4   0   0.0237   0.0239   0.0683   0.0087   0.0177   0.0242   0.42    0.0
2022/11/10 11:01:53.416    9.042484229    7.399406353   453.9765   4   0   0.0237   0.0239   0.0683   0.0087   0.0177   0.0242   0.42    0.0
2022/11/10 11:01:54.416    9.042484224    7.399406365   453.9727   4   0   0.0237   0.0239   0.0683   0.0088   0.0177   0.0242   0.42    0.0
2022/11/10 11:01:55.416    9.042484209    7.399406359   453.9722   4   0   0.0237   0.0239   0.0683   0.0088   0.0177   0.0242   0.42    0.0
2022/11/10 11:01:56.416    9.042484206    7.399406361   453.9668   4   0   0.0237   0.0239   0.0683   0.0088   0.0177   0.0242   0.42    0.0
2022/11/10 11:01:57.416    9.042484217    7.399406365   453.9706   4   0   0.0237   0.0239   0.0683   0.0088   0.0177   0.0242   0.42    0.0
2022/11/10 11:01:58.416    9.042484181    7.399406360   453.9619   4   0   0.0237   0.0239   0.0683   0.0088   0.0177   0.0242   0.42    0.0
2022/11/10 11:01:59.416    9.042484210    7.399406367   453.9656   4   0   0.0237   0.0239   0.0683   0.0088   0.0177   0.0242   0.42    0.0
2022/11/10 11:02:00.416    9.042484184    7.399406356   453.9606   4   0   0.0237   0.0239   0.0683   0.0088   0.0177   0.0242   0.42    0.0
2022/11/10 11:02:01.416    9.042484186    7.399406371   453.9589   4   0   0.0237   0.0239   0.0683   0.0088   0.0177   0.0242   0.42    0.0
2022/11/10 11:02:02.416    9.042484188    7.399406359   453.9592   4   0   0.0237   0.0239   0.0683   0.0088   0.0177   0.0242   0.42    0.0
2022/11/10 11:02:03.416    9.042484183    7.399406351   453.9591   4   0   0.0237   0.0239   0.0683   0.0088   0.0177   0.0242   0.42    0.0
2022/11/10 11:02:04.416    9.042484174    7.399406338   453.9557   4   0   0.0237   0.0239   0.0683   0.0088   0.0177   0.0242   0.42    0.0
2022/11/10 11:02:05.416    9.042484177    7.399406341   453.9549   4   0   0.0237   0.0239   0.0683   0.0088   0.0177   0.0242   0.42    0.0
2022/11/10 11:02:06.416    9.042484167    7.399406323   453.9540   4   0   0.0237   0.0239   0.0683   0.0088   0.0177   0.0242   0.42    0.0
2022/11/10 11:02:07.416    9.042484153    7.399406314   453.9473   4   0   0.0237   0.0239   0.0683   0.0088   0.0177   0.0242   0.42    0.0
2022/11/10 11:02:08.416    9.042484153    7.399406292   453.9478   4   0   0.0237   0.0239   0.0683   0.0088   0.0177   0.0242   0.42    0.0
2022/11/10 11:02:09.416    9.042484155    7.399406301   453.9477   4   0   0.0237   0.0239   0.0683   0.0088   0.0177   0.0242   0.42    0.0
2022/11/10 11:02:10.416    9.042484153    7.399406295   453.9494   4   0   0.0237   0.0239   0.0683   0.0088   0.0177   0.0242   0.42    0.0
2022/11/10 11:02:11.416    9.042484133    7.399406299   453.9529   4   0   0.0237   0.0239   0.0683   0.0088   0.0177   0.0242   0.42    0.0
2022/11/10 11:02:12.416    9.042484140    7.399406284   453.9501   4   0   0.0237   0.0239   0.0683   0.0088   0.0177   0.0242   0.42    0.0
2022/11/10 11:02:13.416    9.042484142    7.399406315   453.9516   4   0   0.0237   0.0239   0.0683   0.0088   0.0177   0.0242   0.42    0.0
2022/11/10 11:02:14.416    9.042484146    7.399406281   453.9467   4   0   0.0237   0.0239   0.0683   0.0088   0.0177   0.0242   0.42    0.0
2022/11/10 11:02:15.416    9.042484140    7.399406293   453.9454   4   0   0.0237   0.0239   0.0683   0.0088   0.0177   0.0242   0.42    0.0
2022/11/10 11:02:16.416    9.042484129    7.399406277   453.9469   4   0   0.0237   0.0239   0.0683   0.0088   0.0177   0.0242   0.42    0.0
2022/11/10 11:02:17.416    9.042484135    7.399406275   453.9419   4   0   0.0237   0.0239   0.0683   0.0088   0.0177   0.0242   0.42    0.0
2022/11/10 11:02:18.416    9.042484128    7.399406274   453.9407   4   0   0.0237   0.0239   0.0683   0.0087   0.0177   0.0242   0.42    0.0
2022/11/10 11:02:19.416    9.042484138    7.399406277   453.9431   4   0   0.0237   0.0239   0.0683   0.0088   0.0177   0.0242   0.42    0.0
2022/11/10 11:02:20.416    9.042484141    7.399406267   453.9462   4   0   0.0237   0.0239   0.0683   0.0087   0.0177   0.0242   0.42    0.0
2022/11/10 11:02:21.416    9.042484100    7.399406271   453.9380   4   0   0.0237   0.0239   0.0683   0.0087   0.0177   0.0242   0.42    0.0
2022/11/10 11:02:22.416    9.042484092    7.399406252   453.9363   4   0   0.0237   0.0239   0.0683   0.0088   0.0177   0.0242   0.42    0.0
2022/11/10 11:02:23.416    9.042484103    7.399406255   453.9407   4   0   0.0237   0.0239   0.0683   0.0088   0.0177   0.0242   0.42    0.0
2022/11/10 11:02:24.416    9.042484105    7.399406247   453.9440   4   0   0.0237   0.0239   0.0683   0.0088   0.0177   0.0242   0.42    0.0
2022/11/10 11:02:25.416    9.042484103    7.399406257   453.9351   4   0   0.0237   0.0239   0.0683   0.0088   0.0177   0.0242   0.42    0.0
2022/11/10 11:02:26.416    9.042484100    7.399406244   453.9381   4   0   0.0237   0.0239   0.0683   0.0088   0.0177   0.0242   0.42    0.0
2022/11/10 11:02:27.416    9.042484087    7.399406248   453.9345   4   0   0.0237   0.0239   0.0683   0.0088   0.0177   0.0242   0.42    0.0
2022/11/10 11:02:28.416    9.042484103    7.399406246   453.9400   4   0   0.0237   0.0239   0.0683   0.0088   0.0177   0.0242   0.42    0.0
2022/11/10 11:02:29.416    9.042484099    7.399406255   453.9366   4   0   0.0237   0.0239   0.0683   0.0088   0.0177   0.0242   0.42    0.0
2022/11/10 11:02:30.416    9.042484090    7.399406248   453.9325   4   0   0.0237   0.0239   0.0683   0.0088   0.0177   0.0242   0.42    0.0
2022/11/10 11:02:31.416    9.042484101    7.399406247   453.9315   4   0   0.0237   0.0239   0.0683   0.0088   0.0177   0.0242   0.42    0.0
2022/11/10 11:02:32.416    9.042484115    7.399406252   453.9358   4   0   0.0237   0.0239   0.0683   0.0088   0.0177   0.0242   0.42    0.0
2022/11/10 11:02:33.416    9.042484116    7.399406249   453.9358   4   0   0.0237   0.0239   0.0683   0.0088   0.0177   0.0242   0.42    0.0
2022/11/10 11:02:34.416    9.042484103    7.399406257   453.9311   4   0   0.0237   0.0239   0.0683   0.0088   0.0177   0.0242   0.42    0.0
2022/11/10 11:02:35.416    9.042484132    7.399406259   453.9405   4   0   0.0237   0.0239   0.0683   0.0088   0.0177   0.0242   0.42    0.0
2022/11/10 11:02:36.416    9.042484090    7.399406262   453.9284   4   0   0.0237   0.0239   0.0683   0.0088   0.0177   0.0242   0.42    0.0
2022/11/10 11:02:37.416    9.042484103    7.399406260   453.9289   4   0   0.0237   0.0239   0.0683   0.0088   0.0177   0.0242   0.42    0.0
2022/11/10 11:02:38.416    9.042484122    7.399406253   453.9346   4   0   0.0237   0.0239   0.0683   0.0088   0.0177   0.0242   0.42    0.0
2022/11/10 11:02:39.416    9.042484101    7.399406263   453.9299   4   0   0.0237   0.0239   0.0683   0.0088   0.0177   0.0242   0.42    0.0
2022/11/10 11:02:40.416    9.042484107    7.399406254   453.9356   4   0   0.0237   0.0239   0.0683   0.0088   0.0177   0.0242   0.42    0.0
2022/11/10 11:02:41.416    9.042484117    7.399406254   453.9356   4   0   0.0237   0.0239   0.0683   0.0088   0.0177   0.0242   0.42    0.0
2022/11/10 11:02:42.416    9.042484100    7.399406250   453.9324   4   0   0.0237   0.0239   0.0683   0.0088   0.0177   0.0242   0.42    0.0
2022/11/10 11:02:43.416    9.042484091    7.399406269   453.9329   4   0   0.0237   0.0239   0.0683   0.0088   0.0177   0.0242   0.42    0.0
2022/11/10 11:02:44.416    9.042484089    7.399406263   453.9336   4   0   0.0237   0.0239   0.0683   0.0088   0.0177   0.0242   0.42    0.0
2022/11/10 11:02:45.416    9.042484066    7.399406264   453.9347   4   0   0.0237   0.0239   0.0683   0.0088   0.0177   0.0242   0.42    0.0
2022/11/10 11:02:46.416    9.042484068    7.399406271   453.9304   4   0   0.0237   0.0239   0.0683   0.0087   0.0177   0.0242   0.42    0.0
2022/11/10 11:02:47.416    9.042484081    7.399406258   453.9323   4   0   0.0237   0.0239   0.0683   0.0088   0.0177   0.0242   0.42    0.0
2022/11/10 11:02:48.416    9.042484077    7.399406257   453.9319   4   0   0.0237   0.0239   0.0683   0.0088   0.0177   0.0242   0.42    0.0
2022/11/10 11:02:49.416    9.042484057    7.399406260   453.9296   4   0   0.0237   0.0239   0.0683   0.0088   0.0177   0.0242   0.42    0.0
2022/11/10 11:02:50.416    9.042484062    7.399406264   453.9299   4   0   0.0237   0.0239   0.0683   0.0088   0.0177   0.0242   0.42    0.0
2022/11/10 11:02:51.416    9.042484065    7.399406271   453.9261   4   0   0.0237   0.0239   0.0683   0.0088   0.0177   0.0242   0.42    0.0
2022/11/10 11:02:52.416    9.042484070    7.399406265   453.9259   4   0   0.0237   0.0239   0.0683   0.0087   0.0177   0.0242   0.42    0.0
2022/11/10 11:02:53.416    9.042484063    7.399406261   453.9232   4   0   0.0237   0.0239   0.0683   0.0087   0.0177   0.0242   0.42    0.0
2022/11/10 11:02:54.416    9.042484073    7.399406257   453.9276   4   0   0.0237   0.0239   0.0683   0.0088   0.0177   0.0242   0.42    0.0
2022/11/10 11:02:55.416    9.042484068    7.399406266   453.9222   4   0   0.0237   0.0239   0.0683   0.0087   0.0177   0.0242   0.42    0.0
2022/11/10 11:02:56.416    9.042484065    7.399406263   453.9197   4   0   0.0237   0.0239   0.0683   0.0087   0.0177   0.0242   0.42    0.0
2022/11/10 11:02:57.416    9.042484059    7.399406255   453.9211   4   0   0.0237   0.0239   0.0683   0.0087   0.0177   0.0242   0.42    0.0
2022/11/10 11:02:58.416    9.042484056    7.399406253   453.9172   4   0   0.0237   0.0239   0.0683   0.0087   0.0177   0.0242   0.42    0.0
2022/11/10 11:02:59.416    9.042484058    7.399406259   453.9202   4   0   0.0237   0.0239   0.0683   0.0087   0.0177   0.0242   0.42    0.0
2022/11/10 11:03:00.416    9.042484064    7.399406261   453.9238   4   0   0.0237   0.0239   0.0683   0.0087   0.0177   0.0242   0.42    0.0
2022/11/10 11:03:01.416    9.042484065    7.399406263   453.9238   4   0   0.0237   0.0239   0.0683   0.0088   0.0177   0.0242   0.42    0.0
2022/11/10 11:03:02.416    9.042484065    7.399406260   453.9232   4   0   0.0237   0.0239   0.0683   0.0088   0.0177   0.0242   0.42    0.0
2022/11/10 11:03:03.416    9.042484055    7.399406253   453.9227   4   0   0.0237   0.0239   0.0683   0.0088   0.0177   0.0242   0.42    0.0
2022/11/10 11:03:04.416    9.042484045    7.399406256   453.9209   4   0   0.0237   0.0239   0.0683   0.0088   0.0177   0.0242   0.42    0.0
2022/11/10 11:03:05.416    9.042484057    7.399406254   453.9188   4   0   0.0237   0.0239   0.0683   0.0088   0.0177   0.0242   0.42    0.0
2022/11/10 11:03:06.416    9.042484052    7.399406260   453.9182   4   0   0.0237   0.0239   0.0683   0.0088   0.0177   0.0242   0.42    0.0
2022/11/10 11:03:07.416    9.042484059    7.399406263   453.9196   4   0   0.0237   0.0239   0.0683   0.0088   0.0177   0.0242   0.42    0.0
2022/11/10 11:03:08.416    9.042484064    7.399406254   453.9212   4   0   0.0237   0.0239   0.0683   0.0088   0.0177   0.0242   0.42    0.0
2022/11/10 11:03:09.416    9.042484049    7.399406252   453.9172   4   0   0.0237   0.0239   0.0683   0.0088   0.0177   0.0242   0.42    0.0
2022/11/10 11:03:10.416    9.042484047    7.399406245   453.9179   4   0   0.0237   0.0239   0.0683   0.0088   0.0177   0.0242   0.42    0.0
2022/11/10 11:03:11.416    9.042484053    7.399406245   453.9151   4   0   0.0237   0.0239   0.0683   0.0088   0.0177   0.0242   0.42    0.0
2022/11/10 11:03:12.416    9.042484065    7.399406249   453.9182   4   0   0.0237   0.0239   0.0683   0.0088   0.0177   0.0242   0.42    0.0
2022/11/10 11:03:13.416    9.042484052    7.399406252   453.9090   4   0   0.0237   0.0239   0.0683   0.0088   0.0177   0.0242   0.42    0.0
2022/11/10 11:03:14.416    9.042484052    7.399406239   453.9122   4   0   0.0237   0.0239   0.0683   0.0088   0.0177   0.0242   0.42    0.0
2022/11/10 11:03:15.416    9.042484046    7.399406235   453.9127   4   0   0.0237   0.0239   0.0683   0.0088   0.0177   0.0242   0.42    0.0
2022/11/10 11:03:16.416    9.042484061    7.399406234   453.9120   4   0   0.0237   0.0239   0.0683   0.0088   0.0177   0.0242   0.42    0.0
2022/11/10 11:03:17.416    9.042484058    7.399406234   453.9105   4   0   0.0237   0.0239   0.0683   0.0088   0.0177   0.0242   0.42    0.0
2022/11/10 11:03:18.416    9.042484054    7.399406241   453.9091   4   0   0.0237   0.0239   0.0683   0.0088   0.0177   0.0242   0.42    0.0
2022/11/10 11:03:19.416    9.042484064    7.399406230   453.9141   4   0   0.0237   0.0239   0.0683   0.0088   0.0177   0.0242   0.42    0.0
2022/11/10 11:03:20.416    9.042484053    7.399406233   453.9114   4   0   0.0237   0.0239   0.0683   0.0088   0.0177   0.0242   0.42    0.0
2022/11/10 11:03:21.416    9.042484053    7.399406226   453.9069   4   0   0.0237   0.0239   0.0683   0.0088   0.0177   0.0242   0.42    0.0
2022/11/10 11:03:22.416    9.042484051    7.399406233   453.9069   4   0   0.0237   0.0239   0.0683   0.0088   0.0177   0.0242   0.42    0.0
2022/11/10 11:03:23.416    9.042484043    7.399406227   453.9044   4   0   0.0237   0.0239   0.0683   0.0088   0.0177   0.0242   0.42    0.0
2022/11/10 11:03:24.416    9.042484043    7.399406223   453.8992   4   0   0.0237   0.0239   0.0683   0.0088   0.0177   0.0242   0.42    0.0
2022/11/10 11:03:25.416    9.042484044    7.399406230   453.8998   4   0   0.0237   0.0239   0.0683   0.0088   0.0177   0.0242   0.42    0.0
2022/11/10 11:03:26.416    9.042484037    7.399406239   453.8995   4   0   0.0237   0.0239   0.0683   0.0088   0.0177   0.0242   0.42    0.0
2022/11/10 11:03:27.416    9.042484052    7.399406227   453.9009   4   0   0.0237   0.0239   0.0683   0.0088   0.0177   0.0242   0.42    0.0
2022/11/10 11:03:28.416    9.042484036    7.399406225   453.8963   4   0   0.0237   0.0239   0.0683   0.0088   0.0177   0.0242   0.42    0.0
2022/11/10 11:03:29.416    9.042484065    7.399406224   453.9043   4   0   0.0237   0.0239   0.0683   0.0088   0.0177   0.0242   0.42    0.0
2022/11/10 11:03:30.416    9.042484058    7.399406220   453.9051   4   0   0.0237   0.0239   0.0683   0.0088   0.0177   0.0242   0.42    0.0
2022/11/10 11:03:31.416    9.042484052    7.399406230   453.9022   4   0   0.0237   0.0239   0.0683   0.0088   0.0177   0.0242   0.42    0.0
2022/11/10 11:03:32.416    9.042484055    7.399406210   453.8983   4   0   0.0237   0.0239   0.0683   0.0088   0.0177   0.0242   0.42    0.0
2022/11/10 11:03:33.416    9.042484050    7.399406220   453.9013   4   0   0.0237   0.0239   0.0683   0.0088   0.0177   0.0242   0.42    0.0
2022/11/10 11:03:34.416    9.042484043    7.399406215   453.9019   4   0   0.0237   0.0239   0.0683   0.0088   0.0177   0.0242   0.42    0.0
2022/11/10 11:03:35.416    9.042484032    7.399406211   453.8943   4   0   0.0237   0.0239   0.0683   0.0088   0.0177   0.0242   0.42    0.0
2022/11/10 11:03:36.416    9.042484035    7.399406221   453.8994   4   0   0.0237   0.0239   0.0683   0.0088   0.0177   0.0242   0.42    0.0
2022/11/10 11:03:37.416    9.042484042    7.399406212   453.9013   4   0   0.0237   0.0239   0.0683   0.0088   0.0177   0.0242   0.42    0.0
2022/11/10 11:03:38.416    9.042484039    7.399406207   453.8963   4   0   0.0237   0.0239   0.0683   0.0088   0.0177   0.0242   0.42    0.0
2022/11/10 11:03:39.416    9.042484044    7.399406209   453.8995   4   0   0.0237   0.0239   0.0683   0.0088   0.0177   0.0242   0.42    0.0
2022/11/10 11:03:40.416    9.042484025    7.399406207   453.8958   4   0   0.0237   0.0239   0.0683   0.0088   0.0177   0.0242   0.42    0.0
2022/11/10 11:03:41.416    9.042484023    7.399406213   453.8923   4   0   0.0237   0.0239   0.0683   0.0088   0.0177   0.0242   0.42    0.0
2022/11/10 11:03:42.416    9.042484043    7.399406214   453.8975   4   0   0.0237   0.0239   0.0683   0.0088   0.0177   0.0242   0.42    0.0
2022/11/10 11:03:43.416    9.042484029    7.399406210   453.8938   4   0   0.0237   0.0239   0.0683   0.0088   0.0177   0.0242   0.42    0.0
2022/11/10 11:03:44.416    9.042484038    7.399406211   453.8962   4   0   0.0237   0.0239   0.0683   0.0088   0.0177   0.0242   0.42    0.0
2022/11/10 11:03:45.416    9.042484035    7.399406209   453.8918   4   0   0.0237   0.0239   0.0683   0.0088   0.0177   0.0242   0.42    0.0
2022/11/10 11:03:46.416    9.042484025    7.399406213   453.8877   4   0   0.0237   0.0239   0.0683   0.0088   0.0177   0.0242   0.42    0.0
2022/11/10 11:03:47.416    9.042484020    7.399406218   453.8897   4   0   0.0237   0.0239   0.0683   0.0088   0.0177   0.0242   0.42    0.0
2022/11/10 11:03:48.416    9.042484028    7.399406214   453.8879   4   0   0.0237   0.0239   0.0683   0.0088   0.0177   0.0242   0.42    0.0
2022/11/10 11:03:49.416    9.042484033    7.399406218   453.8922   4   0   0.0237   0.0239   0.0683   0.0088   0.0177   0.0242   0.42    0.0
2022/11/10 11:03:50.416    9.042484029    7.399406213   453.8880   4   0   0.0237   0.0239   0.0683   0.0088   0.0177   0.0242   0.42    0.0
2022/11/10 11:03:51.416    9.042484023    7.399406212   453.8891   4   0   0.0237   0.0239   0.0683   0.0088   0.0177   0.0242   0.42    0.0
2022/11/10 11:03:52.416    9.042484018    7.399406213   453.8857   4   0   0.0237   0.0239   0.0683   0.0088   0.0177   0.0242   0.42    0.0
2022/11/10 11:03:53.416    9.042484023    7.399406220   453.8889   4   0   0.0237   0.0239   0.0683   0.0088   0.0177   0.0242   0.42    0.0
2022/11/10 11:03:54.416    9.042484008    7.399406213   453.8865   4   0   0.0237   0.0239   0.0683   0.0088   0.0177   0.0242   0.42    0.0
2022/11/10 11:03:55.416    9.042484025    7.399406218   453.8925   4   0   0.0237   0.0239   0.0683   0.0088   0.0177   0.0242   0.42    0.0
2022/11/10 11:03:56.416    9.042484023    7.399406205   453.8904   4   0   0.0237   0.0239   0.0683   0.0088   0.0177   0.0242   0.42    0.0
2022/11/10 11:03:57.416    9.042484029    7.399406219   453.8914   4   0   0.0237   0.0239   0.0683   0.0088   0.0177   0.0242   0.42    0.0
2022/11/10 11:03:58.416    9.042484026    7.399406206   453.8901   4   0   0.0237   0.0239   0.0683   0.0088   0.0177   0.0242   0.42    0.0
2022/11/10 11:03:59.416    9.042484027    7.399406207   453.8920   4   0   0.0237   0.0239   0.0683   0.0088   0.0177   0.0242   0.42    0.0
2022/11/10 11:04:00.416    9.042484020    7.399406214   453.8888   4   0   0.0237   0.0239   0.0683   0.0088   0.0177   0.0242   0.42    0.0
2022/11/10 11:04:01.416    9.042484027    7.399406213   453.8859   4   0   0.0237   0.0239   0.0683   0.0088   0.0177   0.0242   0.42    0.0
2022/11/10 11:04:02.416    9.042484015    7.399406204   453.8825   4   0   0.0237   0.0239   0.0683   0.0088   0.0177   0.0242   0.42    0.0
2022/11/10 11:04:03.416    9.042484010    7.399406189   453.8879   4   0   0.0237   0.0239   0.0683   0.0088   0.0177   0.0242   0.42    0.0
2022/11/10 11:04:04.416    9.042484025    7.399406192   453.8868   4   0   0.0237   0.0239   0.0683   0.0088   0.0177   0.0242   0.42    0.0
2022/11/10 11:04:05.416    9.042484006    7.399406199   453.8837   4   0   0.0237   0.0239   0.0683   0.0088   0.0177   0.0242   0.42    0.0
2022/11/10 11:04:06.416    9.042484015    7.399406196   453.8861   4   0   0.0237   0.0239   0.0683   0.0088   0.0177   0.0242   0.42    0.0
2022/11/10 11:04:07.416    9.042484013    7.399406195   453.8874   4   0   0.0237   0.0239   0.0683   0.0088   0.0177   0.0242   0.42    0.0
2022/11/10 11:04:08.416    9.042484010    7.399406204   453.8855   4   0   0.0237   0.0239   0.0683   0.0088   0.0177   0.0242   0.42    0.0
2022/11/10 11:04:09.416    9.042484012    7.399406197   453.8847   4   0   0.0237   0.0239   0.0683   0.0088   0.0177   0.0242   0.42    0.0
2022/11/10 11:04:10.416    9.042484020    7.399406204   453.8904   4   0   0.0237   0.0239   0.0683   0.0088   0.0177   0.0242   0.42    0.0
2022/11/10 11:04:11.416    9.042484013    7.399406214   453.8883   4   0   0.0237   0.0239   0.0683   0.0088   0.0177   0.0242   0.42    0.0
2022/11/10 11:04:12.416    9.042484009    7.399406218   453.8877   4   0   0.0237   0.0239   0.0683   0.0088   0.0177   0.0242   0.42    0.0
2022/11/10 11:04:13.416    9.042484003    7.399406209   453.8838   4   0   0.0237   0.0239   0.0683   0.0088   0.0177   0.0242   0.42    0.0
2022/11/10 11:04:14.416    9.042484009    7.399406214   453.8902   4   0   0.0237   0.0239   0.0683   0.0088   0.0177   0.0242   0.42    0.0
2022/11/10 11:04:15.416    9.042484014    7.399406205   453.8879   4   0   0.0237   0.0239   0.0683   0.0088   0.0177   0.0242   0.42    0.0
2022/11/10 11:04:16.416    9.042484019    7.399406212   453.8902   4   0   0.0237   0.0239   0.0683   0.0088   0.0177   0.0242   0.42    0.0
2022/11/10 11:04:17.416    9.042484022    7.399406213   453.8899   4   0   0.0237   0.0239   0.0683   0.0088   0.0177   0.0242   0.42    0.0
2022/11/10 11:04:18.416    9.042484008    7.399406215   453.8889   4   0   0.0237   0.0239   0.0683   0.0088   0.0177   0.0242   0.42    0.0
2022/11/10 11:04:19.416    9.042484031    7.399406215   453.8917   4   0   0.0237   0.0239   0.0683   0.0088   0.0177   0.0242   0.42    0.0
2022/11/10 11:04:20.416    9.042484034    7.399406216   453.8946   4   0   0.0237   0.0239   0.0683   0.0088   0.0177   0.0242   0.42    0.0
2022/11/10 11:04:21.416    9.042484023    7.399406216   453.8922   4   0   0.0237   0.0239   0.0683   0.0088   0.0177   0.0242   0.42    0.0
2022/11/10 11:04:22.416    9.042484013    7.399406214   453.8884   4   0   0.0237   0.0239   0.0683   0.0088   0.0177   0.0242   0.42    0.0
2022/11/10 11:04:23.416    9.042484022    7.399406208   453.8913   4   0   0.0237   0.0239   0.0683   0.0088   0.0177   0.0242   0.42    0.0
2022/11/10 11:04:24.416    9.042484020    7.399406207   453.8894   4   0   0.0237   0.0239   0.0683   0.0088   0.0177   0.0242   0.42    0.0
2022/11/10 11:04:25.416    9.042484022    7.399406200   453.8866   4   0   0.0237   0.0239   0.0683   0.0088   0.0177   0.0242   0.42    0.0
2022/11/10 11:04:26.416    9.042484020    7.399406201   453.8878   4   0   0.0237   0.0239   0.0683   0.0088   0.0177   0.0242   0.42    0.0
2022/11/10 11:04:27.416    9.042484010    7.399406192   453.8859   4   0   0.0237   0.0239   0.0683   0.0088   0.0177   0.0242   0.42    0.0
2022/11/10 11:04:28.416    9.042484020    7.399406195   453.8876   4   0   0.0237   0.0239   0.0683   0.0088   0.0177   0.0242   0.42    0.0
2022/11/10 11:04:29.416    9.042484011    7.399406196   453.8861   4   0   0.0237   0.0239   0.0683   0.0088   0.0177   0.0242   0.42    0.0
2022/11/10 11:04:30.416    9.042484012    7.399406195   453.8851   4   0   0.0237   0.0239   0.0683   0.0088   0.0177   0.0242   0.42    0.0
2022/11/10 11:04:31.416    9.042484011    7.399406197   453.8824   4   0   0.0237   0.0239   0.0683   0.0088   0.0177   0.0242   0.42    0.0
2022/11/10 11:04:32.416    9.042484017    7.399406194   453.8847   4   0   0.0237   0.0239   0.0683   0.0088   0.0177   0.0242   0.42    0.0
2022/11/10 11:04:33.416    9.042484015    7.399406195   453.8838   4   0   0.0237   0.0239   0.0683   0.0088   0.0177   0.0242   0.42    0.0
2022/11/10 11:04:34.416    9.042484004    7.399406194   453.8813   4   0   0.0237   0.0239   0.0683   0.0088   0.0177   0.0242   0.42    0.0
2022/11/10 11:04:35.416    9.042484008    7.399406196   453.8824   4   0   0.0237   0.0239   0.0683   0.0088   0.0177   0.0242   0.42    0.0
2022/11/10 11:04:36.416    9.042484007    7.399406198   453.8825   4   0   0.0237   0.0239   0.0683   0.0088   0.0177   0.0242   0.42    0.0
2022/11/10 11:04:37.416    9.042484010    7.399406200   453.8827   4   0   0.0237   0.0239   0.0683   0.0088   0.0177   0.0242   0.42    0.0
2022/11/10 11:04:38.416    9.042484009    7.399406194   453.8826   4   0   0.0237   0.0239   0.0683   0.0088   0.0177   0.0242   0.42    0.0
2022/11/10 11:04:39.416    9.042484001    7.399406210   453.8805   4   0   0.0237   0.0239   0.0683   0.0088   0.0177   0.0242   0.42    0.0
2022/11/10 11:04:40.416    9.042483992    7.399406200   453.8776   4   0   0.0237   0.0239   0.0683   0.0088   0.0177   0.0242   0.42    0.0
2022/11/10 11:04:41.416    9.042483995    7.399406206   453.8782   4   0   0.0237   0.0239   0.0683   0.0088   0.0177   0.0242   0.42    0.0
2022/11/10 11:04:42.416    9.042484013    7.399406209   453.8817   4   0   0.0237   0.0239   0.0683   0.0088   0.0177   0.0242   0.42    0.0
2022/11/10 11:04:43.416    9.042484005    7.399406200   453.8826   4   0   0.0237   0.0239   0.0683   0.0088   0.0177   0.0242   0.42    0.0
2022/11/10 11:04:44.416    9.042484013    7.399406202   453.8855   4   0   0.0237   0.0239   0.0683   0.0088   0.0177   0.0242   0.42    0.0
2022/11/10 11:04:45.416    9.042484002    7.399406202   453.8816   4   0   0.0237   0.0239   0.0683   0.0088   0.0177   0.0242   0.42    0.0
2022/11/10 11:04:46.416    9.042484018    7.399406193   453.8862   4   0   0.0237   0.0239   0.0683   0.0088   0.0177   0.0242   0.42    0.0
2022/11/10 11:04:47.416    9.042484010    7.399406196   453.8833   4   0   0.0237   0.0239   0.0683   0.0088   0.0177   0.0242   0.42    0.0
2022/11/10 11:04:48.416    9.042484012    7.399406203   453.8836   4   0   0.0237   0.0239   0.0683   0.0088   0.0177   0.0242   0.42    0.0
2022/11/10 11:04:49.416    9.042484013    7.399406205   453.8891   4   0   0.0237   0.0239   0.0683   0.0088   0.0177   0.0242   0.42    0.0
2022/11/10 11:04:50.416    9.042483987    7.399406209   453.8849   4   0   0.0237   0.0239   0.0683   0.0088   0.0177   0.0242   0.42    0.0
2022/11/10 11:04:51.416    9.042484000    7.399406203   453.8874   4   0   0.0237   0.0239   0.0683   0.0088   0.0177   0.0242   0.42    0.0
2022/11/10 11:04:52.416    9.042484010    7.399406203   453.8891   4   0   0.0237   0.0239   0.0683   0.0088   0.0177   0.0242   0.42    0.0
2022/11/10 11:04:53.416    9.042484008    7.399406185   453.8833   4   0   0.0237   0.0239   0.0683   0.0088   0.0177   0.0242   0.42    0.0
2022/11/10 11:04:54.416    9.042483992    7.399406197   453.8846   4   0   0.0237   0.0239   0.0683   0.0088   0.0177   0.0242   0.42    0.0
2022/11/10 11:04:55.416    9.042484005    7.399406214   453.8881   4   0   0.0237   0.0239   0.0683   0.0088   0.0177   0.0242   0.42    0.0
2022/11/10 11:04:56.416    9.042484010    7.399406215   453.8853   4   0   0.0237   0.0239   0.0683   0.0088   0.0177   0.0242   0.42    0.0
2022/11/10 11:04:57.416    9.042483991    7.399406210   453.8811   4   0   0.0237   0.0239   0.0683   0.0088   0.0177   0.0242   0.42    0.0
2022/11/10 11:04:58.416    9.042484003    7.399406208   453.8812   4   0   0.0237   0.0239   0.0683   0.0088   0.0177   0.0242   0.42    0.0
2022/11/10 11:04:59.416    9.042483980    7.399406207   453.8800   4   0   0.0237   0.0239   0.0683   0.0088   0.0177   0.0242   0.42    0.0
2022/11/10 11:05:00.416    9.042483997    7.399406211   453.8819   4   0   0.0237   0.0239   0.0683   0.0088   0.0177   0.0242   0.42    0.0
2022/11/10 11:05:01.416    9.042483995    7.399406191   453.8835   4   0   0.0237   0.0239   0.0683   0.0088   0.0177   0.0242   0.42    0.0
2022/11/10 11:05:02.416    9.042483994    7.399406197   453.8796   4   0   0.0237   0.0239   0.0683   0.0088   0.0177   0.0242   0.42    0.0
2022/11/10 11:05:03.416    9.042484001    7.399406202   453.8822   4   0   0.0237   0.0239   0.0683   0.0088   0.0177   0.0242   0.42    0.0
2022/11/10 11:05:04.416    9.042484008    7.399406197   453.8816   4   0   0.0237   0.0239   0.0683   0.0088   0.0177   0.0242   0.42    0.0
2022/11/10 11:05:05.416    9.042484001    7.399406198   453.8811   4   0   0.0237   0.0239   0.0683   0.0088   0.0177   0.0242   0.42    0.0
2022/11/10 11:05:06.416    9.042484001    7.399406208   453.8798   4   0   0.0237   0.0239   0.0683   0.0088   0.0177   0.0242   0.42    0.0
2022/11/10 11:05:07.416    9.042484014    7.399406191   453.8818   4   0   0.0237   0.0239   0.0683   0.0088   0.0177   0.0242   0.42    0.0
2022/11/10 11:05:08.416    9.042483991    7.399406193   453.8761   4   0   0.0237   0.0239   0.0683   0.0088   0.0177   0.0242   0.42    0.0
2022/11/10 11:05:09.416    9.042484004    7.399406185   453.8802   4   0   0.0237   0.0239   0.0683   0.0088   0.0177   0.0242   0.42    0.0
2022/11/10 11:05:10.416    9.042484012    7.399406191   453.8836   4   0   0.0237   0.0239   0.0683   0.0088   0.0177   0.0242   0.42    0.0
2022/11/10 11:05:11.416    9.042484007    7.399406198   453.8813   4   0   0.0237   0.0239   0.0683   0.0088   0.0177   0.0242   0.42    0.0
2022/11/10 11:05:12.416    9.042484016    7.399406194   453.8796   4   0   0.0237   0.0239   0.0683   0.0088   0.0177   0.0242   0.42    0.0
2022/11/10 11:05:13.416    9.042484007    7.399406191   453.8758   4   0   0.0237   0.0239   0.0683   0.0088   0.0177   0.0242   0.42    0.0
2022/11/10 11:05:14.416    9.042484015    7.399406206   453.8785   4   0   0.0237   0.0239   0.0683   0.0088   0.0177   0.0242   0.42    0.0
2022/11/10 11:05:15.416    9.042484012    7.399406207   453.8782   4   0   0.0237   0.0239   0.0683   0.0088   0.0177   0.0242   0.42    0.0
2022/11/10 11:05:16.416    9.042484007    7.399406206   453.8769   4   0   0.0237   0.0239   0.0683   0.0088   0.0177   0.0242   0.42    0.0
2022/11/10 11:05:17.416    9.042484003    7.399406209   453.8773   4   0   0.0237   0.0239   0.0683   0.0088   0.0177   0.0242   0.42    0.0
2022/11/10 11:05:18.416    9.042484000    7.399406206   453.8823   4   0   0.0237   0.0239   0.0683   0.0088   0.0177   0.0242   0.42    0.0
2022/11/10 11:05:19.416    9.042484006    7.399406198   453.8841   4   0   0.0237   0.0239   0.0683   0.0088   0.0177   0.0242   0.42    0.0
2022/11/10 11:05:20.416    9.042483987    7.399406193   453.8798   4   0   0.0237   0.0239   0.0683   0.0088   0.0177   0.0242   0.42    0.0
2022/11/10 11:05:21.416    9.042483989    7.399406193   453.8781   4   0   0.0237   0.0239   0.0683   0.0088   0.0177   0.0242   0.42    0.0
2022/11/10 11:05:22.416    9.042483987    7.399406183   453.8763   4   0   0.0237   0.0239   0.0683   0.0088   0.0177   0.0242   0.42    0.0
2022/11/10 11:05:23.416    9.042483979    7.399406188   453.8829   4   0   0.0237   0.0239   0.0683   0.0088   0.0177   0.0242   0.42    0.0
2022/11/10 11:05:24.416    9.042483980    7.399406183   453.8803   4   0   0.0237   0.0239   0.0683   0.0088   0.0177   0.0242   0.42    0.0
2022/11/10 11:05:25.416    9.042483982    7.399406167   453.8836   4   0   0.0237   0.0239   0.0683   0.0088   0.0177   0.0242   0.42    0.0
2022/11/10 11:05:26.416    9.042483986    7.399406174   453.8822   4   0   0.0237   0.0239   0.0683   0.0088   0.0177   0.0242   0.42    0.0
2022/11/10 11:05:27.416    9.042483977    7.399406184   453.8803   4   0   0.0237   0.0239   0.0683   0.0088   0.0177   0.0242   0.42    0.0
2022/11/10 11:05:28.416    9.042483996    7.399406175   453.8824   4   0   0.0237   0.0239   0.0683   0.0088   0.0177   0.0242   0.42    0.0
2022/11/10 11:05:29.416    9.042483985    7.399406180   453.8802   4   0   0.0237   0.0239   0.0683   0.0088   0.0177   0.0242   0.42    0.0
2022/11/10 11:05:30.416    9.042483966    7.399406163   453.8769   4   0   0.0237   0.0239   0.0683   0.0088   0.0177   0.0242   0.42    0.0
2022/11/10 11:05:31.416    9.042483961    7.399406161   453.8768   4   0   0.0237   0.0239   0.0683   0.0088   0.0177   0.0242   0.42    0.0
2022/11/10 11:05:32.416    9.042483966    7.399406181   453.8747   4   0   0.0237   0.0239   0.0683   0.0088   0.0177   0.0242   0.42    0.0
2022/11/10 11:05:33.416    9.042483968    7.399406164   453.8724   4   0   0.0237   0.0239   0.0683   0.0088   0.0177   0.0242   0.42    0.0
2022/11/10 11:05:34.416    9.042483962    7.399406155   453.8745   4   0   0.0237   0.0239   0.0683   0.0088   0.0177   0.0242   0.42    0.0
2022/11/10 11:05:35.416    9.042483969    7.399406165   453.8734   4   0   0.0237   0.0239   0.0683   0.0088   0.0177   0.0242   0.42    0.0
2022/11/10 11:05:36.416    9.042483972    7.399406152   453.8743   4   0   0.0237   0.0239   0.0683   0.0088   0.0177   0.0242   0.42    0.0
2022/11/10 11:05:37.416    9.042483959    7.399406153   453.8799   4   0   0.0237   0.0239   0.0683   0.0088   0.0177   0.0242   0.42    0.0
2022/11/10 11:05:38.416    9.042483976    7.399406163   453.8819   4   0   0.0237   0.0239   0.0683   0.0088   0.0177   0.0242   0.42    0.0
2022/11/10 11:05:39.416    9.042483969    7.399406166   453.8811   4   0   0.0237   0.0239   0.0683   0.0088   0.0177   0.0242   0.42    0.0
2022/11/10 11:05:40.416    9.042483963    7.399406160   453.8784   4   0   0.0237   0.0239   0.0683   0.0088   0.0177   0.0242   0.42    0.0
2022/11/10 11:05:41.416    9.042483958    7.399406139   453.8781   4   0   0.0237   0.0239   0.0683   0.0088   0.0177   0.0242   0.42    0.0
2022/11/10 11:05:42.416    9.042483948    7.399406163   453.8758   4   0   0.0237   0.0239   0.0683   0.0088   0.0177   0.0242   0.42    0.0
2022/11/10 11:05:43.416    9.042483961    7.399406158   453.8758   4   0   0.0237   0.0239   0.0683   0.0088   0.0177   0.0242   0.42    0.0
2022/11/10 11:05:44.416    9.042483979    7.399406141   453.8786   4   0   0.0237   0.0239   0.0683   0.0088   0.0177   0.0242   0.42    0.0
2022/11/10 11:05:45.416    9.042483984    7.399406151   453.8821   4   0   0.0237   0.0239   0.0683   0.0088   0.0177   0.0242   0.42    0.0
2022/11/10 11:05:46.416    9.042483968    7.399406157   453.8769   4   0   0.0237   0.0239   0.0683   0.0088   0.0177   0.0242   0.42    0.0
2022/11/10 11:05:47.416    9.042483959    7.399406149   453.8754   4   0   0.0237   0.0239   0.0683   0.0088   0.0177   0.0242   0.42    0.0
2022/11/10 11:05:48.416    9.042483960    7.399406147   453.8776   4   0   0.0237   0.0239   0.0683   0.0088   0.0177   0.0242   0.42    0.0
2022/11/10 11:05:49.416    9.042483961    7.399406149   453.8757   4   0   0.0237   0.0239   0.0683   0.0088   0.0177   0.0242   0.42    0.0
2022/11/10 11:05:50.416    9.042483977    7.399406149   453.8807   4   0   0.0237   0.0239   0.0683   0.0088   0.0177   0.0242   0.42    0.0
2022/11/10 11:05:51.416    9.042483965    7.399406157   453.8804   4   0   0.0237   0.0239   0.0683   0.0088   0.0177   0.0242   0.42    0.0
2022/11/10 11:05:52.416    9.042483955    7.399406153   453.8769   4   0   0.0237   0.0239   0.0683   0.0088   0.0177   0.0242   0.42    0.0
2022/11/10 11:05:53.416    9.042483960    7.399406146   453.8803   4   0   0.0237   0.0239   0.0683   0.0088   0.0177   0.0242   0.42    0.0
2022/11/10 11:05:54.416    9.042483957    7.399406143   453.8800   4   0   0.0237   0.0239   0.0683   0.0088   0.0177   0.0242   0.42    0.0
2022/11/10 11:05:55.416    9.042483954    7.399406137   453.8799   4   0   0.0237   0.0239   0.0683   0.0088   0.0177   0.0242   0.42    0.0
2022/11/10 11:05:56.416    9.042483948    7.399406142   453.8756   4   0   0.0237   0.0239   0.0683   0.0088   0.0177   0.0242   0.42    0.0
2022/11/10 11:05:57.416    9.042483950    7.399406138   453.8776   4   0   0.0237   0.0239   0.0683   0.0088   0.0177   0.0242   0.42    0.0
2022/11/10 11:05:58.416    9.042483949    7.399406142   453.8766   4   0   0.0237   0.0239   0.0683   0.0088   0.0177   0.0242   0.42    0.0
2022/11/10 11:05:59.416    9.042483946    7.399406140   453.8758   4   0   0.0237   0.0239   0.0683   0.0088   0.0177   0.0242   0.42    0.0
2022/11/10 11:06:00.416    9.042483946    7.399406133   453.8750   4   0   0.0237   0.0239   0.0683   0.0088   0.0177   0.0242   0.42    0.0
2022/11/10 11:06:01.416    9.042483946    7.399406129   453.8746   4   0   0.0237   0.0239   0.0683   0.0088   0.0177   0.0242   0.42    0.0
2022/11/10 11:06:02.416    9.042483937    7.399406129   453.8713   4   0   0.0237   0.0239   0.0683   0.0088   0.0177   0.0242   0.42    0.0
2022/11/10 11:06:03.416    9.042483958    7.399406133   453.8765   4   0   0.0237   0.0239   0.0683   0.0088   0.0177   0.0242   0.42    0.0
2022/11/10 11:06:04.416    9.042483960    7.399406129   453.8722   4   0   0.0237   0.0239   0.0683   0.0088   0.0177   0.0242   0.42    0.0
2022/11/10 11:06:05.416    9.042483934    7.399406126   453.8679   4   0   0.0237   0.0239   0.0683   0.0088   0.0177   0.0242   0.42    0.0
2022/11/10 11:06:06.416    9.042483930    7.399406127   453.8664   4   0   0.0237   0.0239   0.0683   0.0088   0.0177   0.0242   0.42    0.0
2022/11/10 11:06:07.416    9.042483935    7.399406117   453.8643   4   0   0.0237   0.0239   0.0683   0.0088   0.0177   0.0242   0.42    0.0
2022/11/10 11:06:08.416    9.042483939    7.399406124   453.8629   4   0   0.0237   0.0239   0.0683   0.0088   0.0177   0.0242   0.42    0.0
2022/11/10 11:06:09.416    9.042483928    7.399406122   453.8583   4   0   0.0237   0.0239   0.0683   0.0088   0.0177   0.0242   0.42    0.0
2022/11/10 11:06:10.416    9.042483936    7.399406122   453.8616   4   0   0.0237   0.0239   0.0683   0.0088   0.0177   0.0242   0.42    0.0
2022/11/10 11:06:11.416    9.042483937    7.399406131   453.8672   4   0   0.0237   0.0239   0.0683   0.0088   0.0177   0.0242   0.42    0.0
2022/11/10 11:06:12.416    9.042483952    7.399406122   453.8669   4   0   0.0237   0.0239   0.0683   0.0088   0.0177   0.0242   0.42    0.0
2022/11/10 11:06:13.416    9.042483938    7.399406118   453.8659   4   0   0.0237   0.0239   0.0683   0.0088   0.0177   0.0242   0.42    0.0
2022/11/10 11:06:14.416    9.042483960    7.399406132   453.8686   4   0   0.0237   0.0239   0.0683   0.0088   0.0177   0.0242   0.42    0.0
2022/11/10 11:06:15.416    9.042483952    7.399406120   453.8614   4   0   0.0237   0.0239   0.0683   0.0088   0.0177   0.0242   0.42    0.0
2022/11/10 11:06:16.416    9.042483952    7.399406120   453.8634   4   0   0.0237   0.0239   0.0683   0.0088   0.0177   0.0242   0.42    0.0
2022/11/10 11:06:17.416    9.042483944    7.399406134   453.8651   4   0   0.0237   0.0239   0.0683   0.0088   0.0177   0.0242   0.42    0.0
2022/11/10 11:06:18.416    9.042483939    7.399406132   453.8631   4   0   0.0237   0.0239   0.0683   0.0088   0.0177   0.0242   0.42    0.0
2022/11/10 11:06:19.416    9.042483955    7.399406126   453.8642   4   0   0.0237   0.0239   0.0683   0.0088   0.0177   0.0242   0.42    0.0
2022/11/10 11:06:20.416    9.042483929    7.399406122   453.8628   4   0   0.0237   0.0239   0.0683   0.0088   0.0177   0.0242   0.42    0.0
2022/11/10 11:06:21.416    9.042483939    7.399406137   453.8615   4   0   0.0237   0.0239   0.0683   0.0088   0.0177   0.0242   0.42    0.0
2022/11/10 11:06:22.416    9.042483940    7.399406114   453.8675   4   0   0.0237   0.0239   0.0683   0.0088   0.0177   0.0242   0.42    0.0
2022/11/10 11:06:23.416    9.042483951    7.399406126   453.8646   4   0   0.0237   0.0239   0.0683   0.0088   0.0177   0.0242   0.42    0.0
2022/11/10 11:06:24.416    9.042483954    7.399406130   453.8678   4   0   0.0237   0.0239   0.0683   0.0088   0.0177   0.0242   0.42    0.0
2022/11/10 11:06:25.416    9.042483946    7.399406120   453.8661   4   0   0.0237   0.0239   0.0683   0.0088   0.0177   0.0242   0.42    0.0
2022/11/10 11:06:26.416    9.042483953    7.399406120   453.8651   4   0   0.0237   0.0239   0.0683   0.0088   0.0177   0.0242   0.42    0.0
2022/11/10 11:06:27.416    9.042483954    7.399406115   453.8685   4   0   0.0237   0.0239   0.0683   0.0088   0.0177   0.0242   0.42    0.0
2022/11/10 11:06:28.416    9.042483947    7.399406119   453.8660   4   0   0.0237   0.0239   0.0683   0.0088   0.0177   0.0242   0.42    0.0
2022/11/10 11:06:29.416    9.042483965    7.399406126   453.8684   4   0   0.0237   0.0239   0.0683   0.0088   0.0177   0.0242   0.42    0.0
2022/11/10 11:06:30.416    9.042483956    7.399406126   453.8663   4   0   0.0237   0.0239   0.0683   0.0088   0.0177   0.0242   0.42    0.0
2022/11/10 11:06:31.416    9.042483945    7.399406127   453.8653   4   0   0.0237   0.0239   0.0683   0.0088   0.0177   0.0242   0.42    0.0
2022/11/10 11:06:32.416    9.042483944    7.399406130   453.8622   4   0   0.0237   0.0239   0.0683   0.0088   0.0177   0.0242   0.42    0.0
2022/11/10 11:06:33.416    9.042483944    7.399406123   453.8628   4   0   0.0237   0.0239   0.0683   0.0088   0.0177   0.0242   0.42    0.0
2022/11/10 11:06:34.416    9.042483941    7.399406129   453.8628   4   0   0.0237   0.0239   0.0683   0.0088   0.0177   0.0242   0.42    0.0
2022/11/10 11:06:35.416    9.042483939    7.399406115   453.8645   4   0   0.0237   0.0239   0.0683   0.0088   0.0177   0.0242   0.42    0.0
2022/11/10 11:06:36.416    9.042483934    7.399406121   453.8643   4   0   0.0237   0.0239   0.0683   0.0088   0.0177   0.0242   0.42    0.0
2022/11/10 11:06:37.416    9.042483940    7.399406132   453.8630   4   0   0.0237   0.0239   0.0683   0.0088   0.0177   0.0242   0.42    0.0
2022/11/10 11:06:38.416    9.042483950    7.399406119   453.8668   4   0   0.0237   0.0239   0.0683   0.0088   0.0177   0.0242   0.42    0.0
2022/11/10 11:06:39.416    9.042483965    7.399406124   453.8667   4   0   0.0237   0.0239   0.0683   0.0088   0.0177   0.0242   0.42    0.0
2022/11/10 11:06:40.416    9.042483954    7.399406115   453.8697   4   0   0.0237   0.0239   0.0683   0.0088   0.0177   0.0242   0.42    0.0
2022/11/10 11:06:41.416    9.042483952    7.399406131   453.8671   4   0   0.0237   0.0239   0.0683   0.0088   0.0177   0.0242   0.42    0.0
2022/11/10 11:06:42.416    9.042483963    7.399406114   453.8727   4   0   0.0237   0.0239   0.0683   0.0088   0.0177   0.0242   0.42    0.0
2022/11/10 11:06:43.416    9.042483942    7.399406126   453.8721   4   0   0.0237   0.0239   0.0683   0.0088   0.0177   0.0242   0.42    0.0
2022/11/10 11:06:44.416    9.042483945    7.399406113   453.8729   4   0   0.0237   0.0239   0.0683   0.0088   0.0177   0.0242   0.42    0.0
2022/11/10 11:06:45.416    9.042483940    7.399406114   453.8761   4   0   0.0237   0.0239   0.0683   0.0088   0.0177   0.0242   0.42    0.0
2022/11/10 11:06:46.416    9.042483942    7.399406110   453.8732   4   0   0.0237   0.0239   0.0683   0.0088   0.0177   0.0242   0.42    0.0
2022/11/10 11:06:47.416    9.042483943    7.399406106   453.8735   4   0   0.0237   0.0239   0.0683   0.0088   0.0177   0.0242   0.42    0.0
2022/11/10 11:06:48.416    9.042483927    7.399406116   453.8698   4   0   0.0237   0.0239   0.0683   0.0088   0.0177   0.0242   0.42    0.0
2022/11/10 11:06:49.416    9.042483921    7.399406107   453.8701   4   0   0.0237   0.0239   0.0683   0.0088   0.0177   0.0242   0.42    0.0
2022/11/10 11:06:50.416    9.042483927    7.399406108   453.8729   4   0   0.0237   0.0239   0.0683   0.0088   0.0177   0.0242   0.42    0.0
2022/11/10 11:06:51.416    9.042483932    7.399406115   453.8707   4   0   0.0237   0.0239   0.0683   0.0088   0.0177   0.0242   0.42    0.0
2022/11/10 11:06:52.416    9.042483940    7.399406108   453.8708   4   0   0.0237   0.0239   0.0683   0.0088   0.0177   0.0242   0.42    0.0
2022/11/10 11:06:53.416    9.042483942    7.399406112   453.8689   4   0   0.0237   0.0239   0.0683   0.0088   0.0177   0.0242   0.42    0.0
2022/11/10 11:06:54.416    9.042483941    7.399406105   453.8755   4   0   0.0237   0.0239   0.0683   0.0088   0.0177   0.0242   0.42    0.0
