% program   : RTKPOST ver.demo5 b34g
% inp file  : C:\Users\Abdullateef\Documents\PHD\Research on Precision Agriculture Navigation Technology\nav data\GNSS Log file\Geo++\GEOP314L.22o
% inp file  : C:\Users\Abdullateef\Documents\PHD\Research on Precision Agriculture Navigation Technology\nav data\GNSS Log file\Base file\ABFC00NGA_R_20223141100_01H_1S_MO.22D
% inp file  : C:\Users\Abdullateef\Documents\PHD\Research on Precision Agriculture Navigation Technology\nav data\GNSS Log file\Nav file\BRDC00WRD_S_20223140000_01D_MN.rnx\BRDC00WRD_S_20223140000_01D_MN.rnx
% obs start : 2022/11/10 11:00:00.4 GPST (week2235 385200.4s)
% obs end   : 2022/11/10 11:39:12.4 GPST (week2235 387552.4s)
% pos mode  : Static
% freqs     : L1+L2/E5b+L5
% solution  : Combined-No Phase Reset
% elev mask : 20.0 deg
% dynamics  : on
% tidecorr  : off
% ionos opt : Broadcast
% tropo opt : Saastamoinen
% ephemeris : Broadcast
% navi sys  : GPS GLONASS Galileo BDS
% amb res   : Fix and Hold
% amb glo   : Fix and Hold
% val thres : 3.0
% antenna1  :                       ( 0.0000  0.0000  0.0000)
% antenna2  :                       ( 0.0000  0.0000  0.0000)
% ref pos   :  9.027665666    7.486341687   532.6449
%
% (lat/lon/height=WGS84/ellipsoidal,Q=1:fix,2:float,3:sbas,4:dgps,5:single,6:ppp,ns=# of satellites)
%  GPST                  latitude(deg) longitude(deg)  height(m)   Q  ns   sdn(m)   sde(m)   sdu(m)  sdne(m)  sdeu(m)  sdun(m) age(s)  ratio
2022/11/10 11:00:00.416    9.042484145    7.399406819   453.7142   4   0   0.0240   0.0247   0.0730   0.0094   0.0144   0.0247   0.42    0.0
2022/11/10 11:00:01.416    9.042484161    7.399406810   453.7166   4   0   0.0240   0.0247   0.0730   0.0094   0.0144   0.0247   0.42    0.0
2022/11/10 11:00:02.416    9.042484174    7.399406817   453.7212   4   0   0.0240   0.0247   0.0730   0.0094   0.0144   0.0247   0.42    0.0
2022/11/10 11:00:03.416    9.042484178    7.399406817   453.7178   4   0   0.0240   0.0247   0.0730   0.0094   0.0144   0.0247   0.42    0.0
2022/11/10 11:00:04.416    9.042484185    7.399406807   453.7190   4   0   0.0240   0.0247   0.0730   0.0094   0.0144   0.0247   0.42    0.0
2022/11/10 11:00:05.416    9.042484216    7.399406798   453.7283   4   0   0.0240   0.0247   0.0730   0.0094   0.0144   0.0247   0.42    0.0
2022/11/10 11:00:06.416    9.042484219    7.399406762   453.7264   4   0   0.0240   0.0247   0.0730   0.0094   0.0144   0.0247   0.42    0.0
2022/11/10 11:00:07.416    9.042484263    7.399406770   453.7329   4   0   0.0240   0.0247   0.0730   0.0094   0.0144   0.0247   0.42    0.0
2022/11/10 11:00:08.416    9.042484285    7.399406755   453.7414   4   0   0.0240   0.0247   0.0730   0.0094   0.0144   0.0246   0.42    0.0
2022/11/10 11:00:09.416    9.042484261    7.399406775   453.7358   4   0   0.0240   0.0247   0.0730   0.0094   0.0144   0.0247   0.42    0.0
2022/11/10 11:00:10.416    9.042484275    7.399406773   453.7426   4   0   0.0240   0.0247   0.0730   0.0094   0.0144   0.0246   0.42    0.0
2022/11/10 11:00:11.416    9.042484260    7.399406779   453.7407   4   0   0.0240   0.0247   0.0730   0.0094   0.0144   0.0247   0.42    0.0
2022/11/10 11:00:12.416    9.042484269    7.399406772   453.7379   4   0   0.0240   0.0247   0.0730   0.0094   0.0144   0.0247   0.42    0.0
2022/11/10 11:00:13.416    9.042484260    7.399406763   453.7361   4   0   0.0240   0.0247   0.0730   0.0094   0.0144   0.0247   0.42    0.0
2022/11/10 11:00:14.416    9.042484279    7.399406770   453.7433   4   0   0.0240   0.0247   0.0730   0.0094   0.0144   0.0247   0.42    0.0
2022/11/10 11:00:15.416    9.042484284    7.399406766   453.7420   4   0   0.0240   0.0247   0.0730   0.0094   0.0144   0.0247   0.42    0.0
2022/11/10 11:00:16.416    9.042484285    7.399406766   453.7459   4   0   0.0240   0.0247   0.0730   0.0094   0.0144   0.0247   0.42    0.0
2022/11/10 11:00:17.416    9.042484289    7.399406765   453.7495   4   0   0.0240   0.0247   0.0730   0.0094   0.0144   0.0247   0.42    0.0
2022/11/10 11:00:18.416    9.042484283    7.399406770   453.7514   4   0   0.0240   0.0247   0.0730   0.0094   0.0144   0.0247   0.42    0.0
2022/11/10 11:00:19.416    9.042484277    7.399406769   453.7500   4   0   0.0240   0.0247   0.0730   0.0094   0.0144   0.0247   0.42    0.0
2022/11/10 11:00:20.416    9.042484321    7.399406756   453.7542   4   0   0.0240   0.0247   0.0730   0.0094   0.0144   0.0247   0.42    0.0
2022/11/10 11:00:21.416    9.042484304    7.399406763   453.7556   4   0   0.0240   0.0247   0.0730   0.0094   0.0144   0.0247   0.42    0.0
2022/11/10 11:00:22.416    9.042484326    7.399406764   453.7571   4   0   0.0240   0.0247   0.0730   0.0094   0.0144   0.0246   0.42    0.0
2022/11/10 11:00:23.416    9.042484307    7.399406767   453.7546   4   0   0.0240   0.0247   0.0730   0.0094   0.0144   0.0247   0.42    0.0
2022/11/10 11:00:24.416    9.042484295    7.399406753   453.7555   4   0   0.0240   0.0247   0.0730   0.0094   0.0144   0.0247   0.42    0.0
2022/11/10 11:00:25.416    9.042484293    7.399406753   453.7564   4   0   0.0240   0.0247   0.0730   0.0094   0.0144   0.0247   0.42    0.0
2022/11/10 11:00:26.416    9.042484301    7.399406773   453.7531   4   0   0.0240   0.0247   0.0730   0.0094   0.0144   0.0247   0.42    0.0
2022/11/10 11:00:27.416    9.042484305    7.399406771   453.7549   4   0   0.0240   0.0247   0.0730   0.0094   0.0144   0.0247   0.42    0.0
2022/11/10 11:00:28.416    9.042484307    7.399406758   453.7514   4   0   0.0240   0.0247   0.0730   0.0094   0.0144   0.0247   0.42    0.0
2022/11/10 11:00:29.416    9.042484301    7.399406761   453.7499   4   0   0.0240   0.0247   0.0730   0.0094   0.0144   0.0247   0.42    0.0
2022/11/10 11:00:30.416    9.042484299    7.399406766   453.7484   4   0   0.0240   0.0247   0.0730   0.0094   0.0144   0.0247   0.42    0.0
2022/11/10 11:00:31.416    9.042484306    7.399406760   453.7494   4   0   0.0240   0.0247   0.0730   0.0094   0.0144   0.0247   0.42    0.0
2022/11/10 11:00:32.416    9.042484292    7.399406743   453.7507   4   0   0.0240   0.0247   0.0730   0.0094   0.0144   0.0247   0.42    0.0
2022/11/10 11:00:33.416    9.042484292    7.399406760   453.7544   4   0   0.0240   0.0247   0.0730   0.0094   0.0144   0.0247   0.42    0.0
2022/11/10 11:00:34.416    9.042484296    7.399406761   453.7509   4   0   0.0240   0.0247   0.0730   0.0094   0.0144   0.0247   0.42    0.0
2022/11/10 11:00:35.416    9.042484300    7.399406762   453.7475   4   0   0.0240   0.0247   0.0730   0.0094   0.0144   0.0247   0.42    0.0
2022/11/10 11:00:36.416    9.042484312    7.399406782   453.7509   4   0   0.0240   0.0247   0.0730   0.0094   0.0144   0.0247   0.42    0.0
2022/11/10 11:00:37.416    9.042484301    7.399406775   453.7485   4   0   0.0240   0.0247   0.0730   0.0094   0.0144   0.0247   0.42    0.0
2022/11/10 11:00:38.416    9.042484309    7.399406765   453.7476   4   0   0.0240   0.0247   0.0730   0.0094   0.0144   0.0247   0.42    0.0
2022/11/10 11:00:39.416    9.042484307    7.399406770   453.7497   4   0   0.0240   0.0247   0.0730   0.0094   0.0144   0.0247   0.42    0.0
2022/11/10 11:00:40.416    9.042484296    7.399406773   453.7526   4   0   0.0240   0.0247   0.0730   0.0094   0.0144   0.0247   0.42    0.0
2022/11/10 11:00:41.416    9.042484306    7.399406769   453.7478   4   0   0.0240   0.0247   0.0730   0.0094   0.0144   0.0247   0.42    0.0
2022/11/10 11:00:42.416    9.042484306    7.399406756   453.7543   4   0   0.0240   0.0247   0.0730   0.0094   0.0144   0.0247   0.42    0.0
2022/11/10 11:00:43.416    9.042484293    7.399406770   453.7554   4   0   0.0240   0.0247   0.0730   0.0094   0.0144   0.0247   0.42    0.0
2022/11/10 11:00:44.416    9.042484302    7.399406767   453.7559   4   0   0.0240   0.0247   0.0730   0.0094   0.0144   0.0247   0.42    0.0
2022/11/10 11:00:45.416    9.042484315    7.399406776   453.7489   4   0   0.0240   0.0247   0.0730   0.0094   0.0144   0.0247   0.42    0.0
2022/11/10 11:00:46.416    9.042484315    7.399406796   453.7501   4   0   0.0240   0.0247   0.0730   0.0094   0.0144   0.0247   0.42    0.0
2022/11/10 11:00:47.416    9.042484314    7.399406786   453.7516   4   0   0.0240   0.0247   0.0730   0.0094   0.0144   0.0247   0.42    0.0
2022/11/10 11:00:48.416    9.042484301    7.399406761   453.7466   4   0   0.0240   0.0247   0.0730   0.0094   0.0144   0.0247   0.42    0.0
2022/11/10 11:00:49.416    9.042484316    7.399406786   453.7506   4   0   0.0240   0.0247   0.0730   0.0094   0.0144   0.0247   0.42    0.0
2022/11/10 11:00:50.416    9.042484329    7.399406786   453.7577   4   0   0.0240   0.0247   0.0730   0.0094   0.0144   0.0246   0.42    0.0
2022/11/10 11:00:51.416    9.042484307    7.399406780   453.7510   4   0   0.0240   0.0247   0.0730   0.0094   0.0144   0.0247   0.42    0.0
2022/11/10 11:00:52.416    9.042484311    7.399406768   453.7519   4   0   0.0240   0.0247   0.0730   0.0094   0.0144   0.0247   0.42    0.0
2022/11/10 11:00:53.416    9.042484307    7.399406772   453.7499   4   0   0.0240   0.0247   0.0730   0.0094   0.0144   0.0247   0.42    0.0
2022/11/10 11:00:54.416    9.042484307    7.399406777   453.7502   4   0   0.0240   0.0247   0.0730   0.0094   0.0144   0.0247   0.42    0.0
2022/11/10 11:00:55.416    9.042484301    7.399406766   453.7520   4   0   0.0240   0.0247   0.0730   0.0094   0.0144   0.0247   0.42    0.0
2022/11/10 11:00:56.416    9.042484307    7.399406778   453.7486   4   0   0.0240   0.0247   0.0730   0.0094   0.0144   0.0247   0.42    0.0
2022/11/10 11:00:57.416    9.042484296    7.399406763   453.7509   4   0   0.0240   0.0247   0.0730   0.0094   0.0144   0.0247   0.42    0.0
2022/11/10 11:00:58.416    9.042484298    7.399406749   453.7462   4   0   0.0240   0.0247   0.0730   0.0094   0.0144   0.0247   0.42    0.0
2022/11/10 11:00:59.416    9.042484300    7.399406756   453.7475   4   0   0.0240   0.0247   0.0730   0.0094   0.0144   0.0247   0.42    0.0
2022/11/10 11:01:00.416    9.042484315    7.399406764   453.7489   4   0   0.0240   0.0247   0.0730   0.0094   0.0144   0.0247   0.42    0.0
2022/11/10 11:01:01.416    9.042484311    7.399406756   453.7469   4   0   0.0240   0.0247   0.0730   0.0094   0.0144   0.0247   0.42    0.0
2022/11/10 11:01:02.416    9.042484311    7.399406765   453.7484   4   0   0.0240   0.0247   0.0730   0.0094   0.0144   0.0247   0.42    0.0
2022/11/10 11:01:03.416    9.042484309    7.399406760   453.7464   4   0   0.0240   0.0247   0.0730   0.0094   0.0144   0.0247   0.42    0.0
2022/11/10 11:01:04.416    9.042484321    7.399406767   453.7497   4   0   0.0240   0.0247   0.0730   0.0094   0.0144   0.0247   0.42    0.0
2022/11/10 11:01:05.416    9.042484302    7.399406773   453.7541   4   0   0.0240   0.0247   0.0730   0.0094   0.0144   0.0247   0.42    0.0
2022/11/10 11:01:06.416    9.042484310    7.399406764   453.7506   4   0   0.0240   0.0247   0.0730   0.0094   0.0144   0.0247   0.42    0.0
2022/11/10 11:01:07.416    9.042484312    7.399406770   453.7532   4   0   0.0240   0.0247   0.0730   0.0094   0.0144   0.0247   0.42    0.0
2022/11/10 11:01:08.416    9.042484312    7.399406766   453.7563   4   0   0.0240   0.0247   0.0730   0.0094   0.0144   0.0247   0.42    0.0
2022/11/10 11:01:09.416    9.042484313    7.399406765   453.7559   4   0   0.0240   0.0247   0.0730   0.0094   0.0144   0.0247   0.42    0.0
2022/11/10 11:01:10.416    9.042484306    7.399406757   453.7522   4   0   0.0240   0.0247   0.0730   0.0094   0.0144   0.0247   0.42    0.0
2022/11/10 11:01:11.416    9.042484310    7.399406762   453.7550   4   0   0.0240   0.0247   0.0730   0.0094   0.0144   0.0247   0.42    0.0
2022/11/10 11:01:12.416    9.042484312    7.399406760   453.7532   4   0   0.0240   0.0247   0.0730   0.0094   0.0144   0.0247   0.42    0.0
2022/11/10 11:01:13.416    9.042484308    7.399406769   453.7566   4   0   0.0240   0.0247   0.0730   0.0094   0.0144   0.0247   0.42    0.0
2022/11/10 11:01:14.416    9.042484320    7.399406771   453.7542   4   0   0.0240   0.0247   0.0730   0.0094   0.0144   0.0247   0.42    0.0
2022/11/10 11:01:15.416    9.042484317    7.399406763   453.7519   4   0   0.0240   0.0247   0.0730   0.0094   0.0144   0.0247   0.42    0.0
2022/11/10 11:01:16.416    9.042484304    7.399406751   453.7513   4   0   0.0240   0.0247   0.0730   0.0094   0.0144   0.0247   0.42    0.0
2022/11/10 11:01:17.416    9.042484298    7.399406749   453.7517   4   0   0.0240   0.0247   0.0730   0.0094   0.0144   0.0247   0.42    0.0
2022/11/10 11:01:18.416    9.042484307    7.399406753   453.7449   4   0   0.0240   0.0247   0.0730   0.0094   0.0144   0.0247   0.42    0.0
2022/11/10 11:01:19.416    9.042484317    7.399406727   453.7610   4   0   0.0240   0.0247   0.0730   0.0094   0.0144   0.0246   0.42    0.0
2022/11/10 11:01:20.416    9.042484288    7.399406727   453.7559   4   0   0.0240   0.0247   0.0730   0.0094   0.0144   0.0247   0.42    0.0
2022/11/10 11:01:21.416    9.042484314    7.399406723   453.7612   4   0   0.0240   0.0247   0.0730   0.0094   0.0144   0.0246   0.42    0.0
2022/11/10 11:01:22.416    9.042484297    7.399406721   453.7585   4   0   0.0240   0.0247   0.0730   0.0094   0.0144   0.0246   0.42    0.0
2022/11/10 11:01:23.416    9.042484287    7.399406717   453.7573   4   0   0.0240   0.0247   0.0730   0.0094   0.0144   0.0247   0.42    0.0
2022/11/10 11:01:24.416    9.042484280    7.399406715   453.7605   4   0   0.0240   0.0247   0.0730   0.0094   0.0144   0.0247   0.42    0.0
2022/11/10 11:01:25.416    9.042484286    7.399406716   453.7599   4   0   0.0240   0.0247   0.0730   0.0094   0.0144   0.0247   0.42    0.0
2022/11/10 11:01:26.416    9.042484285    7.399406727   453.7596   4   0   0.0240   0.0247   0.0730   0.0094   0.0144   0.0247   0.42    0.0
2022/11/10 11:01:27.416    9.042484289    7.399406721   453.7567   4   0   0.0240   0.0247   0.0730   0.0094   0.0144   0.0247   0.42    0.0
2022/11/10 11:01:28.416    9.042484289    7.399406738   453.7610   4   0   0.0240   0.0247   0.0730   0.0094   0.0144   0.0247   0.42    0.0
2022/11/10 11:01:29.416    9.042484309    7.399406714   453.7648   4   0   0.0240   0.0247   0.0730   0.0094   0.0144   0.0246   0.42    0.0
2022/11/10 11:01:30.416    9.042484276    7.399406727   453.7612   4   0   0.0240   0.0247   0.0730   0.0094   0.0144   0.0247   0.42    0.0
2022/11/10 11:01:31.416    9.042484287    7.399406733   453.7600   4   0   0.0240   0.0247   0.0730   0.0094   0.0144   0.0247   0.42    0.0
2022/11/10 11:01:32.416    9.042484271    7.399406717   453.7625   4   0   0.0240   0.0247   0.0730   0.0094   0.0144   0.0247   0.42    0.0
2022/11/10 11:01:33.416    9.042484286    7.399406729   453.7593   4   0   0.0240   0.0247   0.0730   0.0094   0.0144   0.0247   0.42    0.0
2022/11/10 11:01:34.416    9.042484277    7.399406723   453.7559   4   0   0.0240   0.0247   0.0730   0.0094   0.0144   0.0247   0.42    0.0
2022/11/10 11:01:35.416    9.042484305    7.399406719   453.7569   4   0   0.0240   0.0247   0.0730   0.0094   0.0144   0.0246   0.42    0.0
2022/11/10 11:01:36.416    9.042484278    7.399406717   453.7534   4   0   0.0240   0.0247   0.0730   0.0094   0.0144   0.0247   0.42    0.0
2022/11/10 11:01:37.416    9.042484276    7.399406724   453.7494   4   0   0.0240   0.0247   0.0730   0.0094   0.0144   0.0247   0.42    0.0
2022/11/10 11:01:38.416    9.042484289    7.399406724   453.7495   4   0   0.0240   0.0247   0.0730   0.0094   0.0144   0.0247   0.42    0.0
2022/11/10 11:01:39.416    9.042484282    7.399406722   453.7477   4   0   0.0240   0.0247   0.0730   0.0094   0.0144   0.0247   0.42    0.0
2022/11/10 11:01:40.416    9.042484277    7.399406712   453.7521   4   0   0.0240   0.0247   0.0730   0.0094   0.0144   0.0247   0.42    0.0
2022/11/10 11:01:41.416    9.042484287    7.399406728   453.7537   4   0   0.0240   0.0247   0.0730   0.0094   0.0144   0.0247   0.42    0.0
2022/11/10 11:01:42.416    9.042484284    7.399406725   453.7533   4   0   0.0240   0.0247   0.0730   0.0094   0.0144   0.0247   0.42    0.0
2022/11/10 11:01:43.416    9.042484284    7.399406726   453.7495   4   0   0.0240   0.0247   0.0730   0.0094   0.0144   0.0246   0.42    0.0
2022/11/10 11:01:44.416    9.042484285    7.399406730   453.7554   4   0   0.0240   0.0247   0.0730   0.0094   0.0144   0.0247   0.42    0.0
2022/11/10 11:01:45.416    9.042484298    7.399406727   453.7539   4   0   0.0240   0.0247   0.0730   0.0094   0.0144   0.0246   0.42    0.0
2022/11/10 11:01:46.416    9.042484295    7.399406725   453.7544   4   0   0.0240   0.0247   0.0730   0.0094   0.0144   0.0246   0.42    0.0
2022/11/10 11:01:47.416    9.042484288    7.399406727   453.7554   4   0   0.0240   0.0247   0.0730   0.0094   0.0144   0.0246   0.42    0.0
2022/11/10 11:01:48.416    9.042484287    7.399406730   453.7527   4   0   0.0240   0.0247   0.0730   0.0094   0.0144   0.0247   0.42    0.0
2022/11/10 11:01:49.416    9.042484299    7.399406735   453.7597   4   0   0.0240   0.0247   0.0730   0.0094   0.0144   0.0246   0.42    0.0
2022/11/10 11:01:50.416    9.042484280    7.399406731   453.7562   4   0   0.0240   0.0247   0.0730   0.0094   0.0144   0.0247   0.42    0.0
2022/11/10 11:01:51.416    9.042484281    7.399406734   453.7566   4   0   0.0240   0.0247   0.0730   0.0094   0.0144   0.0247   0.42    0.0
2022/11/10 11:01:52.416    9.042484281    7.399406726   453.7536   4   0   0.0240   0.0247   0.0730   0.0094   0.0144   0.0247   0.42    0.0
2022/11/10 11:01:53.416    9.042484278    7.399406715   453.7537   4   0   0.0240   0.0247   0.0730   0.0094   0.0144   0.0247   0.42    0.0
2022/11/10 11:01:54.416    9.042484279    7.399406730   453.7508   4   0   0.0240   0.0247   0.0730   0.0094   0.0144   0.0247   0.42    0.0
2022/11/10 11:01:55.416    9.042484271    7.399406727   453.7535   4   0   0.0240   0.0247   0.0730   0.0094   0.0144   0.0247   0.42    0.0
2022/11/10 11:01:56.416    9.042484278    7.399406735   453.7503   4   0   0.0240   0.0247   0.0730   0.0094   0.0144   0.0247   0.42    0.0
2022/11/10 11:01:57.416    9.042484280    7.399406734   453.7514   4   0   0.0240   0.0247   0.0730   0.0094   0.0144   0.0247   0.42    0.0
2022/11/10 11:01:58.416    9.042484248    7.399406733   453.7439   4   0   0.0240   0.0247   0.0730   0.0094   0.0144   0.0247   0.42    0.0
2022/11/10 11:01:59.416    9.042484271    7.399406736   453.7446   4   0   0.0240   0.0247   0.0730   0.0094   0.0144   0.0247   0.42    0.0
2022/11/10 11:02:00.416    9.042484247    7.399406727   453.7407   4   0   0.0240   0.0247   0.0730   0.0094   0.0144   0.0247   0.42    0.0
2022/11/10 11:02:01.416    9.042484255    7.399406746   453.7405   4   0   0.0240   0.0247   0.0730   0.0094   0.0144   0.0247   0.42    0.0
2022/11/10 11:02:02.416    9.042484251    7.399406731   453.7387   4   0   0.0240   0.0247   0.0730   0.0094   0.0144   0.0247   0.42    0.0
2022/11/10 11:02:03.416    9.042484251    7.399406724   453.7410   4   0   0.0240   0.0247   0.0730   0.0094   0.0144   0.0247   0.42    0.0
2022/11/10 11:02:04.416    9.042484245    7.399406712   453.7387   4   0   0.0240   0.0247   0.0730   0.0094   0.0144   0.0247   0.42    0.0
2022/11/10 11:02:05.416    9.042484241    7.399406712   453.7354   4   0   0.0240   0.0247   0.0730   0.0094   0.0144   0.0247   0.42    0.0
2022/11/10 11:02:06.416    9.042484232    7.399406693   453.7353   4   0   0.0240   0.0247   0.0730   0.0094   0.0144   0.0247   0.42    0.0
2022/11/10 11:02:07.416    9.042484227    7.399406691   453.7318   4   0   0.0240   0.0247   0.0730   0.0094   0.0144   0.0247   0.42    0.0
2022/11/10 11:02:08.416    9.042484227    7.399406667   453.7335   4   0   0.0240   0.0247   0.0730   0.0094   0.0144   0.0247   0.42    0.0
2022/11/10 11:02:09.416    9.042484231    7.399406678   453.7335   4   0   0.0240   0.0247   0.0730   0.0094   0.0144   0.0247   0.42    0.0
2022/11/10 11:02:10.416    9.042484226    7.399406669   453.7348   4   0   0.0240   0.0247   0.0730   0.0094   0.0144   0.0247   0.42    0.0
2022/11/10 11:02:11.416    9.042484211    7.399406674   453.7405   4   0   0.0240   0.0247   0.0730   0.0094   0.0144   0.0247   0.42    0.0
2022/11/10 11:02:12.416    9.042484219    7.399406660   453.7383   4   0   0.0240   0.0247   0.0730   0.0094   0.0144   0.0247   0.42    0.0
2022/11/10 11:02:13.416    9.042484224    7.399406693   453.7398   4   0   0.0240   0.0247   0.0730   0.0094   0.0144   0.0247   0.42    0.0
2022/11/10 11:02:14.416    9.042484227    7.399406659   453.7349   4   0   0.0240   0.0247   0.0730   0.0094   0.0144   0.0247   0.42    0.0
2022/11/10 11:02:15.416    9.042484222    7.399406671   453.7332   4   0   0.0240   0.0247   0.0730   0.0094   0.0144   0.0247   0.42    0.0
2022/11/10 11:02:16.416    9.042484210    7.399406653   453.7356   4   0   0.0240   0.0247   0.0730   0.0094   0.0144   0.0247   0.42    0.0
2022/11/10 11:02:17.416    9.042484216    7.399406653   453.7297   4   0   0.0240   0.0247   0.0730   0.0094   0.0144   0.0247   0.42    0.0
2022/11/10 11:02:18.416    9.042484211    7.399406653   453.7297   4   0   0.0240   0.0247   0.0730   0.0094   0.0144   0.0246   0.42    0.0
2022/11/10 11:02:19.416    9.042484205    7.399406648   453.7312   4   0   0.0240   0.0247   0.0730   0.0094   0.0144   0.0247   0.42    0.0
2022/11/10 11:02:20.416    9.042484210    7.399406633   453.7318   4   0   0.0240   0.0247   0.0730   0.0094   0.0144   0.0246   0.42    0.0
2022/11/10 11:02:21.416    9.042484171    7.399406639   453.7235   4   0   0.0240   0.0247   0.0730   0.0094   0.0144   0.0246   0.42    0.0
2022/11/10 11:02:22.416    9.042484169    7.399406623   453.7252   4   0   0.0240   0.0247   0.0730   0.0094   0.0144   0.0246   0.42    0.0
2022/11/10 11:02:23.416    9.042484192    7.399406630   453.7348   4   0   0.0240   0.0247   0.0730   0.0094   0.0144   0.0246   0.42    0.0
2022/11/10 11:02:24.416    9.042484195    7.399406621   453.7389   4   0   0.0240   0.0247   0.0730   0.0094   0.0144   0.0246   0.42    0.0
2022/11/10 11:02:25.416    9.042484193    7.399406635   453.7282   4   0   0.0240   0.0247   0.0730   0.0094   0.0144   0.0246   0.42    0.0
2022/11/10 11:02:26.416    9.042484198    7.399406624   453.7356   4   0   0.0240   0.0247   0.0730   0.0094   0.0144   0.0246   0.42    0.0
2022/11/10 11:02:27.416    9.042484185    7.399406629   453.7314   4   0   0.0240   0.0247   0.0730   0.0094   0.0144   0.0246   0.42    0.0
2022/11/10 11:02:28.416    9.042484201    7.399406626   453.7379   4   0   0.0240   0.0247   0.0730   0.0094   0.0144   0.0246   0.42    0.0
2022/11/10 11:02:29.416    9.042484197    7.399406636   453.7334   4   0   0.0240   0.0247   0.0730   0.0094   0.0144   0.0246   0.42    0.0
2022/11/10 11:02:30.416    9.042484193    7.399406632   453.7312   4   0   0.0240   0.0247   0.0730   0.0094   0.0144   0.0246   0.42    0.0
2022/11/10 11:02:31.416    9.042484206    7.399406633   453.7308   4   0   0.0240   0.0247   0.0730   0.0094   0.0144   0.0246   0.42    0.0
2022/11/10 11:02:32.416    9.042484217    7.399406635   453.7336   4   0   0.0240   0.0247   0.0730   0.0094   0.0144   0.0246   0.42    0.0
2022/11/10 11:02:33.416    9.042484215    7.399406631   453.7325   4   0   0.0240   0.0247   0.0730   0.0094   0.0144   0.0246   0.42    0.0
2022/11/10 11:02:34.416    9.042484202    7.399406640   453.7269   4   0   0.0240   0.0247   0.0730   0.0094   0.0144   0.0246   0.42    0.0
2022/11/10 11:02:35.416    9.042484225    7.399406638   453.7353   4   0   0.0240   0.0247   0.0730   0.0094   0.0144   0.0246   0.42    0.0
2022/11/10 11:02:36.416    9.042484188    7.399406646   453.7238   4   0   0.0240   0.0247   0.0730   0.0094   0.0144   0.0246   0.42    0.0
2022/11/10 11:02:37.416    9.042484201    7.399406644   453.7243   4   0   0.0240   0.0247   0.0730   0.0094   0.0144   0.0246   0.42    0.0
2022/11/10 11:02:38.416    9.042484221    7.399406636   453.7310   4   0   0.0240   0.0247   0.0730   0.0094   0.0144   0.0246   0.42    0.0
2022/11/10 11:02:39.416    9.042484199    7.399406647   453.7254   4   0   0.0240   0.0247   0.0730   0.0094   0.0144   0.0246   0.42    0.0
2022/11/10 11:02:40.416    9.042484205    7.399406636   453.7322   4   0   0.0240   0.0247   0.0730   0.0094   0.0144   0.0246   0.42    0.0
2022/11/10 11:02:41.416    9.042484216    7.399406636   453.7321   4   0   0.0240   0.0247   0.0730   0.0094   0.0144   0.0246   0.42    0.0
2022/11/10 11:02:42.416    9.042484205    7.399406635   453.7314   4   0   0.0240   0.0247   0.0730   0.0094   0.0144   0.0247   0.42    0.0
2022/11/10 11:02:43.416    9.042484189    7.399406652   453.7286   4   0   0.0240   0.0247   0.0730   0.0094   0.0144   0.0247   0.42    0.0
2022/11/10 11:02:44.416    9.042484186    7.399406645   453.7296   4   0   0.0240   0.0247   0.0730   0.0094   0.0144   0.0247   0.42    0.0
2022/11/10 11:02:45.416    9.042484163    7.399406644   453.7311   4   0   0.0240   0.0247   0.0730   0.0094   0.0144   0.0247   0.42    0.0
2022/11/10 11:02:46.416    9.042484165    7.399406654   453.7258   4   0   0.0240   0.0247   0.0730   0.0094   0.0144   0.0247   0.42    0.0
2022/11/10 11:02:47.416    9.042484179    7.399406640   453.7283   4   0   0.0240   0.0247   0.0730   0.0094   0.0144   0.0247   0.42    0.0
2022/11/10 11:02:48.416    9.042484175    7.399406638   453.7280   4   0   0.0240   0.0247   0.0730   0.0094   0.0144   0.0247   0.42    0.0
2022/11/10 11:02:49.416    9.042484154    7.399406641   453.7253   4   0   0.0240   0.0247   0.0730   0.0094   0.0144   0.0247   0.42    0.0
2022/11/10 11:02:50.416    9.042484159    7.399406646   453.7255   4   0   0.0240   0.0247   0.0730   0.0094   0.0144   0.0247   0.42    0.0
2022/11/10 11:02:51.416    9.042484163    7.399406655   453.7208   4   0   0.0240   0.0247   0.0730   0.0094   0.0144   0.0247   0.42    0.0
2022/11/10 11:02:52.416    9.042484167    7.399406649   453.7207   4   0   0.0240   0.0247   0.0730   0.0094   0.0144   0.0247   0.42    0.0
2022/11/10 11:02:53.416    9.042484160    7.399406645   453.7177   4   0   0.0240   0.0247   0.0730   0.0094   0.0144   0.0247   0.42    0.0
2022/11/10 11:02:54.416    9.042484170    7.399406639   453.7229   4   0   0.0240   0.0247   0.0730   0.0094   0.0144   0.0247   0.42    0.0
2022/11/10 11:02:55.416    9.042484166    7.399406651   453.7165   4   0   0.0240   0.0247   0.0730   0.0094   0.0144   0.0247   0.42    0.0
2022/11/10 11:02:56.416    9.042484168    7.399406650   453.7161   4   0   0.0240   0.0247   0.0730   0.0094   0.0144   0.0247   0.42    0.0
2022/11/10 11:02:57.416    9.042484161    7.399406641   453.7178   4   0   0.0240   0.0247   0.0730   0.0094   0.0144   0.0247   0.42    0.0
2022/11/10 11:02:58.416    9.042484158    7.399406640   453.7131   4   0   0.0240   0.0247   0.0730   0.0094   0.0144   0.0247   0.42    0.0
2022/11/10 11:02:59.416    9.042484161    7.399406646   453.7167   4   0   0.0240   0.0247   0.0730   0.0094   0.0144   0.0247   0.42    0.0
2022/11/10 11:03:00.416    9.042484161    7.399406644   453.7184   4   0   0.0240   0.0247   0.0730   0.0094   0.0144   0.0247   0.42    0.0
2022/11/10 11:03:01.416    9.042484167    7.399406649   453.7207   4   0   0.0240   0.0247   0.0730   0.0094   0.0144   0.0247   0.42    0.0
2022/11/10 11:03:02.416    9.042484172    7.399406648   453.7213   4   0   0.0240   0.0247   0.0730   0.0094   0.0144   0.0247   0.42    0.0
2022/11/10 11:03:03.416    9.042484164    7.399406641   453.7222   4   0   0.0240   0.0247   0.0730   0.0094   0.0144   0.0247   0.42    0.0
2022/11/10 11:03:04.416    9.042484154    7.399406644   453.7201   4   0   0.0240   0.0247   0.0730   0.0094   0.0144   0.0247   0.42    0.0
2022/11/10 11:03:05.416    9.042484165    7.399406643   453.7173   4   0   0.0240   0.0247   0.0730   0.0094   0.0144   0.0247   0.42    0.0
2022/11/10 11:03:06.416    9.042484165    7.399406651   453.7183   4   0   0.0240   0.0247   0.0730   0.0094   0.0144   0.0247   0.42    0.0
2022/11/10 11:03:07.416    9.042484173    7.399406654   453.7201   4   0   0.0240   0.0247   0.0730   0.0094   0.0144   0.0247   0.42    0.0
2022/11/10 11:03:08.416    9.042484180    7.399406645   453.7229   4   0   0.0240   0.0247   0.0730   0.0094   0.0144   0.0247   0.42    0.0
2022/11/10 11:03:09.416    9.042484166    7.399406645   453.7192   4   0   0.0240   0.0247   0.0730   0.0094   0.0144   0.0247   0.42    0.0
2022/11/10 11:03:10.416    9.042484164    7.399406635   453.7181   4   0   0.0240   0.0247   0.0730   0.0094   0.0144   0.0247   0.42    0.0
2022/11/10 11:03:11.416    9.042484170    7.399406635   453.7148   4   0   0.0240   0.0247   0.0730   0.0094   0.0144   0.0247   0.42    0.0
2022/11/10 11:03:12.416    9.042484175    7.399406637   453.7154   4   0   0.0240   0.0247   0.0730   0.0094   0.0144   0.0247   0.42    0.0
2022/11/10 11:03:13.416    9.042484169    7.399406644   453.7070   4   0   0.0240   0.0247   0.0730   0.0094   0.0144   0.0247   0.42    0.0
2022/11/10 11:03:14.416    9.042484168    7.399406630   453.7112   4   0   0.0240   0.0247   0.0730   0.0094   0.0144   0.0247   0.42    0.0
2022/11/10 11:03:15.416    9.042484162    7.399406624   453.7119   4   0   0.0240   0.0247   0.0730   0.0094   0.0144   0.0247   0.42    0.0
2022/11/10 11:03:16.416    9.042484180    7.399406626   453.7118   4   0   0.0240   0.0247   0.0730   0.0094   0.0144   0.0247   0.42    0.0
2022/11/10 11:03:17.416    9.042484179    7.399406627   453.7110   4   0   0.0240   0.0247   0.0730   0.0094   0.0144   0.0247   0.42    0.0
2022/11/10 11:03:18.416    9.042484177    7.399406635   453.7099   4   0   0.0240   0.0247   0.0730   0.0094   0.0144   0.0247   0.42    0.0
2022/11/10 11:03:19.416    9.042484172    7.399406626   453.7121   4   0   0.0240   0.0247   0.0730   0.0094   0.0144   0.0247   0.42    0.0
2022/11/10 11:03:20.416    9.042484163    7.399406630   453.7095   4   0   0.0240   0.0247   0.0730   0.0094   0.0144   0.0247   0.42    0.0
2022/11/10 11:03:21.416    9.042484160    7.399406624   453.7037   4   0   0.0240   0.0247   0.0730   0.0094   0.0144   0.0247   0.42    0.0
2022/11/10 11:03:22.416    9.042484159    7.399406630   453.7036   4   0   0.0240   0.0247   0.0730   0.0094   0.0144   0.0247   0.42    0.0
2022/11/10 11:03:23.416    9.042484151    7.399406625   453.7010   4   0   0.0240   0.0247   0.0730   0.0094   0.0144   0.0247   0.42    0.0
2022/11/10 11:03:24.416    9.042484151    7.399406622   453.6949   4   0   0.0240   0.0247   0.0730   0.0094   0.0144   0.0247   0.42    0.0
2022/11/10 11:03:25.416    9.042484151    7.399406630   453.6954   4   0   0.0240   0.0247   0.0730   0.0094   0.0144   0.0247   0.42    0.0
2022/11/10 11:03:26.416    9.042484145    7.399406639   453.6949   4   0   0.0240   0.0247   0.0730   0.0094   0.0144   0.0247   0.42    0.0
2022/11/10 11:03:27.416    9.042484160    7.399406626   453.6967   4   0   0.0240   0.0247   0.0730   0.0094   0.0144   0.0247   0.42    0.0
2022/11/10 11:03:28.416    9.042484150    7.399406628   453.6943   4   0   0.0240   0.0247   0.0730   0.0094   0.0144   0.0247   0.42    0.0
2022/11/10 11:03:29.416    9.042484173    7.399406623   453.7004   4   0   0.0240   0.0247   0.0730   0.0094   0.0144   0.0247   0.42    0.0
2022/11/10 11:03:30.416    9.042484165    7.399406617   453.7017   4   0   0.0240   0.0247   0.0730   0.0094   0.0144   0.0247   0.42    0.0
2022/11/10 11:03:31.416    9.042484160    7.399406629   453.6979   4   0   0.0240   0.0247   0.0730   0.0094   0.0144   0.0247   0.42    0.0
2022/11/10 11:03:32.416    9.042484172    7.399406613   453.6984   4   0   0.0240   0.0247   0.0730   0.0094   0.0144   0.0247   0.42    0.0
2022/11/10 11:03:33.416    9.042484168    7.399406623   453.7016   4   0   0.0240   0.0247   0.0730   0.0094   0.0144   0.0247   0.42    0.0
2022/11/10 11:03:34.416    9.042484161    7.399406617   453.7026   4   0   0.0240   0.0247   0.0730   0.0094   0.0144   0.0247   0.42    0.0
2022/11/10 11:03:35.416    9.042484154    7.399406617   453.6957   4   0   0.0240   0.0247   0.0730   0.0094   0.0144   0.0247   0.42    0.0
2022/11/10 11:03:36.416    9.042484152    7.399406624   453.6996   4   0   0.0240   0.0247   0.0730   0.0094   0.0144   0.0247   0.42    0.0
2022/11/10 11:03:37.416    9.042484160    7.399406614   453.7021   4   0   0.0240   0.0247   0.0730   0.0094   0.0144   0.0247   0.42    0.0
2022/11/10 11:03:38.416    9.042484156    7.399406610   453.6962   4   0   0.0240   0.0247   0.0730   0.0094   0.0144   0.0247   0.42    0.0
2022/11/10 11:03:39.416    9.042484167    7.399406613   453.7019   4   0   0.0240   0.0247   0.0730   0.0094   0.0144   0.0247   0.42    0.0
2022/11/10 11:03:40.416    9.042484142    7.399406610   453.6959   4   0   0.0240   0.0247   0.0730   0.0094   0.0144   0.0247   0.42    0.0
2022/11/10 11:03:41.416    9.042484147    7.399406620   453.6945   4   0   0.0240   0.0247   0.0730   0.0094   0.0144   0.0247   0.42    0.0
2022/11/10 11:03:42.416    9.042484160    7.399406618   453.6974   4   0   0.0240   0.0247   0.0730   0.0094   0.0144   0.0247   0.42    0.0
2022/11/10 11:03:43.416    9.042484146    7.399406614   453.6933   4   0   0.0240   0.0247   0.0730   0.0094   0.0144   0.0247   0.42    0.0
2022/11/10 11:03:44.416    9.042484156    7.399406615   453.6961   4   0   0.0240   0.0247   0.0730   0.0094   0.0144   0.0247   0.42    0.0
2022/11/10 11:03:45.416    9.042484153    7.399406614   453.6910   4   0   0.0240   0.0247   0.0730   0.0094   0.0144   0.0247   0.42    0.0
2022/11/10 11:03:46.416    9.042484142    7.399406619   453.6861   4   0   0.0240   0.0247   0.0730   0.0094   0.0144   0.0247   0.42    0.0
2022/11/10 11:03:47.416    9.042484137    7.399406623   453.6884   4   0   0.0240   0.0247   0.0730   0.0094   0.0144   0.0247   0.42    0.0
2022/11/10 11:03:48.416    9.042484144    7.399406619   453.6855   4   0   0.0240   0.0247   0.0730   0.0094   0.0144   0.0247   0.42    0.0
2022/11/10 11:03:49.416    9.042484150    7.399406623   453.6912   4   0   0.0240   0.0247   0.0730   0.0094   0.0144   0.0247   0.42    0.0
2022/11/10 11:03:50.416    9.042484146    7.399406619   453.6865   4   0   0.0240   0.0247   0.0730   0.0094   0.0144   0.0247   0.42    0.0
2022/11/10 11:03:51.416    9.042484140    7.399406617   453.6879   4   0   0.0240   0.0247   0.0730   0.0094   0.0144   0.0247   0.42    0.0
2022/11/10 11:03:52.416    9.042484140    7.399406622   453.6857   4   0   0.0240   0.0247   0.0730   0.0094   0.0144   0.0247   0.42    0.0
2022/11/10 11:03:53.416    9.042484141    7.399406626   453.6874   4   0   0.0240   0.0247   0.0730   0.0094   0.0144   0.0247   0.42    0.0
2022/11/10 11:03:54.416    9.042484125    7.399406618   453.6849   4   0   0.0240   0.0247   0.0730   0.0094   0.0144   0.0247   0.42    0.0
2022/11/10 11:03:55.416    9.042484134    7.399406619   453.6883   4   0   0.0240   0.0247   0.0730   0.0094   0.0144   0.0247   0.42    0.0
2022/11/10 11:03:56.416    9.042484140    7.399406609   453.6896   4   0   0.0240   0.0247   0.0730   0.0094   0.0144   0.0247   0.42    0.0
2022/11/10 11:03:57.416    9.042484146    7.399406624   453.6903   4   0   0.0240   0.0247   0.0730   0.0094   0.0144   0.0247   0.42    0.0
2022/11/10 11:03:58.416    9.042484151    7.399406614   453.6924   4   0   0.0240   0.0247   0.0730   0.0094   0.0144   0.0247   0.42    0.0
2022/11/10 11:03:59.416    9.042484145    7.399406612   453.6917   4   0   0.0240   0.0247   0.0730   0.0094   0.0144   0.0247   0.42    0.0
2022/11/10 11:04:00.416    9.042484145    7.399406623   453.6907   4   0   0.0240   0.0247   0.0730   0.0094   0.0144   0.0247   0.42    0.0
2022/11/10 11:04:01.416    9.042484153    7.399406623   453.6873   4   0   0.0240   0.0247   0.0730   0.0094   0.0144   0.0247   0.42    0.0
2022/11/10 11:04:02.416    9.042484140    7.399406614   453.6837   4   0   0.0240   0.0247   0.0730   0.0094   0.0144   0.0247   0.42    0.0
2022/11/10 11:04:03.416    9.042484135    7.399406596   453.6905   4   0   0.0240   0.0247   0.0730   0.0094   0.0144   0.0247   0.42    0.0
2022/11/10 11:04:04.416    9.042484150    7.399406600   453.6889   4   0   0.0240   0.0247   0.0730   0.0094   0.0144   0.0247   0.42    0.0
2022/11/10 11:04:05.416    9.042484130    7.399406608   453.6853   4   0   0.0240   0.0247   0.0730   0.0094   0.0144   0.0247   0.42    0.0
2022/11/10 11:04:06.416    9.042484140    7.399406604   453.6881   4   0   0.0240   0.0247   0.0730   0.0094   0.0144   0.0247   0.42    0.0
2022/11/10 11:04:07.416    9.042484137    7.399406603   453.6897   4   0   0.0240   0.0247   0.0730   0.0094   0.0144   0.0247   0.42    0.0
2022/11/10 11:04:08.416    9.042484135    7.399406613   453.6872   4   0   0.0240   0.0247   0.0730   0.0094   0.0144   0.0247   0.42    0.0
2022/11/10 11:04:09.416    9.042484137    7.399406606   453.6865   4   0   0.0240   0.0247   0.0730   0.0094   0.0144   0.0247   0.42    0.0
2022/11/10 11:04:10.416    9.042484145    7.399406612   453.6929   4   0   0.0240   0.0247   0.0730   0.0094   0.0144   0.0247   0.42    0.0
2022/11/10 11:04:11.416    9.042484137    7.399406623   453.6903   4   0   0.0240   0.0247   0.0730   0.0094   0.0144   0.0247   0.42    0.0
2022/11/10 11:04:12.416    9.042484134    7.399406627   453.6895   4   0   0.0240   0.0247   0.0730   0.0094   0.0144   0.0247   0.42    0.0
2022/11/10 11:04:13.416    9.042484127    7.399406618   453.6852   4   0   0.0240   0.0247   0.0730   0.0094   0.0144   0.0247   0.42    0.0
2022/11/10 11:04:14.416    9.042484127    7.399406619   453.6897   4   0   0.0240   0.0247   0.0730   0.0094   0.0144   0.0247   0.42    0.0
2022/11/10 11:04:15.416    9.042484139    7.399406613   453.6900   4   0   0.0240   0.0247   0.0730   0.0094   0.0144   0.0247   0.42    0.0
2022/11/10 11:04:16.416    9.042484138    7.399406617   453.6899   4   0   0.0240   0.0247   0.0730   0.0094   0.0144   0.0247   0.42    0.0
2022/11/10 11:04:17.416    9.042484147    7.399406622   453.6920   4   0   0.0240   0.0247   0.0730   0.0094   0.0144   0.0247   0.42    0.0
2022/11/10 11:04:18.416    9.042484133    7.399406623   453.6909   4   0   0.0240   0.0247   0.0730   0.0094   0.0144   0.0247   0.42    0.0
2022/11/10 11:04:19.416    9.042484156    7.399406624   453.6940   4   0   0.0240   0.0247   0.0730   0.0094   0.0144   0.0247   0.42    0.0
2022/11/10 11:04:20.416    9.042484154    7.399406621   453.6953   4   0   0.0240   0.0247   0.0730   0.0094   0.0144   0.0247   0.42    0.0
2022/11/10 11:04:21.416    9.042484148    7.399406625   453.6946   4   0   0.0240   0.0247   0.0730   0.0094   0.0144   0.0247   0.42    0.0
2022/11/10 11:04:22.416    9.042484138    7.399406623   453.6904   4   0   0.0240   0.0247   0.0730   0.0094   0.0144   0.0247   0.42    0.0
2022/11/10 11:04:23.416    9.042484146    7.399406615   453.6933   4   0   0.0240   0.0247   0.0730   0.0094   0.0144   0.0247   0.42    0.0
2022/11/10 11:04:24.416    9.042484134    7.399406616   453.6917   4   0   0.0240   0.0247   0.0730   0.0094   0.0144   0.0247   0.42    0.0
2022/11/10 11:04:25.416    9.042484144    7.399406614   453.6918   4   0   0.0240   0.0247   0.0730   0.0094   0.0144   0.0247   0.42    0.0
2022/11/10 11:04:26.416    9.042484147    7.399406617   453.6952   4   0   0.0240   0.0247   0.0730   0.0094   0.0144   0.0247   0.42    0.0
2022/11/10 11:04:27.416    9.042484143    7.399406611   453.6957   4   0   0.0240   0.0247   0.0730   0.0094   0.0144   0.0247   0.42    0.0
2022/11/10 11:04:28.416    9.042484145    7.399406610   453.6943   4   0   0.0240   0.0247   0.0730   0.0094   0.0144   0.0247   0.42    0.0
2022/11/10 11:04:29.416    9.042484151    7.399406619   453.6983   4   0   0.0240   0.0247   0.0730   0.0094   0.0144   0.0247   0.42    0.0
2022/11/10 11:04:30.416    9.042484144    7.399406614   453.6940   4   0   0.0240   0.0247   0.0730   0.0094   0.0144   0.0247   0.42    0.0
2022/11/10 11:04:31.416    9.042484148    7.399406618   453.6926   4   0   0.0240   0.0247   0.0730   0.0094   0.0144   0.0247   0.42    0.0
2022/11/10 11:04:32.416    9.042484148    7.399406613   453.6934   4   0   0.0240   0.0247   0.0730   0.0094   0.0144   0.0247   0.42    0.0
2022/11/10 11:04:33.416    9.042484147    7.399406614   453.6923   4   0   0.0240   0.0247   0.0730   0.0094   0.0144   0.0247   0.42    0.0
2022/11/10 11:04:34.416    9.042484140    7.399406616   453.6915   4   0   0.0240   0.0247   0.0730   0.0094   0.0144   0.0247   0.42    0.0
2022/11/10 11:04:35.416    9.042484139    7.399406615   453.6908   4   0   0.0240   0.0247   0.0730   0.0094   0.0144   0.0247   0.42    0.0
2022/11/10 11:04:36.416    9.042484139    7.399406617   453.6909   4   0   0.0240   0.0247   0.0730   0.0094   0.0144   0.0247   0.42    0.0
2022/11/10 11:04:37.416    9.042484142    7.399406619   453.6910   4   0   0.0240   0.0247   0.0730   0.0094   0.0144   0.0247   0.42    0.0
2022/11/10 11:04:38.416    9.042484140    7.399406613   453.6911   4   0   0.0240   0.0247   0.0730   0.0094   0.0144   0.0247   0.42    0.0
2022/11/10 11:04:39.416    9.042484130    7.399406629   453.6872   4   0   0.0240   0.0247   0.0730   0.0094   0.0144   0.0247   0.42    0.0
2022/11/10 11:04:40.416    9.042484127    7.399406622   453.6869   4   0   0.0240   0.0247   0.0730   0.0094   0.0144   0.0247   0.42    0.0
2022/11/10 11:04:41.416    9.042484125    7.399406626   453.6855   4   0   0.0240   0.0247   0.0730   0.0094   0.0144   0.0247   0.42    0.0
2022/11/10 11:04:42.416    9.042484140    7.399406627   453.6876   4   0   0.0240   0.0247   0.0730   0.0094   0.0144   0.0247   0.42    0.0
2022/11/10 11:04:43.416    9.042484133    7.399406617   453.6894   4   0   0.0240   0.0247   0.0730   0.0094   0.0144   0.0247   0.42    0.0
2022/11/10 11:04:44.416    9.042484136    7.399406617   453.6906   4   0   0.0240   0.0247   0.0730   0.0094   0.0144   0.0247   0.42    0.0
2022/11/10 11:04:45.416    9.042484132    7.399406621   453.6895   4   0   0.0240   0.0247   0.0730   0.0094   0.0144   0.0247   0.42    0.0
2022/11/10 11:04:46.416    9.042484145    7.399406609   453.6935   4   0   0.0240   0.0247   0.0730   0.0094   0.0144   0.0247   0.42    0.0
2022/11/10 11:04:47.416    9.042484141    7.399406615   453.6919   4   0   0.0240   0.0247   0.0730   0.0094   0.0144   0.0247   0.42    0.0
2022/11/10 11:04:48.416    9.042484143    7.399406622   453.6915   4   0   0.0240   0.0247   0.0730   0.0094   0.0144   0.0247   0.42    0.0
2022/11/10 11:04:49.416    9.042484137    7.399406620   453.6950   4   0   0.0240   0.0247   0.0730   0.0094   0.0144   0.0247   0.42    0.0
2022/11/10 11:04:50.416    9.042484119    7.399406627   453.6940   4   0   0.0240   0.0247   0.0730   0.0094   0.0144   0.0247   0.42    0.0
2022/11/10 11:04:51.416    9.042484130    7.399406619   453.6959   4   0   0.0240   0.0247   0.0730   0.0094   0.0144   0.0247   0.42    0.0
2022/11/10 11:04:52.416    9.042484137    7.399406618   453.6967   4   0   0.0240   0.0247   0.0730   0.0094   0.0144   0.0247   0.42    0.0
2022/11/10 11:04:53.416    9.042484139    7.399406603   453.6921   4   0   0.0240   0.0247   0.0730   0.0094   0.0144   0.0247   0.42    0.0
2022/11/10 11:04:54.416    9.042484127    7.399406617   453.6951   4   0   0.0240   0.0247   0.0730   0.0094   0.0144   0.0247   0.42    0.0
2022/11/10 11:04:55.416    9.042484129    7.399406629   453.6939   4   0   0.0240   0.0247   0.0730   0.0094   0.0144   0.0247   0.42    0.0
2022/11/10 11:04:56.416    9.042484145    7.399406636   453.6947   4   0   0.0240   0.0247   0.0730   0.0094   0.0144   0.0247   0.42    0.0
2022/11/10 11:04:57.416    9.042484129    7.399406633   453.6917   4   0   0.0240   0.0247   0.0730   0.0094   0.0144   0.0247   0.42    0.0
2022/11/10 11:04:58.416    9.042484141    7.399406632   453.6919   4   0   0.0240   0.0247   0.0730   0.0094   0.0144   0.0247   0.42    0.0
2022/11/10 11:04:59.416    9.042484118    7.399406629   453.6908   4   0   0.0240   0.0247   0.0730   0.0094   0.0144   0.0247   0.42    0.0
2022/11/10 11:05:00.416    9.042484126    7.399406630   453.6890   4   0   0.0240   0.0247   0.0730   0.0094   0.0144   0.0247   0.42    0.0
2022/11/10 11:05:01.416    9.042484131    7.399406610   453.6942   4   0   0.0240   0.0247   0.0730   0.0094   0.0144   0.0247   0.42    0.0
2022/11/10 11:05:02.416    9.042484130    7.399406618   453.6896   4   0   0.0240   0.0247   0.0730   0.0094   0.0144   0.0247   0.42    0.0
2022/11/10 11:05:03.416    9.042484131    7.399406620   453.6899   4   0   0.0240   0.0247   0.0730   0.0094   0.0144   0.0247   0.42    0.0
2022/11/10 11:05:04.416    9.042484140    7.399406617   453.6900   4   0   0.0240   0.0247   0.0730   0.0094   0.0144   0.0247   0.42    0.0
2022/11/10 11:05:05.416    9.042484139    7.399406621   453.6920   4   0   0.0240   0.0247   0.0730   0.0094   0.0144   0.0247   0.42    0.0
2022/11/10 11:05:06.416    9.042484126    7.399406626   453.6852   4   0   0.0240   0.0247   0.0730   0.0094   0.0144   0.0247   0.42    0.0
2022/11/10 11:05:07.416    9.042484142    7.399406609   453.6890   4   0   0.0240   0.0247   0.0730   0.0094   0.0144   0.0247   0.42    0.0
2022/11/10 11:05:08.416    9.042484126    7.399406615   453.6855   4   0   0.0240   0.0247   0.0730   0.0094   0.0144   0.0247   0.42    0.0
2022/11/10 11:05:09.416    9.042484140    7.399406606   453.6904   4   0   0.0240   0.0247   0.0730   0.0094   0.0144   0.0247   0.42    0.0
2022/11/10 11:05:10.416    9.042484142    7.399406609   453.6920   4   0   0.0240   0.0247   0.0730   0.0094   0.0144   0.0247   0.42    0.0
2022/11/10 11:05:11.416    9.042484145    7.399406620   453.6918   4   0   0.0240   0.0247   0.0730   0.0094   0.0144   0.0247   0.42    0.0
2022/11/10 11:05:12.416    9.042484146    7.399406614   453.6869   4   0   0.0240   0.0247   0.0730   0.0094   0.0144   0.0247   0.42    0.0
2022/11/10 11:05:13.416    9.042484142    7.399406614   453.6848   4   0   0.0240   0.0247   0.0730   0.0094   0.0144   0.0247   0.42    0.0
2022/11/10 11:05:14.416    9.042484152    7.399406630   453.6878   4   0   0.0240   0.0247   0.0730   0.0094   0.0144   0.0247   0.42    0.0
2022/11/10 11:05:15.416    9.042484143    7.399406628   453.6854   4   0   0.0240   0.0247   0.0730   0.0094   0.0144   0.0247   0.42    0.0
2022/11/10 11:05:16.416    9.042484135    7.399406626   453.6824   4   0   0.0240   0.0247   0.0730   0.0094   0.0144   0.0247   0.42    0.0
2022/11/10 11:05:17.416    9.042484138    7.399406632   453.6859   4   0   0.0240   0.0247   0.0730   0.0094   0.0144   0.0247   0.42    0.0
2022/11/10 11:05:18.416    9.042484132    7.399406626   453.6910   4   0   0.0240   0.0247   0.0730   0.0094   0.0144   0.0247   0.42    0.0
2022/11/10 11:05:19.416    9.042484134    7.399406615   453.6914   4   0   0.0240   0.0247   0.0730   0.0094   0.0144   0.0247   0.42    0.0
2022/11/10 11:05:20.416    9.042484118    7.399406612   453.6881   4   0   0.0240   0.0247   0.0730   0.0094   0.0144   0.0247   0.42    0.0
2022/11/10 11:05:21.416    9.042484127    7.399406616   453.6890   4   0   0.0240   0.0247   0.0730   0.0094   0.0144   0.0247   0.42    0.0
2022/11/10 11:05:22.416    9.042484129    7.399406607   453.6885   4   0   0.0240   0.0247   0.0730   0.0094   0.0144   0.0247   0.42    0.0
2022/11/10 11:05:23.416    9.042484118    7.399406609   453.6951   4   0   0.0240   0.0247   0.0730   0.0094   0.0144   0.0247   0.42    0.0
2022/11/10 11:05:24.416    9.042484121    7.399406606   453.6933   4   0   0.0240   0.0247   0.0730   0.0094   0.0144   0.0247   0.42    0.0
2022/11/10 11:05:25.416    9.042484123    7.399406587   453.6976   4   0   0.0240   0.0247   0.0730   0.0094   0.0144   0.0247   0.42    0.0
2022/11/10 11:05:26.416    9.042484123    7.399406593   453.6938   4   0   0.0240   0.0247   0.0730   0.0094   0.0144   0.0247   0.42    0.0
2022/11/10 11:05:27.416    9.042484111    7.399406603   453.6900   4   0   0.0240   0.0247   0.0730   0.0094   0.0144   0.0247   0.42    0.0
2022/11/10 11:05:28.416    9.042484134    7.399406596   453.6943   4   0   0.0240   0.0247   0.0730   0.0094   0.0144   0.0247   0.42    0.0
2022/11/10 11:05:29.416    9.042484126    7.399406603   453.6932   4   0   0.0240   0.0247   0.0730   0.0094   0.0144   0.0247   0.42    0.0
2022/11/10 11:05:30.416    9.042484115    7.399406588   453.6932   4   0   0.0240   0.0247   0.0730   0.0094   0.0144   0.0247   0.42    0.0
2022/11/10 11:05:31.416    9.042484106    7.399406584   453.6920   4   0   0.0240   0.0247   0.0730   0.0094   0.0144   0.0247   0.42    0.0
2022/11/10 11:05:32.416    9.042484108    7.399406604   453.6871   4   0   0.0240   0.0247   0.0730   0.0094   0.0144   0.0247   0.42    0.0
2022/11/10 11:05:33.416    9.042484116    7.399406591   453.6876   4   0   0.0240   0.0247   0.0730   0.0094   0.0144   0.0247   0.42    0.0
2022/11/10 11:05:34.416    9.042484109    7.399406580   453.6900   4   0   0.0240   0.0247   0.0730   0.0094   0.0144   0.0247   0.42    0.0
2022/11/10 11:05:35.416    9.042484112    7.399406589   453.6864   4   0   0.0240   0.0247   0.0730   0.0094   0.0144   0.0247   0.42    0.0
2022/11/10 11:05:36.416    9.042484112    7.399406573   453.6870   4   0   0.0240   0.0247   0.0730   0.0094   0.0144   0.0247   0.42    0.0
2022/11/10 11:05:37.416    9.042484103    7.399406573   453.6953   4   0   0.0240   0.0247   0.0730   0.0094   0.0144   0.0247   0.42    0.0
2022/11/10 11:05:38.416    9.042484121    7.399406585   453.6974   4   0   0.0240   0.0247   0.0730   0.0094   0.0144   0.0247   0.42    0.0
2022/11/10 11:05:39.416    9.042484117    7.399406590   453.6980   4   0   0.0240   0.0247   0.0730   0.0094   0.0144   0.0247   0.42    0.0
2022/11/10 11:05:40.416    9.042484117    7.399406586   453.6975   4   0   0.0240   0.0247   0.0730   0.0094   0.0144   0.0247   0.42    0.0
2022/11/10 11:05:41.416    9.042484118    7.399406567   453.7001   4   0   0.0240   0.0247   0.0730   0.0094   0.0144   0.0247   0.42    0.0
2022/11/10 11:05:42.416    9.042484108    7.399406593   453.6969   4   0   0.0240   0.0247   0.0730   0.0094   0.0144   0.0247   0.42    0.0
2022/11/10 11:05:43.416    9.042484121    7.399406588   453.6968   4   0   0.0240   0.0247   0.0730   0.0094   0.0144   0.0247   0.42    0.0
2022/11/10 11:05:44.416    9.042484139    7.399406569   453.7004   4   0   0.0240   0.0247   0.0730   0.0094   0.0144   0.0247   0.42    0.0
2022/11/10 11:05:45.416    9.042484144    7.399406579   453.7042   4   0   0.0240   0.0247   0.0730   0.0094   0.0144   0.0247   0.42    0.0
2022/11/10 11:05:46.416    9.042484128    7.399406587   453.6981   4   0   0.0240   0.0247   0.0730   0.0094   0.0144   0.0247   0.42    0.0
2022/11/10 11:05:47.416    9.042484119    7.399406579   453.6966   4   0   0.0240   0.0247   0.0730   0.0094   0.0144   0.0247   0.42    0.0
2022/11/10 11:05:48.416    9.042484120    7.399406576   453.6993   4   0   0.0240   0.0247   0.0730   0.0094   0.0144   0.0247   0.42    0.0
2022/11/10 11:05:49.416    9.042484120    7.399406578   453.6970   4   0   0.0240   0.0247   0.0730   0.0094   0.0144   0.0247   0.42    0.0
2022/11/10 11:05:50.416    9.042484137    7.399406578   453.7027   4   0   0.0240   0.0247   0.0730   0.0094   0.0144   0.0247   0.42    0.0
2022/11/10 11:05:51.416    9.042484124    7.399406586   453.7022   4   0   0.0240   0.0247   0.0730   0.0094   0.0144   0.0247   0.42    0.0
2022/11/10 11:05:52.416    9.042484115    7.399406582   453.6984   4   0   0.0240   0.0247   0.0730   0.0094   0.0144   0.0247   0.42    0.0
2022/11/10 11:05:53.416    9.042484119    7.399406574   453.7025   4   0   0.0240   0.0247   0.0730   0.0094   0.0144   0.0247   0.42    0.0
2022/11/10 11:05:54.416    9.042484117    7.399406571   453.7023   4   0   0.0240   0.0247   0.0730   0.0094   0.0144   0.0247   0.42    0.0
2022/11/10 11:05:55.416    9.042484112    7.399406563   453.7020   4   0   0.0240   0.0247   0.0730   0.0094   0.0144   0.0247   0.42    0.0
2022/11/10 11:05:56.416    9.042484108    7.399406570   453.6972   4   0   0.0240   0.0247   0.0730   0.0094   0.0144   0.0247   0.42    0.0
2022/11/10 11:05:57.416    9.042484110    7.399406566   453.6999   4   0   0.0240   0.0247   0.0730   0.0094   0.0144   0.0247   0.42    0.0
2022/11/10 11:05:58.416    9.042484108    7.399406570   453.6983   4   0   0.0240   0.0247   0.0730   0.0094   0.0144   0.0247   0.42    0.0
2022/11/10 11:05:59.416    9.042484105    7.399406568   453.6975   4   0   0.0240   0.0247   0.0730   0.0094   0.0144   0.0247   0.42    0.0
2022/11/10 11:06:00.416    9.042484115    7.399406566   453.7009   4   0   0.0240   0.0247   0.0730   0.0094   0.0144   0.0247   0.42    0.0
2022/11/10 11:06:01.416    9.042484117    7.399406562   453.7013   4   0   0.0240   0.0247   0.0730   0.0094   0.0144   0.0247   0.42    0.0
2022/11/10 11:06:02.416    9.042484111    7.399406564   453.6992   4   0   0.0240   0.0247   0.0730   0.0094   0.0144   0.0247   0.42    0.0
2022/11/10 11:06:03.416    9.042484118    7.399406572   453.7002   4   0   0.0240   0.0247   0.0730   0.0094   0.0144   0.0247   0.42    0.0
2022/11/10 11:06:04.416    9.042484129    7.399406562   453.6973   4   0   0.0240   0.0247   0.0730   0.0094   0.0144   0.0247   0.42    0.0
2022/11/10 11:06:05.416    9.042484104    7.399406560   453.6936   4   0   0.0240   0.0247   0.0730   0.0094   0.0144   0.0247   0.42    0.0
2022/11/10 11:06:06.416    9.042484100    7.399406561   453.6919   4   0   0.0240   0.0247   0.0730   0.0094   0.0144   0.0247   0.42    0.0
2022/11/10 11:06:07.416    9.042484104    7.399406552   453.6896   4   0   0.0240   0.0247   0.0730   0.0094   0.0144   0.0247   0.42    0.0
2022/11/10 11:06:08.416    9.042484109    7.399406560   453.6877   4   0   0.0240   0.0247   0.0730   0.0094   0.0144   0.0247   0.42    0.0
2022/11/10 11:06:09.416    9.042484098    7.399406559   453.6826   4   0   0.0240   0.0247   0.0730   0.0094   0.0144   0.0247   0.42    0.0
2022/11/10 11:06:10.416    9.042484105    7.399406558   453.6863   4   0   0.0240   0.0247   0.0730   0.0094   0.0144   0.0247   0.42    0.0
2022/11/10 11:06:11.416    9.042484107    7.399406565   453.6927   4   0   0.0240   0.0247   0.0730   0.0094   0.0144   0.0247   0.42    0.0
2022/11/10 11:06:12.416    9.042484123    7.399406557   453.6923   4   0   0.0240   0.0247   0.0730   0.0094   0.0144   0.0247   0.42    0.0
2022/11/10 11:06:13.416    9.042484108    7.399406553   453.6914   4   0   0.0240   0.0247   0.0730   0.0094   0.0144   0.0247   0.42    0.0
2022/11/10 11:06:14.416    9.042484126    7.399406565   453.6921   4   0   0.0240   0.0247   0.0730   0.0094   0.0144   0.0247   0.42    0.0
2022/11/10 11:06:15.416    9.042484122    7.399406556   453.6860   4   0   0.0240   0.0247   0.0730   0.0094   0.0144   0.0247   0.42    0.0
2022/11/10 11:06:16.416    9.042484122    7.399406556   453.6883   4   0   0.0240   0.0247   0.0730   0.0094   0.0144   0.0247   0.42    0.0
2022/11/10 11:06:17.416    9.042484114    7.399406570   453.6900   4   0   0.0240   0.0247   0.0730   0.0094   0.0144   0.0247   0.42    0.0
2022/11/10 11:06:18.416    9.042484109    7.399406569   453.6877   4   0   0.0240   0.0247   0.0730   0.0094   0.0144   0.0247   0.42    0.0
2022/11/10 11:06:19.416    9.042484125    7.399406562   453.6890   4   0   0.0240   0.0247   0.0730   0.0094   0.0144   0.0247   0.42    0.0
2022/11/10 11:06:20.416    9.042484098    7.399406557   453.6879   4   0   0.0240   0.0247   0.0730   0.0094   0.0144   0.0247   0.42    0.0
2022/11/10 11:06:21.416    9.042484109    7.399406574   453.6858   4   0   0.0240   0.0247   0.0730   0.0094   0.0144   0.0247   0.42    0.0
2022/11/10 11:06:22.416    9.042484110    7.399406548   453.6935   4   0   0.0240   0.0247   0.0730   0.0094   0.0144   0.0247   0.42    0.0
2022/11/10 11:06:23.416    9.042484121    7.399406562   453.6896   4   0   0.0240   0.0247   0.0730   0.0094   0.0144   0.0247   0.42    0.0
2022/11/10 11:06:24.416    9.042484124    7.399406566   453.6931   4   0   0.0240   0.0247   0.0730   0.0094   0.0144   0.0247   0.42    0.0
2022/11/10 11:06:25.416    9.042484116    7.399406555   453.6915   4   0   0.0240   0.0247   0.0730   0.0094   0.0144   0.0247   0.42    0.0
2022/11/10 11:06:26.416    9.042484124    7.399406556   453.6902   4   0   0.0240   0.0247   0.0730   0.0094   0.0144   0.0247   0.42    0.0
2022/11/10 11:06:27.416    9.042484124    7.399406549   453.6944   4   0   0.0240   0.0247   0.0730   0.0094   0.0144   0.0247   0.42    0.0
2022/11/10 11:06:28.416    9.042484118    7.399406554   453.6914   4   0   0.0240   0.0247   0.0730   0.0094   0.0144   0.0247   0.42    0.0
2022/11/10 11:06:29.416    9.042484136    7.399406561   453.6938   4   0   0.0240   0.0247   0.0730   0.0094   0.0144   0.0247   0.42    0.0
2022/11/10 11:06:30.416    9.042484126    7.399406561   453.6915   4   0   0.0240   0.0247   0.0730   0.0094   0.0144   0.0247   0.42    0.0
2022/11/10 11:06:31.416    9.042484116    7.399406563   453.6904   4   0   0.0240   0.0247   0.0730   0.0094   0.0144   0.0247   0.42    0.0
2022/11/10 11:06:32.416    9.042484114    7.399406567   453.6867   4   0   0.0240   0.0247   0.0730   0.0094   0.0144   0.0247   0.42    0.0
2022/11/10 11:06:33.416    9.042484115    7.399406559   453.6876   4   0   0.0240   0.0247   0.0730   0.0094   0.0144   0.0247   0.42    0.0
2022/11/10 11:06:34.416    9.042484111    7.399406566   453.6874   4   0   0.0240   0.0247   0.0730   0.0094   0.0144   0.0247   0.42    0.0
2022/11/10 11:06:35.416    9.042484109    7.399406549   453.6899   4   0   0.0240   0.0247   0.0730   0.0094   0.0144   0.0247   0.42    0.0
2022/11/10 11:06:36.416    9.042484104    7.399406556   453.6895   4   0   0.0240   0.0247   0.0730   0.0094   0.0144   0.0247   0.42    0.0
2022/11/10 11:06:37.416    9.042484110    7.399406569   453.6876   4   0   0.0240   0.0247   0.0730   0.0094   0.0144   0.0247   0.42    0.0
2022/11/10 11:06:38.416    9.042484120    7.399406554   453.6923   4   0   0.0240   0.0247   0.0730   0.0094   0.0144   0.0247   0.42    0.0
2022/11/10 11:06:39.416    9.042484136    7.399406560   453.6919   4   0   0.0240   0.0247   0.0730   0.0094   0.0144   0.0247   0.42    0.0
2022/11/10 11:06:40.416    9.042484124    7.399406549   453.6958   4   0   0.0240   0.0247   0.0730   0.0094   0.0144   0.0247   0.42    0.0
2022/11/10 11:06:41.416    9.042484122    7.399406566   453.6924   4   0   0.0240   0.0247   0.0730   0.0094   0.0144   0.0247   0.42    0.0
2022/11/10 11:06:42.416    9.042484134    7.399406547   453.6992   4   0   0.0240   0.0247   0.0730   0.0094   0.0144   0.0247   0.42    0.0
2022/11/10 11:06:43.416    9.042484112    7.399406559   453.6985   4   0   0.0240   0.0247   0.0730   0.0094   0.0144   0.0247   0.42    0.0
2022/11/10 11:06:44.416    9.042484115    7.399406545   453.6998   4   0   0.0240   0.0247   0.0730   0.0094   0.0144   0.0247   0.42    0.0
2022/11/10 11:06:45.416    9.042484110    7.399406545   453.7035   4   0   0.0240   0.0247   0.0730   0.0094   0.0144   0.0247   0.42    0.0
2022/11/10 11:06:46.416    9.042484112    7.399406541   453.7003   4   0   0.0240   0.0247   0.0730   0.0094   0.0144   0.0247   0.42    0.0
2022/11/10 11:06:47.416    9.042484113    7.399406537   453.7007   4   0   0.0240   0.0247   0.0730   0.0094   0.0144   0.0247   0.42    0.0
2022/11/10 11:06:48.416    9.042484097    7.399406548   453.6962   4   0   0.0240   0.0247   0.0730   0.0094   0.0144   0.0247   0.42    0.0
2022/11/10 11:06:49.416    9.042484090    7.399406539   453.6970   4   0   0.0240   0.0247   0.0730   0.0094   0.0144   0.0247   0.42    0.0
2022/11/10 11:06:50.416    9.042484096    7.399406539   453.7001   4   0   0.0240   0.0247   0.0730   0.0094   0.0144   0.0247   0.42    0.0
2022/11/10 11:06:51.416    9.042484101    7.399406547   453.6972   4   0   0.0240   0.0247   0.0730   0.0094   0.0144   0.0247   0.42    0.0
2022/11/10 11:06:52.416    9.042484110    7.399406541   453.6974   4   0   0.0240   0.0247   0.0730   0.0094   0.0144   0.0247   0.42    0.0
2022/11/10 11:06:53.416    9.042484112    7.399406545   453.6951   4   0   0.0240   0.0247   0.0730   0.0094   0.0144   0.0247   0.42    0.0
2022/11/10 11:06:54.416    9.042484111    7.399406536   453.7031   4   0   0.0240   0.0247   0.0730   0.0094   0.0144   0.0247   0.42    0.0
