% program   : RTKPOST ver.demo5 b34g
% inp file  : C:\Users\Abdullateef\Documents\PHD\Research on Precision Agriculture Navigation Technology\nav data\GNSS Log file\Geo++\GEOP314L.22o
% inp file  : C:\Users\Abdullateef\Documents\PHD\Research on Precision Agriculture Navigation Technology\nav data\GNSS Log file\Nav file\BRDC00WRD_S_20223140000_01D_MN.rnx\BRDC00WRD_S_20223140000_01D_MN.rnx
% obs start : 2022/11/10 11:00:00.4 GPST (week2235 385200.4s)
% obs end   : 2022/11/10 11:39:12.4 GPST (week2235 387552.4s)
% pos mode  : Single
% elev mask : 30.0 deg
% ionos opt : Broadcast
% tropo opt : Saastamoinen
% ephemeris : Broadcast
% navi sys  : GPS GLONASS Galileo BDS
%
% (lat/lon/height=WGS84/ellipsoidal,Q=1:fix,2:float,3:sbas,4:dgps,5:single,6:ppp,ns=# of satellites)
%  GPST                  latitude(deg) longitude(deg)  height(m)   Q  ns   sdn(m)   sde(m)   sdu(m)  sdne(m)  sdeu(m)  sdun(m) age(s)  ratio
2022/11/10 11:00:00.416    9.042518273    7.399390774   473.9976   5  10   3.1019   4.0200   9.8662   2.1196   2.3348   1.2310   0.00    0.0
2022/11/10 11:00:01.416    9.042566715    7.399322564   482.1327   5  10   3.1017   4.0196   9.8674   2.1191   2.3354   1.2317   0.00    0.0
2022/11/10 11:00:02.416    9.042533458    7.399380321   476.0956   5  10   3.1015   4.0193   9.8687   2.1185   2.3360   1.2324   0.00    0.0
2022/11/10 11:00:03.416    9.042531904    7.399309903   471.9610   5   9   3.1067   4.9208  10.1597   2.2371   3.5070   1.4002   0.00    0.0
2022/11/10 11:00:04.416    9.042560836    7.399315117   478.8846   5  10   3.1011   4.0186   9.8713   2.1174   2.3372   1.2337   0.00    0.0
2022/11/10 11:00:05.416    9.042569146    7.399417034   484.9543   5  10   3.1009   4.0183   9.8726   2.1168   2.3377   1.2344   0.00    0.0
2022/11/10 11:00:06.416    9.042527752    7.399204552   479.2677   5  10   3.1007   4.0179   9.8738   2.1163   2.3384   1.2351   0.00    0.0
2022/11/10 11:00:07.416    9.042584831    7.399308252   471.2019   5  10   3.1005   4.0176   9.8751   2.1157   2.3390   1.2358   0.00    0.0
2022/11/10 11:00:08.416    9.042538196    7.399268425   465.5428   5  10   3.1003   4.0172   9.8764   2.1151   2.3396   1.2365   0.00    0.0
2022/11/10 11:00:09.416    9.042450992    7.399392124   462.8595   5   9   4.0583   4.1021  12.2321   1.5141  -0.7254   4.5196   0.00    0.0
2022/11/10 11:00:10.416    9.042510204    7.399380497   482.8851   5  10   3.0998   4.0166   9.8790   2.1140   2.3407   1.2379   0.00    0.0
2022/11/10 11:00:11.416    9.042443732    7.399394088   457.4145   5   8   4.0825   5.1581  12.2546   0.9336   1.3368   4.4811   0.00    0.0
2022/11/10 11:00:12.416    9.042506069    7.399365484   454.6776   5   9   4.0569   4.1016  12.2323   1.5102  -0.7281   4.5176   0.00    0.0
2022/11/10 11:00:13.416    9.042394672    7.399287161   425.0701   5  10   3.0992   4.0155   9.8828   2.1123   2.3425   1.2400   0.00    0.0
2022/11/10 11:00:14.416    9.042471481    7.399328820   444.9421   5   9   4.0560   4.1012  12.2324   1.5076  -0.7298   4.5164   0.00    0.0
2022/11/10 11:00:15.416    9.042506224    7.399346616   453.7403   5   9   4.0556   4.1011  12.2325   1.5063  -0.7307   4.5157   0.00    0.0
2022/11/10 11:00:16.416    9.042517434    7.399282527   473.0016   5   9   4.0551   4.1009  12.2325   1.5050  -0.7315   4.5150   0.00    0.0
2022/11/10 11:00:17.416    9.042509733    7.399306545   461.7510   5  10   3.0984   4.0142   9.8879   2.1101   2.3448   1.2427   0.00    0.0
2022/11/10 11:00:18.416    9.042533948    7.399344182   475.9263   5   9   4.0542   4.1005  12.2326   1.5023  -0.7334   4.5137   0.00    0.0
2022/11/10 11:00:19.416    9.042476553    7.399356922   466.6719   5   9   4.0538   4.1004  12.2327   1.5010  -0.7343   4.5131   0.00    0.0
2022/11/10 11:00:20.416    9.042643708    7.399275011   478.8911   5  10   3.0978   4.0132   9.8917   2.1084   2.3465   1.2447   0.00    0.0
2022/11/10 11:00:21.416    9.042433916    7.399328024   441.6284   5   9   4.0529   4.1000  12.2328   1.4984  -0.7360   4.5118   0.00    0.0
2022/11/10 11:00:22.416    9.042555049    7.399356421   456.9486   5  10   3.0974   4.0125   9.8943   2.1073   2.3477   1.2461   0.00    0.0
2022/11/10 11:00:23.416    9.042442011    7.399364807   449.3440   5   9   4.0519   4.0997  12.2330   1.4958  -0.7378   4.5105   0.00    0.0
2022/11/10 11:00:24.416    9.042369952    7.399321997   457.1077   5   9   4.0515   4.0995  12.2330   1.4945  -0.7386   4.5098   0.00    0.0
2022/11/10 11:00:25.416    9.042570517    7.399233910   524.3385   5  10   3.0967   4.0115   9.8981   2.1056   2.3494   1.2482   0.00    0.0
2022/11/10 11:00:26.416    9.042245465    7.399296180   449.2461   5   9   4.0506   4.0991  12.2331   1.4918  -0.7402   4.5086   0.00    0.0
2022/11/10 11:00:27.416    9.042314873    7.399292827   443.9857   5   9   4.0502   4.0990  12.2332   1.4905  -0.7411   4.5079   0.00    0.0
2022/11/10 11:00:28.416    9.042303222    7.399236472   436.3532   5   9   4.0497   4.0988  12.2332   1.4892  -0.7419   4.5072   0.00    0.0
2022/11/10 11:00:29.416    9.042211649    7.399209335   423.9850   5   9   4.0493   4.0986  12.2333   1.4879  -0.7427   4.5066   0.00    0.0
2022/11/10 11:00:30.416    9.042156593    7.399214081   416.0145   5   9   4.0488   4.0984  12.2333   1.4866  -0.7435   4.5060   0.00    0.0
2022/11/10 11:00:31.416    9.042305899    7.399238253   422.2941   5   9   4.0483   4.0983  12.2334   1.4852  -0.7445   4.5053   0.00    0.0
2022/11/10 11:00:32.416    9.042329823    7.399234021   417.3620   5   9   4.0479   4.0981  12.2335   1.4839  -0.7453   4.5046   0.00    0.0
2022/11/10 11:00:33.416    9.042334284    7.399335469   427.1935   5   9   4.0474   4.0979  12.2335   1.4826  -0.7464   4.5039   0.00    0.0
2022/11/10 11:00:34.416    9.042344801    7.399309695   412.2521   5   9   4.0470   4.0977  12.2336   1.4813  -0.7472   4.5033   0.00    0.0
2022/11/10 11:00:35.416    9.042363156    7.399366955   405.7555   5   9   4.0465   4.0976  12.2336   1.4799  -0.7481   4.5026   0.00    0.0
2022/11/10 11:00:36.416    9.042409653    7.399368724   391.5478   5   9   4.0461   4.0974  12.2337   1.4786  -0.7490   4.5019   0.00    0.0
2022/11/10 11:00:37.416    9.042349991    7.399407167   400.5828   5   9   4.0456   4.0972  12.2337   1.4773  -0.7499   4.5013   0.00    0.0
2022/11/10 11:00:38.416    9.042416073    7.399366722   411.6139   5   9   4.0452   4.0970  12.2337   1.4760  -0.7507   4.5006   0.00    0.0
2022/11/10 11:00:39.416    9.042409734    7.399398067   415.4917   5   9   4.0447   4.0969  12.2338   1.4746  -0.7516   4.4999   0.00    0.0
2022/11/10 11:00:40.416    9.042473153    7.399477481   429.5226   5   9   4.0443   4.0967  12.2338   1.4733  -0.7526   4.4993   0.00    0.0
2022/11/10 11:00:41.416    9.042394423    7.399393051   434.6180   5   9   4.0438   4.0965  12.2339   1.4720  -0.7533   4.4986   0.00    0.0
2022/11/10 11:00:42.416    9.042553562    7.399430523   462.2547   5   9   4.0433   4.0964  12.2339   1.4706  -0.7542   4.4979   0.00    0.0
2022/11/10 11:00:43.416    9.042431841    7.399463915   443.2084   5   9   4.0429   4.0962  12.2339   1.4693  -0.7551   4.4973   0.00    0.0
2022/11/10 11:00:44.416    9.042495346    7.399445250   433.7286   5   9   4.0424   4.0960  12.2340   1.4680  -0.7559   4.4966   0.00    0.0
2022/11/10 11:00:45.416    9.042480259    7.399432232   415.5406   5   9   4.0420   4.0959  12.2340   1.4666  -0.7567   4.4959   0.00    0.0
2022/11/10 11:00:46.416    9.042447814    7.399396179   399.1817   5   9   4.0415   4.0957  12.2341   1.4653  -0.7575   4.4953   0.00    0.0
2022/11/10 11:00:47.416    9.042646052    7.399320676   451.1037   5  10   3.0922   4.0041   9.9261   2.0932   2.3618   1.2630   0.00    0.0
2022/11/10 11:00:48.416    9.042676258    7.399379373   452.7191   5  10   3.0920   4.0038   9.9274   2.0927   2.3624   1.2637   0.00    0.0
2022/11/10 11:00:49.416    9.042451935    7.399373804   400.0701   5   9   4.0402   4.0952  12.2342   1.4613  -0.7599   4.4933   0.00    0.0
2022/11/10 11:00:50.416    9.042578679    7.399346695   446.0131   5  10   3.0916   4.0031   9.9300   2.0916   2.3635   1.2651   0.00    0.0
2022/11/10 11:00:51.416    9.042685480    7.399272516   483.6099   5  10   3.0914   4.0028   9.9312   2.0910   2.3641   1.2657   0.00    0.0
2022/11/10 11:00:52.416    9.042693300    7.399306310   498.8159   5  10   3.0912   4.0024   9.9325   2.0904   2.3646   1.2663   0.00    0.0
2022/11/10 11:00:53.416    9.042396881    7.399299446   391.4178   5   9   4.0384   4.0945  12.2343   1.4560  -0.7631   4.4906   0.00    0.0
2022/11/10 11:00:54.416    9.042668688    7.399238200   488.3341   5  10   3.0908   4.0018   9.9350   2.0893   2.3657   1.2677   0.00    0.0
2022/11/10 11:00:55.416    9.042363867    7.399308089   415.4041   5   9   4.0375   4.0942  12.2344   1.4533  -0.7648   4.4893   0.00    0.0
2022/11/10 11:00:56.416    9.042405403    7.399368954   399.6915   5   9   4.0370   4.0940  12.2344   1.4520  -0.7657   4.4886   0.00    0.0
2022/11/10 11:00:57.416    9.042351877    7.399329508   412.9367   5   9   4.0366   4.0938  12.2344   1.4506  -0.7664   4.4879   0.00    0.0
2022/11/10 11:00:58.416    9.042355840    7.399288523   405.6277   5   9   4.0361   4.0937  12.2344   1.4493  -0.7672   4.4872   0.00    0.0
2022/11/10 11:00:59.416    9.042370762    7.399300379   410.6869   5   9   4.0357   4.0935  12.2345   1.4479  -0.7680   4.4866   0.00    0.0
2022/11/10 11:01:00.416    9.042477623    7.399328222   419.6132   5   9   4.0352   4.0933  12.2345   1.4466  -0.7689   4.4859   0.00    0.0
2022/11/10 11:01:01.416    9.042437037    7.399291462   412.3756   5   9   4.0348   4.0932  12.2345   1.4453  -0.7697   4.4852   0.00    0.0
2022/11/10 11:01:02.416    9.042451377    7.399352304   420.7924   5   9   4.0343   4.0930  12.2345   1.4439  -0.7706   4.4845   0.00    0.0
2022/11/10 11:01:03.416    9.042431986    7.399296032   430.1689   5   9   4.0339   4.0928  12.2346   1.4426  -0.7713   4.4838   0.00    0.0
2022/11/10 11:01:04.416    9.042519653    7.399380665   437.2216   5   9   4.0334   4.0927  12.2346   1.4412  -0.7722   4.4831   0.00    0.0
2022/11/10 11:01:05.416    9.042616890    7.399326614   499.4100   5   9   3.2525   4.3076  10.1734   2.4443   1.4892  -0.7360   0.00    0.0
2022/11/10 11:01:06.416    9.042443175    7.399358218   433.6201   5   8   4.4049   4.3322  12.2370   2.1422  -0.9715   4.4335   0.00    0.0
2022/11/10 11:01:07.416    9.042475257    7.399407891   444.8173   5   8   4.4045   4.3319  12.2370   2.1412  -0.9721   4.4329   0.00    0.0
2022/11/10 11:01:08.416    9.042482885    7.399365872   446.4680   5   8   4.4042   4.3316  12.2370   2.1401  -0.9725   4.4322   0.00    0.0
2022/11/10 11:01:09.416    9.042488271    7.399405707   445.4030   5   8   4.4038   4.3313  12.2371   2.1391  -0.9731   4.4315   0.00    0.0
2022/11/10 11:01:10.416    9.042404856    7.399318621   442.0225   5   8   4.4035   4.3310  12.2371   2.1380  -0.9734   4.4309   0.00    0.0
2022/11/10 11:01:11.416    9.042436039    7.399343701   426.9928   5   8   4.4031   4.3307  12.2371   2.1369  -0.9740   4.4302   0.00    0.0
2022/11/10 11:01:12.416    9.042484436    7.399366019   430.3705   5   8   4.4028   4.3303  12.2371   2.1359  -0.9745   4.4295   0.00    0.0
2022/11/10 11:01:13.416    9.042440197    7.399413400   447.1286   5   8   4.4024   4.3300  12.2371   2.1348  -0.9751   4.4288   0.00    0.0
2022/11/10 11:01:14.416    9.042529964    7.399434399   432.5347   5   9   4.0289   4.0910  12.2347   1.4277  -0.7803   4.4763   0.00    0.0
2022/11/10 11:01:15.416    9.042684865    7.399285435   480.1712   5  10   3.0865   3.9948   9.9616   2.0775   2.3771   1.2816   0.00    0.0
2022/11/10 11:01:16.416    9.042522438    7.399174387   477.4958   5  10   3.0863   3.9945   9.9629   2.0770   2.3777   1.2824   0.00    0.0
2022/11/10 11:01:17.416    9.042375462    7.399296444   404.5955   5   9   4.0276   4.0906  12.2348   1.4237  -0.7824   4.4743   0.00    0.0
2022/11/10 11:01:18.416    9.042354727    7.399283350   397.0981   5   9   4.0271   4.0904  12.2348   1.4223  -0.7832   4.4736   0.00    0.0
2022/11/10 11:01:19.416    9.042488073    7.399173398   460.1978   5  10   3.0857   3.9935   9.9667   2.0753   2.3793   1.2844   0.00    0.0
2022/11/10 11:01:20.416    9.042378783    7.399236644   410.0529   5   9   4.0262   4.0901  12.2348   1.4196  -0.7847   4.4723   0.00    0.0
2022/11/10 11:01:21.416    9.042524557    7.399217008   447.9137   5  10   3.0853   3.9928   9.9692   2.0742   2.3804   1.2856   0.00    0.0
2022/11/10 11:01:22.416    9.042460929    7.399209204   437.9924   5  10   3.0851   3.9925   9.9705   2.0736   2.3809   1.2863   0.00    0.0
2022/11/10 11:01:23.416    9.042417910    7.399265387   401.6489   5   9   4.0248   4.0896  12.2348   1.4155  -0.7871   4.4702   0.00    0.0
2022/11/10 11:01:24.416    9.042576543    7.399210084   473.2356   5  10   3.0847   3.9918   9.9730   2.0725   2.3819   1.2876   0.00    0.0
2022/11/10 11:01:25.416    9.042432033    7.399271496   422.4669   5   9   4.0239   4.0893  12.2348   1.4128  -0.7886   4.4688   0.00    0.0
2022/11/10 11:01:26.416    9.042411877    7.399321164   419.4343   5   9   4.0235   4.0891  12.2348   1.4114  -0.7895   4.4681   0.00    0.0
2022/11/10 11:01:27.416    9.042610277    7.399232063   465.7448   5  10   3.0841   3.9908   9.9768   2.0708   2.3835   1.2895   0.00    0.0
2022/11/10 11:01:28.416    9.042427064    7.399390204   428.1154   5   9   4.0226   4.0888  12.2348   1.4087  -0.7911   4.4667   0.00    0.0
2022/11/10 11:01:29.416    9.042536025    7.399268377   459.5982   5  10   3.0837   3.9902   9.9793   2.0697   2.3846   1.2909   0.00    0.0
2022/11/10 11:01:30.416    9.042615175    7.399255327   513.1881   5  10   3.0834   3.9899   9.9805   2.0691   2.3851   1.2915   0.00    0.0
2022/11/10 11:01:31.416    9.042294306    7.399293159   421.7964   5   9   4.0213   4.0883  12.2348   1.4046  -0.7933   4.4647   0.00    0.0
2022/11/10 11:01:32.416    9.042306244    7.399264662   430.0481   5   9   4.0208   4.0882  12.2348   1.4032  -0.7940   4.4640   0.00    0.0
2022/11/10 11:01:33.416    9.042578096    7.399155101   499.8288   5  10   3.0828   3.9889   9.9843   2.0674   2.3867   1.2935   0.00    0.0
2022/11/10 11:01:34.416    9.042335323    7.399310185   414.3686   5   9   4.0199   4.0879  12.2348   1.4005  -0.7956   4.4626   0.00    0.0
2022/11/10 11:01:35.416    9.042528794    7.399307317   445.6412   5  10   3.0824   3.9882   9.9869   2.0663   2.3877   1.2948   0.00    0.0
2022/11/10 11:01:36.416    9.042346381    7.399347286   400.3449   5   9   4.0190   4.0876  12.2348   1.3977  -0.7972   4.4612   0.00    0.0
2022/11/10 11:01:37.416    9.042330178    7.399398571   389.5096   5   9   4.0186   4.0874  12.2348   1.3963  -0.7980   4.4605   0.00    0.0
2022/11/10 11:01:38.416    9.042334780    7.399300362   393.2317   5   9   4.0181   4.0873  12.2348   1.3950  -0.7986   4.4598   0.00    0.0
2022/11/10 11:01:39.416    9.042617887    7.399248982   473.0170   5  10   3.0816   3.9869   9.9919   2.0641   2.3898   1.2973   0.00    0.0
2022/11/10 11:01:40.416    9.042345004    7.399295274   422.8958   5   9   4.0172   4.0869  12.2347   1.3922  -0.8001   4.4585   0.00    0.0
2022/11/10 11:01:41.416    9.042524929    7.399232435   492.3162   5  10   3.0812   3.9863   9.9944   2.0630   2.3908   1.2987   0.00    0.0
2022/11/10 11:01:42.416    9.042291860    7.399286721   417.9331   5   9   4.0163   4.0866  12.2347   1.3895  -0.8016   4.4571   0.00    0.0
2022/11/10 11:01:43.416    9.042400648    7.399310849   445.3691   5  10   3.0808   3.9856   9.9969   2.0618   2.3918   1.3000   0.00    0.0
2022/11/10 11:01:44.416    9.042264242    7.399302334   426.2403   5   9   4.0154   4.0863  12.2347   1.3867  -0.8031   4.4557   0.00    0.0
2022/11/10 11:01:45.416    9.042426608    7.399269882   466.9839   5  10   3.0804   3.9849   9.9994   2.0607   2.3929   1.3013   0.00    0.0
2022/11/10 11:01:46.416    9.042416585    7.399218995   456.6548   5  10   3.0802   3.9846  10.0007   2.0602   2.3934   1.3020   0.00    0.0
2022/11/10 11:01:47.416    9.042374779    7.399237273   466.2047   5  10   3.0800   3.9843  10.0019   2.0596   2.3939   1.3026   0.00    0.0
2022/11/10 11:01:48.416    9.042267522    7.399300522   414.0529   5   9   4.0136   4.0857  12.2346   1.3812  -0.8061   4.4529   0.00    0.0
2022/11/10 11:01:49.416    9.042424072    7.399267381   477.1959   5  10   3.0796   3.9836  10.0044   2.0585   2.3949   1.3039   0.00    0.0
2022/11/10 11:01:50.416    9.042227529    7.399333546   437.5773   5   9   4.0127   4.0854  12.2346   1.3784  -0.8076   4.4515   0.00    0.0
2022/11/10 11:01:51.416    9.042169559    7.399311589   429.6135   5   9   4.0123   4.0853  12.2346   1.3770  -0.8083   4.4508   0.00    0.0
2022/11/10 11:01:52.416    9.042220090    7.399298689   445.9648   5   9   4.0118   4.0851  12.2345   1.3756  -0.8090   4.4501   0.00    0.0
2022/11/10 11:01:53.416    9.042407698    7.399130359   516.4236   5  10   3.0788   3.9823  10.0094   2.0562   2.3970   1.3065   0.00    0.0
2022/11/10 11:01:54.416    9.042552118    7.399212704   523.9598   5  10   3.0786   3.9820  10.0107   2.0557   2.3975   1.3070   0.00    0.0
2022/11/10 11:01:55.416    9.042163161    7.399324978   433.8140   5   9   4.0105   4.0847  12.2345   1.3715  -0.8112   4.4480   0.00    0.0
2022/11/10 11:01:56.416    9.042173658    7.399344756   405.7076   5   9   4.0100   4.0845  12.2345   1.3701  -0.8120   4.4473   0.00    0.0
2022/11/10 11:01:57.416    9.042450321    7.399206511   489.5984   5  10   3.0780   3.9810  10.0145   2.0540   2.3990   1.3090   0.00    0.0
2022/11/10 11:01:58.416    9.042192635    7.399284490   415.5969   5   9   4.0091   4.0842  12.2344   1.3673  -0.8134   4.4459   0.00    0.0
2022/11/10 11:01:59.416    9.042350731    7.399209028   447.0412   5  10   3.0776   3.9804  10.0170   2.0529   2.4000   1.3104   0.00    0.0
2022/11/10 11:02:00.416    9.042200205    7.399303120   386.5617   5   9   4.0082   4.0839  12.2344   1.3645  -0.8149   4.4445   0.00    0.0
2022/11/10 11:02:01.416    9.042403466    7.399222340   413.7900   5  10   3.0772   3.9797  10.0195   2.0518   2.4010   1.3116   0.00    0.0
2022/11/10 11:02:02.416    9.042313787    7.399297315   399.0551   5  10   3.0770   3.9794  10.0208   2.0512   2.4015   1.3123   0.00    0.0
2022/11/10 11:02:03.416    9.042439859    7.399223811   436.6308   5  10   3.0768   3.9791  10.0220   2.0506   2.4020   1.3129   0.00    0.0
2022/11/10 11:02:04.416    9.042333464    7.399295099   364.2480   5   9   4.0064   4.0833  12.2342   1.3589  -0.8178   4.4416   0.00    0.0
2022/11/10 11:02:05.416    9.042430031    7.399258778   420.3735   5  10   3.0764   3.9784  10.0245   2.0495   2.4030   1.3141   0.00    0.0
2022/11/10 11:02:06.416    9.042270170    7.399256996   382.7448   5   9   4.0055   4.0830  12.2342   1.3561  -0.8191   4.4402   0.00    0.0
2022/11/10 11:02:07.416    9.042420289    7.399152586   412.1650   5  10   3.0760   3.9778  10.0270   2.0484   2.4040   1.3154   0.00    0.0
2022/11/10 11:02:08.416    9.042249345    7.399223736   407.2334   5   9   4.0046   4.0827  12.2341   1.3533  -0.8205   4.4388   0.00    0.0
2022/11/10 11:02:09.416    9.042242852    7.399233689   399.6422   5   9   4.0042   4.0826  12.2340   1.3519  -0.8212   4.4381   0.00    0.0
2022/11/10 11:02:10.416    9.042445321    7.399113463   489.7335   5  10   3.0754   3.9768  10.0307   2.0467   2.4055   1.3173   0.00    0.0
2022/11/10 11:02:11.416    9.042269004    7.399307711   454.7097   5   9   4.0033   4.0823  12.2339   1.3491  -0.8228   4.4366   0.00    0.0
2022/11/10 11:02:12.416    9.042324493    7.399269237   452.3315   5   8   4.0593   4.1003  15.5512   1.4410   1.7397   5.1140   0.00    0.0
2022/11/10 11:02:13.416    9.042256674    7.399298451   492.1911   5   8   4.0237   5.1533  12.2944   0.7146   1.7761   4.3780   0.00    0.0
2022/11/10 11:02:14.416    9.042371553    7.399236494   457.7113   5   9   3.0967   4.0060  13.2891   2.0885   3.1770   2.2257   0.00    0.0
2022/11/10 11:02:15.416    9.042445697    7.399343410   546.4495   5  10   3.0744   3.9752  10.0370   2.0439   2.4079   1.3205   0.00    0.0
2022/11/10 11:02:16.416    9.042355981    7.399284799   461.0575   5   8   4.0580   4.0999  15.5560   1.4366   1.7443   5.1147   0.00    0.0
2022/11/10 11:02:17.416    9.042320092    7.399203795   311.0420   5  10   3.0740   3.9746  10.0396   2.0428   2.4089   1.3218   0.00    0.0
2022/11/10 11:02:18.416    9.042483428    7.399226694   423.1051   5  10   3.0738   3.9742  10.0408   2.0422   2.4094   1.3223   0.00    0.0
2022/11/10 11:02:19.416    9.042295758    7.399241486   283.1476   5  10   3.0736   3.9739  10.0421   2.0417   2.4099   1.3231   0.00    0.0
2022/11/10 11:02:20.416    9.042489906    7.399252480   459.5065   5  10   3.0734   3.9736  10.0432   2.0411   2.4103   1.3236   0.00    0.0
2022/11/10 11:02:21.416    9.042384029    7.399377989   419.9455   5  10   3.0732   3.9733  10.0445   2.0405   2.4108   1.3243   0.00    0.0
2022/11/10 11:02:22.416    9.042362995    7.399317927   433.7369   5  10   3.0730   3.9729  10.0457   2.0400   2.4113   1.3249   0.00    0.0
2022/11/10 11:02:23.416    9.042459789    7.399349028   463.7349   5  10   3.0728   3.9726  10.0470   2.0394   2.4118   1.3255   0.00    0.0
2022/11/10 11:02:24.416    9.042450966    7.399298108   482.5751   5  10   3.0726   3.9723  10.0482   2.0389   2.4123   1.3261   0.00    0.0
2022/11/10 11:02:25.416    9.042417066    7.399270186   446.6388   5  10   3.0724   3.9720  10.0495   2.0383   2.4127   1.3268   0.00    0.0
2022/11/10 11:02:26.416    9.042449776    7.399343486   490.0542   5  10   3.0722   3.9717  10.0507   2.0377   2.4132   1.3274   0.00    0.0
2022/11/10 11:02:27.416    9.042414124    7.399312560   453.8414   5  10   3.0720   3.9713  10.0520   2.0372   2.4137   1.3280   0.00    0.0
2022/11/10 11:02:28.416    9.042460861    7.399300256   484.7417   5  10   3.0718   3.9710  10.0532   2.0366   2.4142   1.3286   0.00    0.0
2022/11/10 11:02:29.416    9.042473953    7.399346680   463.4599   5  10   3.0716   3.9707  10.0544   2.0360   2.4146   1.3293   0.00    0.0
2022/11/10 11:02:30.416    9.042451362    7.399324462   453.6866   5  10   3.0714   3.9704  10.0557   2.0355   2.4151   1.3299   0.00    0.0
2022/11/10 11:02:31.416    9.042507254    7.399315814   451.4744   5  10   3.0713   3.9700  10.0569   2.0349   2.4156   1.3305   0.00    0.0
2022/11/10 11:02:32.416    9.042557603    7.399331242   461.7140   5  10   3.0711   3.9697  10.0582   2.0344   2.4161   1.3311   0.00    0.0
2022/11/10 11:02:33.416    9.042544363    7.399308892   455.5470   5  10   3.0709   3.9694  10.0594   2.0338   2.4166   1.3317   0.00    0.0
2022/11/10 11:02:34.416    9.042537686    7.399398015   418.5117   5  10   3.0707   3.9691  10.0607   2.0332   2.4170   1.3324   0.00    0.0
2022/11/10 11:02:35.416    9.042600318    7.399366343   463.0321   5  10   3.0705   3.9688  10.0619   2.0327   2.4175   1.3329   0.00    0.0
2022/11/10 11:02:36.416    9.042453944    7.399371630   419.2233   5  10   3.0703   3.9684  10.0632   2.0321   2.4180   1.3336   0.00    0.0
2022/11/10 11:02:37.416    9.042515177    7.399364710   419.1368   5  10   3.0701   3.9681  10.0644   2.0316   2.4184   1.3342   0.00    0.0
2022/11/10 11:02:38.416    9.042579912    7.399353358   449.6639   5  10   3.0699   3.9678  10.0656   2.0310   2.4189   1.3348   0.00    0.0
2022/11/10 11:02:39.416    9.042503573    7.399383014   422.6394   5  10   3.0697   3.9675  10.0669   2.0304   2.4194   1.3355   0.00    0.0
2022/11/10 11:02:40.416    9.042526704    7.399365714   445.0426   5  10   3.0695   3.9672  10.0681   2.0299   2.4199   1.3361   0.00    0.0
2022/11/10 11:02:41.416    9.042561131    7.399332698   450.7777   5  10   3.0693   3.9668  10.0694   2.0293   2.4203   1.3367   0.00    0.0
2022/11/10 11:02:42.416    9.042582584    7.399329769   469.3617   5  10   3.0691   3.9665  10.0706   2.0287   2.4208   1.3373   0.00    0.0
2022/11/10 11:02:43.416    9.042634100    7.399357104   464.7284   5  10   3.0689   3.9662  10.0718   2.0282   2.4213   1.3379   0.00    0.0
2022/11/10 11:02:44.416    9.042573726    7.399355686   480.3469   5  10   3.0687   3.9659  10.0731   2.0276   2.4217   1.3386   0.00    0.0
2022/11/10 11:02:45.416    9.042611741    7.399384145   498.9694   5  10   3.0685   3.9656  10.0743   2.0271   2.4222   1.3392   0.00    0.0
2022/11/10 11:02:46.416    9.042568672    7.399354521   493.2914   5  10   3.0683   3.9652  10.0755   2.0265   2.4227   1.3398   0.00    0.0
2022/11/10 11:02:47.416    9.042541266    7.399337611   473.3265   5  10   3.0681   3.9649  10.0768   2.0259   2.4231   1.3404   0.00    0.0
2022/11/10 11:02:48.416    9.042552053    7.399382765   470.7199   5  10   3.0679   3.9646  10.0780   2.0254   2.4236   1.3410   0.00    0.0
2022/11/10 11:02:49.416    9.042605313    7.399369998   500.9476   5  10   3.0677   3.9643  10.0792   2.0248   2.4241   1.3416   0.00    0.0
2022/11/10 11:02:50.416    9.042496582    7.399441831   471.0870   5  10   3.0675   3.9640  10.0805   2.0243   2.4245   1.3423   0.00    0.0
2022/11/10 11:02:51.416    9.042484958    7.399419272   459.0805   5  10   3.0673   3.9637  10.0817   2.0237   2.4250   1.3429   0.00    0.0
2022/11/10 11:02:52.416    9.042514500    7.399411638   453.6446   5   9   3.9849   4.0766  12.2317   1.2906  -0.8509   4.4070   0.00    0.0
2022/11/10 11:02:53.416    9.042480898    7.399395049   438.8843   5   9   3.9845   4.0764  12.2316   1.2892  -0.8515   4.4062   0.00    0.0
2022/11/10 11:02:54.416    9.042531370    7.399366938   458.9245   5  10   3.0667   3.9627  10.0855   2.0220   2.4264   1.3448   0.00    0.0
2022/11/10 11:02:55.416    9.042495533    7.399429372   440.3868   5   9   3.9836   4.0762  12.2314   1.2863  -0.8529   4.4048   0.00    0.0
2022/11/10 11:02:56.416    9.042521533    7.399440530   433.3840   5   9   3.9831   4.0760  12.2314   1.2848  -0.8536   4.4040   0.00    0.0
2022/11/10 11:02:57.416    9.042465444    7.399387754   442.1510   5   9   3.9827   4.0759  12.2313   1.2834  -0.8541   4.4033   0.00    0.0
2022/11/10 11:02:58.416    9.042438746    7.399377741   422.9608   5   9   3.9822   4.0758  12.2312   1.2819  -0.8547   4.4026   0.00    0.0
2022/11/10 11:02:59.416    9.042471939    7.399405759   443.8115   5   9   3.9818   4.0756  12.2311   1.2805  -0.8554   4.4018   0.00    0.0
2022/11/10 11:03:00.416    9.042464180    7.399421475   441.0027   5   9   3.9814   4.0755  12.2311   1.2790  -0.8561   4.4011   0.00    0.0
2022/11/10 11:03:01.416    9.042520947    7.399406657   470.1234   5   9   3.9809   4.0754  12.2310   1.2775  -0.8567   4.4003   0.00    0.0
2022/11/10 11:03:02.416    9.042551204    7.399407743   473.2958   5   9   3.9804   4.0752  12.2309   1.2761  -0.8574   4.3996   0.00    0.0
2022/11/10 11:03:03.416    9.042572519    7.399408481   493.8127   5   9   3.9800   4.0751  12.2308   1.2746  -0.8580   4.3989   0.00    0.0
2022/11/10 11:03:04.416    9.042424790    7.399447379   448.8191   5   9   3.9796   4.0750  12.2307   1.2732  -0.8587   4.3982   0.00    0.0
2022/11/10 11:03:05.416    9.042487170    7.399420154   463.2225   5   9   3.9791   4.0748  12.2306   1.2717  -0.8593   4.3974   0.00    0.0
2022/11/10 11:03:06.416    9.042498091    7.399436331   469.2952   5   9   3.9787   4.0747  12.2305   1.2702  -0.8600   4.3967   0.00    0.0
2022/11/10 11:03:07.416    9.042556333    7.399442407   476.2732   5   9   3.9782   4.0746  12.2305   1.2688  -0.8606   4.3959   0.00    0.0
2022/11/10 11:03:08.416    9.042604439    7.399403445   506.3144   5   9   3.9778   4.0744  12.2303   1.2673  -0.8612   4.3952   0.00    0.0
2022/11/10 11:03:09.416    9.042586325    7.399403632   505.2372   5   8   6.2617   4.1374  17.4929  -1.3703  -3.1213   8.9330   0.00    0.0
2022/11/10 11:03:10.416    9.042485183    7.399405724   482.5284   5   9   3.9769   4.0742  12.2302   1.2644  -0.8625   4.3937   0.00    0.0
2022/11/10 11:03:11.416    9.042633333    7.399372930   524.0550   5   8   6.2613   4.1374  17.4977  -1.3761  -3.1258   8.9343   0.00    0.0
2022/11/10 11:03:12.416    9.042570085    7.399385963   502.0105   5   9   3.9760   4.0739  12.2300   1.2614  -0.8637   4.3922   0.00    0.0
2022/11/10 11:03:13.416    9.042647547    7.399397974   534.0585   5   9   3.9755   4.0738  12.2299   1.2600  -0.8644   4.3914   0.00    0.0
2022/11/10 11:03:14.416    9.042506460    7.399389829   491.1937   5   9   3.9751   4.0737  12.2298   1.2585  -0.8650   4.3907   0.00    0.0
2022/11/10 11:03:15.416    9.042580603    7.399356524   514.5826   5   9   3.9747   4.0735  12.2297   1.2570  -0.8655   4.3900   0.00    0.0
2022/11/10 11:03:16.416    9.042592651    7.399355228   500.2780   5   9   3.9742   4.0734  12.2296   1.2555  -0.8662   4.3892   0.00    0.0
2022/11/10 11:03:17.416    9.042575940    7.399344046   499.3194   5   9   3.9738   4.0733  12.2295   1.2541  -0.8668   4.3885   0.00    0.0
2022/11/10 11:03:18.416    9.042621732    7.399364869   504.8114   5  10   3.0620   3.9551  10.1150   2.0086   2.4372   1.3594   0.00    0.0
2022/11/10 11:03:19.416    9.042533058    7.399351492   502.1781   5  10   3.0618   3.9548  10.1162   2.0080   2.4376   1.3600   0.00    0.0
2022/11/10 11:03:20.416    9.042510153    7.399354418   489.4622   5  10   3.0616   3.9545  10.1175   2.0074   2.4381   1.3607   0.00    0.0
2022/11/10 11:03:21.416    9.042624309    7.399311183   511.9979   5  10   3.0614   3.9541  10.1187   2.0069   2.4385   1.3612   0.00    0.0
2022/11/10 11:03:22.416    9.042604712    7.399341621   508.4536   5  10   3.0612   3.9538  10.1199   2.0063   2.4390   1.3618   0.00    0.0
2022/11/10 11:03:23.416    9.042567133    7.399336962   505.8011   5  10   3.0611   3.9535  10.1211   2.0057   2.4394   1.3625   0.00    0.0
2022/11/10 11:03:24.416    9.042569084    7.399335535   498.6059   5  10   3.0609   3.9532  10.1224   2.0052   2.4398   1.3631   0.00    0.0
2022/11/10 11:03:25.416    9.042469537    7.399381631   463.0974   5  10   3.0607   3.9529  10.1236   2.0046   2.4403   1.3637   0.00    0.0
2022/11/10 11:03:26.416    9.042473300    7.399450924   449.7213   5  10   3.0605   3.9526  10.1249   2.0041   2.4407   1.3643   0.00    0.0
2022/11/10 11:03:27.416    9.042503295    7.399393317   470.7194   5  10   3.0603   3.9523  10.1261   2.0035   2.4411   1.3649   0.00    0.0
2022/11/10 11:03:28.416    9.042468994    7.399418198   462.9667   5  10   3.0601   3.9519  10.1273   2.0029   2.4416   1.3655   0.00    0.0
2022/11/10 11:03:29.416    9.042548177    7.399399174   494.7392   5  10   3.0599   3.9516  10.1285   2.0024   2.4420   1.3661   0.00    0.0
2022/11/10 11:03:30.416    9.042524938    7.399395202   491.9299   5  10   3.0597   3.9513  10.1297   2.0018   2.4424   1.3667   0.00    0.0
2022/11/10 11:03:31.416    9.042507240    7.399417546   481.9101   5  10   3.0595   3.9510  10.1310   2.0013   2.4429   1.3673   0.00    0.0
2022/11/10 11:03:32.416    9.042536089    7.399342206   490.2354   5  10   3.0593   3.9507  10.1322   2.0007   2.4433   1.3679   0.00    0.0
2022/11/10 11:03:33.416    9.042534707    7.399381669   493.8332   5  10   3.0591   3.9504  10.1334   2.0001   2.4437   1.3685   0.00    0.0
2022/11/10 11:03:34.416    9.042497429    7.399345382   496.6288   5  10   3.0589   3.9501  10.1346   1.9996   2.4442   1.3691   0.00    0.0
2022/11/10 11:03:35.416    9.042461582    7.399358295   483.0045   5  10   3.0587   3.9497  10.1359   1.9990   2.4446   1.3697   0.00    0.0
2022/11/10 11:03:36.416    9.042473959    7.399388539   483.5283   5  10   3.0585   3.9494  10.1371   1.9985   2.4450   1.3703   0.00    0.0
2022/11/10 11:03:37.416    9.042491570    7.399343932   494.4532   5  10   3.0583   3.9491  10.1383   1.9979   2.4455   1.3709   0.00    0.0
2022/11/10 11:03:38.416    9.042458134    7.399321314   488.5326   5  10   3.0581   3.9488  10.1395   1.9973   2.4459   1.3715   0.00    0.0
2022/11/10 11:03:39.416    9.042524306    7.399348714   491.2844   5  10   3.0580   3.9485  10.1407   1.9968   2.4463   1.3721   0.00    0.0
2022/11/10 11:03:40.416    9.042433068    7.399303564   459.6514   5  10   3.0578   3.9482  10.1420   1.9962   2.4468   1.3728   0.00    0.0
2022/11/10 11:03:41.416    9.042456409    7.399380183   456.7797   5  10   3.0576   3.9479  10.1432   1.9957   2.4472   1.3733   0.00    0.0
2022/11/10 11:03:42.416    9.042510662    7.399376667   467.1382   5  10   3.0574   3.9476  10.1444   1.9951   2.4476   1.3739   0.00    0.0
2022/11/10 11:03:43.416    9.042442418    7.399345141   458.9694   5  10   3.0572   3.9472  10.1456   1.9945   2.4480   1.3745   0.00    0.0
2022/11/10 11:03:44.416    9.042569436    7.399330741   487.1843   5  10   3.0570   3.9469  10.1468   1.9940   2.4484   1.3751   0.00    0.0
2022/11/10 11:03:45.416    9.042550094    7.399311270   469.7018   5  10   3.0568   3.9466  10.1481   1.9934   2.4489   1.3757   0.00    0.0
2022/11/10 11:03:46.416    9.042523766    7.399355394   448.2825   5  10   3.0566   3.9463  10.1493   1.9928   2.4493   1.3763   0.00    0.0
2022/11/10 11:03:47.416    9.042500868    7.399362257   459.8532   5  10   3.0564   3.9460  10.1505   1.9923   2.4497   1.3769   0.00    0.0
2022/11/10 11:03:48.416    9.042530451    7.399335664   444.9872   5  10   3.0562   3.9457  10.1517   1.9917   2.4501   1.3775   0.00    0.0
2022/11/10 11:03:49.416    9.042558418    7.399351629   466.7317   5  10   3.0560   3.9454  10.1530   1.9912   2.4505   1.3780   0.00    0.0
2022/11/10 11:03:50.416    9.042534027    7.399350384   454.6757   5  10   3.0558   3.9451  10.1542   1.9906   2.4509   1.3787   0.00    0.0
2022/11/10 11:03:51.416    9.042519425    7.399318929   450.7831   5  10   3.0556   3.9447  10.1554   1.9900   2.4514   1.3793   0.00    0.0
2022/11/10 11:03:52.416    9.042522161    7.399344067   445.3961   5  10   3.0555   3.9444  10.1566   1.9895   2.4518   1.3798   0.00    0.0
2022/11/10 11:03:53.416    9.042526692    7.399381535   454.8555   5  10   3.0553   3.9441  10.1578   1.9889   2.4522   1.3804   0.00    0.0
2022/11/10 11:03:54.416    9.042458950    7.399321630   443.7224   5  10   3.0551   3.9438  10.1590   1.9884   2.4526   1.3811   0.00    0.0
2022/11/10 11:03:55.416    9.042503065    7.399333924   450.5208   5  10   3.0549   3.9435  10.1603   1.9878   2.4530   1.3816   0.00    0.0
2022/11/10 11:03:56.416    9.042510643    7.399281269   459.8565   5  10   3.0547   3.9432  10.1615   1.9872   2.4535   1.3822   0.00    0.0
2022/11/10 11:03:57.416    9.042534777    7.399366638   474.3494   5  10   3.0545   3.9429  10.1627   1.9867   2.4538   1.3828   0.00    0.0
2022/11/10 11:03:58.416    9.042559900    7.399320979   473.0768   5  10   3.0543   3.9426  10.1639   1.9861   2.4543   1.3834   0.00    0.0
2022/11/10 11:03:59.416    9.042531625    7.399306553   467.7196   5  10   3.0541   3.9423  10.1651   1.9855   2.4547   1.3840   0.00    0.0
2022/11/10 11:04:00.416    9.042534301    7.399366304   466.3867   5  10   3.0539   3.9419  10.1663   1.9850   2.4551   1.3846   0.00    0.0
2022/11/10 11:04:01.416    9.042572278    7.399385353   457.6312   5  10   3.0537   3.9416  10.1675   1.9844   2.4555   1.3851   0.00    0.0
2022/11/10 11:04:02.416    9.042569875    7.399420117   435.0405   5  10   3.0535   3.9413  10.1688   1.9839   2.4559   1.3857   0.00    0.0
2022/11/10 11:04:03.416    9.042549424    7.399302482   455.5600   5   9   3.4056   3.9463  10.8593   2.0594   2.6097   2.7685   0.00    0.0
2022/11/10 11:04:04.416    9.042597119    7.399364859   457.1582   5  10   3.0531   3.9407  10.1712   1.9827   2.4567   1.3869   0.00    0.0
2022/11/10 11:04:05.416    9.042522389    7.399388128   439.7785   5  10   3.0530   3.9404  10.1724   1.9822   2.4571   1.3875   0.00    0.0
2022/11/10 11:04:06.416    9.042569346    7.399357260   456.3752   5   9   3.4052   3.9454  10.8659   2.0578   2.6112   2.7721   0.00    0.0
2022/11/10 11:04:07.416    9.042557350    7.399351179   463.3197   5   9   3.4051   3.9451  10.8681   2.0573   2.6117   2.7733   0.00    0.0
2022/11/10 11:04:08.416    9.042559166    7.399413547   452.1857   5   9   3.4050   3.9448  10.8703   2.0568   2.6122   2.7745   0.00    0.0
2022/11/10 11:04:09.416    9.042553432    7.399385764   460.3903   5   9   3.4049   3.9444  10.8725   2.0562   2.6127   2.7757   0.00    0.0
2022/11/10 11:04:10.416    9.042619136    7.399406872   474.1000   5   9   3.4047   3.9441  10.8747   2.0557   2.6132   2.7769   0.00    0.0
2022/11/10 11:04:11.416    9.042586460    7.399445577   454.2465   5   9   3.4046   3.9438  10.8770   2.0552   2.6137   2.7782   0.00    0.0
2022/11/10 11:04:12.416    9.042573373    7.399465355   449.9389   5   9   3.4045   3.9435  10.8792   2.0546   2.6142   2.7794   0.00    0.0
2022/11/10 11:04:13.416    9.042516998    7.399413023   440.3611   5  10   3.0514   3.9379  10.1821   1.9777   2.4603   1.3922   0.00    0.0
2022/11/10 11:04:14.416    9.042537721    7.399409885   449.3042   5   9   3.4043   3.9429  10.8836   2.0536   2.6152   2.7818   0.00    0.0
2022/11/10 11:04:15.416    9.042552735    7.399403073   462.9461   5  10   3.0510   3.9373  10.1845   1.9766   2.4611   1.3934   0.00    0.0
2022/11/10 11:04:16.416    9.042474136    7.399411198   430.8916   5   8   3.5718   4.2410  11.0659   2.4299   1.9379   2.3695   0.00    0.0
2022/11/10 11:04:17.416    9.042535604    7.399457420   444.4957   5   9   3.2205   4.2329  10.4013   2.3468   1.6713  -0.4721   0.00    0.0
2022/11/10 11:04:18.416    9.042460195    7.399428448   421.4626   5   8   3.5716   4.2402  11.0702   2.4289   1.9397   2.3724   0.00    0.0
2022/11/10 11:04:19.416    9.042565032    7.399457112   450.4893   5   9   3.2201   4.2321  10.4035   2.3458   1.6729  -0.4686   0.00    0.0
2022/11/10 11:04:20.416    9.042554240    7.399443235   454.4112   5   9   3.2200   4.2318  10.4047   2.3453   1.6738  -0.4667   0.00    0.0
2022/11/10 11:04:21.416    9.042557055    7.399471395   444.7625   5   8   3.5714   4.2391  11.0766   2.4274   1.9425   2.3767   0.00    0.0
2022/11/10 11:04:22.416    9.042479742    7.399449394   438.5948   5   8   3.5713   4.2387  11.0787   2.4270   1.9434   2.3782   0.00    0.0
2022/11/10 11:04:23.416    9.042495718    7.399410043   460.1917   5   9   3.2195   4.2306  10.4081   2.3438   1.6763  -0.4611   0.00    0.0
2022/11/10 11:04:24.416    9.042460497    7.399399318   444.8733   5   9   3.2193   4.2303  10.4093   2.3433   1.6771  -0.4592   0.00    0.0
2022/11/10 11:04:25.416    9.042490006    7.399413590   456.6877   5   9   3.2192   4.2299  10.4104   2.3428   1.6779  -0.4574   0.00    0.0
2022/11/10 11:04:26.416    9.042492491    7.399409865   469.4127   5   9   3.2190   4.2295  10.4115   2.3423   1.6787  -0.4555   0.00    0.0
2022/11/10 11:04:27.416    9.042459985    7.399380533   477.4519   5   9   3.2189   4.2291  10.4127   2.3417   1.6795  -0.4536   0.00    0.0
2022/11/10 11:04:28.416    9.042468303    7.399392025   478.2666   5   9   3.2187   4.2288  10.4138   2.3412   1.6803  -0.4517   0.00    0.0
2022/11/10 11:04:29.416    9.042513045    7.399436817   480.0618   5   9   3.2185   4.2284  10.4149   2.3407   1.6811  -0.4499   0.00    0.0
2022/11/10 11:04:30.416    9.042470579    7.399388508   468.1880   5   9   3.2184   4.2280  10.4161   2.3402   1.6820  -0.4479   0.00    0.0
2022/11/10 11:04:31.416    9.042518652    7.399440663   453.0140   5   9   3.2182   4.2276  10.4172   2.3397   1.6828  -0.4461   0.00    0.0
2022/11/10 11:04:32.416    9.042510622    7.399403831   458.2914   5   9   3.2180   4.2273  10.4184   2.3392   1.6836  -0.4442   0.00    0.0
2022/11/10 11:04:33.416    9.042501889    7.399402744   456.0129   5   9   3.2179   4.2269  10.4195   2.3387   1.6844  -0.4422   0.00    0.0
2022/11/10 11:04:34.416    9.042495576    7.399440015   444.6244   5   9   3.2177   4.2265  10.4207   2.3382   1.6852  -0.4403   0.00    0.0
2022/11/10 11:04:35.416    9.042472651    7.399400023   448.2760   5   9   3.2176   4.2261  10.4218   2.3377   1.6860  -0.4383   0.00    0.0
2022/11/10 11:04:36.416    9.042479912    7.399432531   449.7477   5   9   3.2174   4.2258  10.4229   2.3372   1.6868  -0.4363   0.00    0.0
2022/11/10 11:04:37.416    9.042486221    7.399434237   450.9795   5   9   3.2172   4.2254  10.4241   2.3367   1.6876  -0.4344   0.00    0.0
2022/11/10 11:04:38.416    9.042476153    7.399393809   447.8853   5   9   3.2171   4.2250  10.4252   2.3362   1.6884  -0.4324   0.00    0.0
2022/11/10 11:04:39.416    9.042406892    7.399410909   448.3086   5  10   3.0465   3.9299  10.2134   1.9631   2.4705   1.4074   0.00    0.0
2022/11/10 11:04:40.416    9.042442739    7.399454853   430.2242   5   9   3.2168   4.2243  10.4275   2.3351   1.6900  -0.4284   0.00    0.0
2022/11/10 11:04:41.416    9.042433744    7.399464878   428.7205   5  10   3.0461   3.9293  10.2158   1.9620   2.4712   1.4085   0.00    0.0
2022/11/10 11:04:42.416    9.042481392    7.399452926   441.5882   5  10   3.0459   3.9290  10.2170   1.9614   2.4716   1.4091   0.00    0.0
2022/11/10 11:04:43.416    9.042454532    7.399415687   446.3829   5  10   3.0457   3.9287  10.2182   1.9608   2.4720   1.4097   0.00    0.0
2022/11/10 11:04:44.416    9.042461616    7.399407185   449.5637   5  10   3.0456   3.9284  10.2194   1.9603   2.4724   1.4102   0.00    0.0
2022/11/10 11:04:45.416    9.042418466    7.399390362   450.9661   5  10   3.0454   3.9281  10.2206   1.9597   2.4727   1.4108   0.00    0.0
2022/11/10 11:04:46.416    9.042498050    7.399381620   457.3968   5  10   3.0452   3.9278  10.2218   1.9591   2.4731   1.4114   0.00    0.0
2022/11/10 11:04:47.416    9.042476123    7.399411516   457.7554   5  10   3.0450   3.9275  10.2230   1.9586   2.4735   1.4119   0.00    0.0
2022/11/10 11:04:48.416    9.042486710    7.399436225   452.2486   5  10   3.0448   3.9272  10.2242   1.9580   2.4738   1.4125   0.00    0.0
2022/11/10 11:04:49.416    9.042458968    7.399432995   469.9775   5  10   3.0446   3.9269  10.2254   1.9575   2.4742   1.4131   0.00    0.0
2022/11/10 11:04:50.416    9.042394642    7.399440849   454.8496   5  10   3.0444   3.9266  10.2266   1.9569   2.4746   1.4137   0.00    0.0
2022/11/10 11:04:51.416    9.042440417    7.399416098   462.2463   5  10   3.0442   3.9263  10.2278   1.9563   2.4750   1.4142   0.00    0.0
2022/11/10 11:04:52.416    9.042443882    7.399386776   480.5282   5  10   3.0440   3.9260  10.2290   1.9558   2.4753   1.4148   0.00    0.0
2022/11/10 11:04:53.416    9.042460757    7.399436331   471.2642   5  10   3.0439   3.9257  10.2302   1.9552   2.4757   1.4154   0.00    0.0
2022/11/10 11:04:54.416    9.042419012    7.399417280   473.9548   5  10   3.0437   3.9254  10.2313   1.9546   2.4761   1.4160   0.00    0.0
2022/11/10 11:04:55.416    9.042451180    7.399461048   451.6805   5  10   3.0435   3.9251  10.2326   1.9541   2.4764   1.4165   0.00    0.0
2022/11/10 11:04:56.416    9.042506932    7.399525487   471.5877   5  10   3.0433   3.9247  10.2337   1.9535   2.4768   1.4171   0.00    0.0
2022/11/10 11:04:57.416    9.042450114    7.399497706   448.1737   5  10   3.0431   3.9244  10.2349   1.9530   2.4772   1.4177   0.00    0.0
2022/11/10 11:04:58.416    9.042495872    7.399494586   458.9963   5  10   3.0429   3.9241  10.2361   1.9524   2.4775   1.4182   0.00    0.0
2022/11/10 11:04:59.416    9.042420687    7.399474432   439.6482   5  10   3.0427   3.9238  10.2373   1.9518   2.4779   1.4188   0.00    0.0
2022/11/10 11:05:00.416    9.042448469    7.399504322   443.0926   5  10   3.0425   3.9235  10.2385   1.9513   2.4782   1.4194   0.00    0.0
2022/11/10 11:05:01.416    9.042464957    7.399477711   461.7034   5  10   3.0424   3.9232  10.2397   1.9507   2.4786   1.4199   0.00    0.0
2022/11/10 11:05:02.416    9.042385300    7.399448599   471.0998   5  10   3.0422   3.9229  10.2409   1.9501   2.4790   1.4205   0.00    0.0
2022/11/10 11:05:03.416    9.042411855    7.399459489   459.5328   5  10   3.0420   3.9226  10.2421   1.9496   2.4793   1.4211   0.00    0.0
2022/11/10 11:05:04.416    9.042444469    7.399428024   457.3273   5  10   3.0418   3.9223  10.2433   1.9490   2.4797   1.4216   0.00    0.0
2022/11/10 11:05:05.416    9.042452861    7.399463053   458.9892   5  10   3.0416   3.9220  10.2445   1.9485   2.4801   1.4222   0.00    0.0
2022/11/10 11:05:06.416    9.042431772    7.399524006   434.0804   5  10   3.0414   3.9217  10.2457   1.9479   2.4804   1.4228   0.00    0.0
2022/11/10 11:05:07.416    9.042520258    7.399549250   449.8838   5  10   3.0412   3.9214  10.2468   1.9473   2.4808   1.4233   0.00    0.0
2022/11/10 11:05:08.416    9.042453116    7.399535231   435.8916   5  10   3.0411   3.9211  10.2480   1.9468   2.4811   1.4239   0.00    0.0
2022/11/10 11:05:09.416    9.042505780    7.399506522   446.1485   5  10   3.0409   3.9208  10.2492   1.9462   2.4815   1.4244   0.00    0.0
2022/11/10 11:05:10.416    9.042512266    7.399500955   458.7342   5  10   3.0407   3.9205  10.2504   1.9456   2.4818   1.4250   0.00    0.0
2022/11/10 11:05:11.416    9.042516206    7.399441188   440.3510   5   9   3.0462   4.8578  10.7783   2.0781   3.9635   1.6288   0.00    0.0
2022/11/10 11:05:12.416    9.042523112    7.399568235   449.7605   5  10   3.0403   3.9199  10.2528   1.9445   2.4825   1.4261   0.00    0.0
2022/11/10 11:05:13.416    9.042509851    7.399598669   446.9448   5  10   3.0401   3.9196  10.2540   1.9440   2.4829   1.4267   0.00    0.0
2022/11/10 11:05:14.416    9.042561847    7.399709494   454.2316   5  10   3.0399   3.9193  10.2552   1.9434   2.4832   1.4272   0.00    0.0
2022/11/10 11:05:15.416    9.042564630    7.399703618   444.8851   5  10   3.0397   3.9190  10.2564   1.9428   2.4835   1.4278   0.00    0.0
2022/11/10 11:05:16.416    9.042503595    7.399472571   414.8331   5   9   3.0453   4.8569  10.7887   2.0756   3.9704   1.6323   0.00    0.0
2022/11/10 11:05:17.416    9.042529471    7.399651884   447.5925   5  10   3.0394   3.9184  10.2587   1.9417   2.4843   1.4289   0.00    0.0
2022/11/10 11:05:18.416    9.042522171    7.399638783   419.5933   5  10   3.0392   3.9181  10.2599   1.9411   2.4846   1.4295   0.00    0.0
2022/11/10 11:05:19.416    9.042539006    7.399612340   437.4051   5  10   3.0390   3.9178  10.2611   1.9406   2.4850   1.4300   0.00    0.0
2022/11/10 11:05:20.416    9.042499957    7.399425944   409.0922   5   9   3.0445   4.8562  10.7971   2.0735   3.9759   1.6350   0.00    0.0
2022/11/10 11:05:21.416    9.042552793    7.399625483   442.9191   5  10   3.0386   3.9172  10.2635   1.9394   2.4857   1.4312   0.00    0.0
2022/11/10 11:05:22.416    9.042534863    7.399590223   443.4352   5  10   3.0384   3.9169  10.2646   1.9389   2.4860   1.4317   0.00    0.0
2022/11/10 11:05:23.416    9.042566413    7.399672059   432.4499   5  10   3.0383   3.9166  10.2658   1.9383   2.4863   1.4323   0.00    0.0
2022/11/10 11:05:24.416    9.042591053    7.399582579   444.9072   5  10   3.0381   3.9163  10.2670   1.9378   2.4867   1.4328   0.00    0.0
2022/11/10 11:05:25.416    9.042560885    7.399542862   431.3161   5  10   3.0379   3.9160  10.2682   1.9372   2.4871   1.4334   0.00    0.0
2022/11/10 11:05:26.416    9.042565408    7.399494842   445.0992   5  10   3.0377   3.9157  10.2694   1.9366   2.4874   1.4339   0.00    0.0
2022/11/10 11:05:27.416    9.042524515    7.399462347   422.8566   5  10   3.0375   3.9154  10.2705   1.9361   2.4878   1.4345   0.00    0.0
2022/11/10 11:05:28.416    9.042565870    7.399519446   451.5142   5  10   3.0373   3.9151  10.2717   1.9355   2.4881   1.4351   0.00    0.0
2022/11/10 11:05:29.416    9.042544797    7.399456052   426.1404   5  10   3.0371   3.9148  10.2729   1.9349   2.4885   1.4356   0.00    0.0
2022/11/10 11:05:30.416    9.042473718    7.399393969   435.7144   5  10   3.0370   3.9145  10.2741   1.9344   2.4889   1.4362   0.00    0.0
2022/11/10 11:05:31.416    9.042444518    7.399478663   444.7502   5  10   3.0368   3.9142  10.2752   1.9338   2.4892   1.4368   0.00    0.0
2022/11/10 11:05:32.416    9.042451634    7.399511230   432.0792   5  10   3.0366   3.9139  10.2764   1.9333   2.4895   1.4374   0.00    0.0
2022/11/10 11:05:33.416    9.042475797    7.399439840   431.6773   5  10   3.0364   3.9136  10.2776   1.9327   2.4899   1.4379   0.00    0.0
2022/11/10 11:05:34.416    9.042423922    7.399384666   446.6714   5  10   3.0362   3.9133  10.2788   1.9321   2.4902   1.4385   0.00    0.0
2022/11/10 11:05:35.416    9.042442769    7.399431434   432.4527   5  10   3.0360   3.9130  10.2800   1.9316   2.4905   1.4390   0.00    0.0
2022/11/10 11:05:36.416    9.042428835    7.399339934   435.4721   5  10   3.0358   3.9127  10.2811   1.9310   2.4909   1.4396   0.00    0.0
2022/11/10 11:05:37.416    9.042393615    7.399359927   466.4940   5  10   3.0357   3.9124  10.2823   1.9304   2.4912   1.4402   0.00    0.0
2022/11/10 11:05:38.416    9.042462386    7.399320955   463.6533   5  10   3.0355   3.9121  10.2835   1.9299   2.4916   1.4407   0.00    0.0
2022/11/10 11:05:39.416    9.042439817    7.399422455   502.8491   5  10   3.0353   3.9118  10.2846   1.9293   2.4919   1.4413   0.00    0.0
2022/11/10 11:05:40.416    9.042442534    7.399471895   492.3284   5   9   3.0409   4.8527  10.8388   2.0634   4.0034   1.6488   0.00    0.0
2022/11/10 11:05:41.416    9.042470368    7.399386317   484.1403   5  10   3.0349   3.9112  10.2870   1.9282   2.4926   1.4423   0.00    0.0
2022/11/10 11:05:42.416    9.042455426    7.399531467   475.4967   5  10   3.0347   3.9109  10.2882   1.9276   2.4928   1.4429   0.00    0.0
2022/11/10 11:05:43.416    9.042452466    7.399458593   491.0944   5   9   3.0403   4.8522  10.8451   2.0619   4.0076   1.6508   0.00    0.0
2022/11/10 11:05:44.416    9.042456514    7.399378772   514.6612   5  10   3.0344   3.9103  10.2905   1.9265   2.4936   1.4440   0.00    0.0
2022/11/10 11:05:45.416    9.042446091    7.399371129   538.8997   5   9   3.0400   4.8519  10.8492   2.0609   4.0103   1.6522   0.00    0.0
2022/11/10 11:05:46.416    9.042495451    7.399400569   553.4964   5   9   3.0398   4.8517  10.8513   2.0604   4.0117   1.6529   0.00    0.0
2022/11/10 11:05:47.416    9.042493144    7.399415534   547.7762   5   9   3.0396   4.8515  10.8534   2.0599   4.0130   1.6536   0.00    0.0
2022/11/10 11:05:48.416    9.042483848    7.399470741   538.9015   5   9   3.0394   4.8513  10.8555   2.0594   4.0144   1.6542   0.00    0.0
2022/11/10 11:05:49.416    9.042500172    7.399514414   548.4672   5   9   3.0392   4.8512  10.8576   2.0589   4.0157   1.6549   0.00    0.0
2022/11/10 11:05:50.416    9.042473651    7.399488990   530.4687   5   9   3.0390   4.8510  10.8597   2.0584   4.0171   1.6556   0.00    0.0
2022/11/10 11:05:51.416    9.042462851    7.399464055   515.9028   5   9   3.0389   4.8508  10.8618   2.0579   4.0185   1.6563   0.00    0.0
2022/11/10 11:05:52.416    9.042484681    7.399519057   484.5605   5   9   3.0387   4.8507  10.8640   2.0573   4.0198   1.6570   0.00    0.0
2022/11/10 11:05:53.416    9.042466266    7.399440450   507.5331   5   9   3.0385   4.8505  10.8660   2.0568   4.0212   1.6577   0.00    0.0
2022/11/10 11:05:54.416    9.042457382    7.399509180   505.3130   5   9   3.0383   4.8503  10.8681   2.0563   4.0226   1.6583   0.00    0.0
2022/11/10 11:05:55.416    9.042444386    7.399452105   492.9584   5   9   3.0381   4.8501  10.8702   2.0558   4.0239   1.6590   0.00    0.0
2022/11/10 11:05:56.416    9.042469422    7.399475254   472.8744   5   9   3.0380   4.8500  10.8723   2.0553   4.0253   1.6597   0.00    0.0
2022/11/10 11:05:57.416    9.042431706    7.399449933   489.8868   5   9   3.0378   4.8498  10.8744   2.0548   4.0267   1.6604   0.00    0.0
2022/11/10 11:05:58.416    9.042475446    7.399484341   478.3973   5   9   3.0376   4.8496  10.8765   2.0543   4.0280   1.6610   0.00    0.0
2022/11/10 11:05:59.416    9.042462398    7.399447352   474.4925   5   9   3.0374   4.8495  10.8786   2.0538   4.0294   1.6617   0.00    0.0
2022/11/10 11:06:00.416    9.042453566    7.399462704   492.7964   5   9   3.0372   4.8493  10.8807   2.0533   4.0307   1.6624   0.00    0.0
2022/11/10 11:06:01.416    9.042476905    7.399138976   457.1855   5  10   3.0312   3.9052  10.3104   1.9169   2.4991   1.4533   0.00    0.0
2022/11/10 11:06:02.416    9.042479716    7.399413622   478.1506   5   9   3.0369   4.8490  10.8849   2.0523   4.0335   1.6638   0.00    0.0
2022/11/10 11:06:03.416    9.042460856    7.399128772   467.7077   5  10   3.0309   3.9046  10.3127   1.9158   2.4998   1.4544   0.00    0.0
2022/11/10 11:06:04.416    9.042542884    7.399424460   481.8606   5   9   3.0365   4.8486  10.8891   2.0513   4.0362   1.6651   0.00    0.0
2022/11/10 11:06:05.416    9.042428097    7.399191024   442.5287   5  10   3.0305   3.9040  10.3150   1.9147   2.5004   1.4556   0.00    0.0
2022/11/10 11:06:06.416    9.042414823    7.399301523   452.1114   5  10   3.0303   3.9037  10.3162   1.9141   2.5007   1.4561   0.00    0.0
2022/11/10 11:06:07.416    9.042453583    7.399369409   445.1041   5  10   3.0302   3.9035  10.3174   1.9135   2.5009   1.4566   0.00    0.0
2022/11/10 11:06:08.416    9.042459324    7.399394530   446.9420   5  10   3.0300   3.9032  10.3185   1.9130   2.5012   1.4572   0.00    0.0
2022/11/10 11:06:09.416    9.042421217    7.399386962   425.9061   5  10   3.0298   3.9029  10.3197   1.9124   2.5016   1.4577   0.00    0.0
2022/11/10 11:06:10.416    9.042439160    7.399364091   444.3539   5  10   3.0296   3.9026  10.3209   1.9118   2.5019   1.4583   0.00    0.0
2022/11/10 11:06:11.416    9.042451245    7.399411478   462.6925   5  10   3.0294   3.9023  10.3220   1.9113   2.5022   1.4588   0.00    0.0
2022/11/10 11:06:12.416    9.042515502    7.399372684   461.8270   5  10   3.0292   3.9020  10.3232   1.9107   2.5025   1.4593   0.00    0.0
2022/11/10 11:06:13.416    9.042440710    7.399352404   461.1154   5  10   3.0291   3.9017  10.3243   1.9102   2.5028   1.4599   0.00    0.0
2022/11/10 11:06:14.416    9.042534629    7.399412574   462.0119   5  10   3.0289   3.9014  10.3255   1.9096   2.5031   1.4604   0.00    0.0
2022/11/10 11:06:15.416    9.042505173    7.399370022   440.0268   5  10   3.0287   3.9011  10.3267   1.9090   2.5034   1.4609   0.00    0.0
2022/11/10 11:06:16.416    9.042500154    7.399359053   453.2461   5  10   3.0285   3.9008  10.3278   1.9085   2.5037   1.4615   0.00    0.0
2022/11/10 11:06:17.416    9.042500871    7.399433334   438.6299   5  10   3.0283   3.9005  10.3290   1.9079   2.5040   1.4620   0.00    0.0
2022/11/10 11:06:18.416    9.042472473    7.399426266   437.7205   5  10   3.0281   3.9002  10.3301   1.9073   2.5043   1.4626   0.00    0.0
2022/11/10 11:06:19.416    9.042537382    7.399410932   447.0205   5  10   3.0280   3.8999  10.3313   1.9068   2.5046   1.4631   0.00    0.0
2022/11/10 11:06:20.416    9.042484271    7.399471581   429.0860   5  10   3.0278   3.8996  10.3325   1.9062   2.5049   1.4636   0.00    0.0
2022/11/10 11:06:21.416    9.042475642    7.399452081   434.8839   5  10   3.0276   3.8993  10.3336   1.9056   2.5052   1.4642   0.00    0.0
2022/11/10 11:06:22.416    9.042518144    7.399386407   438.2558   5  10   3.0274   3.8990  10.3348   1.9051   2.5055   1.4647   0.00    0.0
2022/11/10 11:06:23.416    9.042497859    7.399377862   456.5094   5  10   3.0272   3.8987  10.3359   1.9045   2.5058   1.4653   0.00    0.0
2022/11/10 11:06:24.416    9.042538495    7.399407098   449.8623   5  10   3.0271   3.8984  10.3371   1.9039   2.5061   1.4658   0.00    0.0
2022/11/10 11:06:25.416    9.042492678    7.399368955   454.0791   5  10   3.0269   3.8981  10.3382   1.9034   2.5064   1.4663   0.00    0.0
2022/11/10 11:06:26.416    9.042522750    7.399364864   451.6402   5  10   3.0267   3.8978  10.3394   1.9028   2.5067   1.4669   0.00    0.0
2022/11/10 11:06:27.416    9.042512079    7.399349348   468.2235   5  10   3.0265   3.8976  10.3405   1.9022   2.5070   1.4674   0.00    0.0
2022/11/10 11:06:28.416    9.042494726    7.399376831   454.6872   5  10   3.0263   3.8973  10.3417   1.9017   2.5073   1.4679   0.00    0.0
2022/11/10 11:06:29.416    9.042568019    7.399404268   469.5623   5  10   3.0261   3.8970  10.3428   1.9011   2.5076   1.4684   0.00    0.0
2022/11/10 11:06:30.416    9.042547537    7.399419422   451.3835   5  10   3.0260   3.8967  10.3440   1.9005   2.5079   1.4690   0.00    0.0
2022/11/10 11:06:31.416    9.042513561    7.399426806   439.9563   5  10   3.0258   3.8964  10.3452   1.9000   2.5082   1.4695   0.00    0.0
2022/11/10 11:06:32.416    9.042499613    7.399425940   432.9229   5  10   3.0256   3.8961  10.3463   1.8994   2.5085   1.4701   0.00    0.0
2022/11/10 11:06:33.416    9.042492026    7.399384717   437.9899   5  10   3.0254   3.8958  10.3475   1.8989   2.5088   1.4706   0.00    0.0
2022/11/10 11:06:34.416    9.042473566    7.399423911   446.1493   5  10   3.0252   3.8955  10.3486   1.8983   2.5091   1.4712   0.00    0.0
2022/11/10 11:06:35.416    9.042469381    7.399339613   440.8053   5  10   3.0251   3.8952  10.3497   1.8977   2.5094   1.4717   0.00    0.0
2022/11/10 11:06:36.416    9.042439739    7.399377294   454.6098   5  10   3.0249   3.8949  10.3509   1.8972   2.5097   1.4723   0.00    0.0
2022/11/10 11:06:37.416    9.042475198    7.399431321   444.4279   5  10   3.0247   3.8946  10.3521   1.8966   2.5099   1.4728   0.00    0.0
2022/11/10 11:06:38.416    9.042507838    7.399357516   458.6212   5  10   3.0245   3.8943  10.3532   1.8960   2.5103   1.4733   0.00    0.0
2022/11/10 11:06:39.416    9.042580185    7.399394969   453.5613   5  10   3.0243   3.8940  10.3543   1.8955   2.5105   1.4738   0.00    0.0
2022/11/10 11:06:40.416    9.042523570    7.399353183   471.0540   5  10   3.0242   3.8937  10.3555   1.8949   2.5108   1.4744   0.00    0.0
2022/11/10 11:06:41.416    9.042515784    7.399415729   469.0915   5  10   3.0240   3.8934  10.3566   1.8943   2.5111   1.4749   0.00    0.0
2022/11/10 11:06:42.416    9.042545570    7.399337229   490.6570   5  10   3.0238   3.8932  10.3578   1.8938   2.5114   1.4754   0.00    0.0
2022/11/10 11:06:43.416    9.042497461    7.399387884   467.4084   5  10   3.0236   3.8929  10.3589   1.8932   2.5117   1.4760   0.00    0.0
2022/11/10 11:06:44.416    9.042480193    7.399333477   491.7392   5  10   3.0234   3.8926  10.3600   1.8926   2.5120   1.4765   0.00    0.0
2022/11/10 11:06:45.416    9.042473851    7.399335210   488.7022   5  10   3.0233   3.8923  10.3612   1.8921   2.5123   1.4770   0.00    0.0
2022/11/10 11:06:46.416    9.042453293    7.399284870   500.2480   5  10   3.0231   3.8920  10.3623   1.8915   2.5126   1.4776   0.00    0.0
2022/11/10 11:06:47.416    9.042472930    7.399297349   487.6643   5  10   3.0229   3.8917  10.3635   1.8909   2.5128   1.4781   0.00    0.0
2022/11/10 11:06:48.416    9.042415234    7.399322527   463.9922   5  10   3.0227   3.8914  10.3646   1.8904   2.5131   1.4787   0.00    0.0
2022/11/10 11:06:49.416    9.042389105    7.399308234   468.2316   5  10   3.0225   3.8911  10.3658   1.8898   2.5134   1.4792   0.00    0.0
2022/11/10 11:06:50.416    9.042403537    7.399307611   485.7987   5  10   3.0224   3.8908  10.3669   1.8893   2.5137   1.4797   0.00    0.0
2022/11/10 11:06:51.416    9.042416365    7.399318510   484.5205   5  10   3.0222   3.8905  10.3681   1.8887   2.5140   1.4803   0.00    0.0
2022/11/10 11:06:52.416    9.042443062    7.399276625   486.3119   5  10   3.0220   3.8902  10.3692   1.8881   2.5142   1.4808   0.00    0.0
2022/11/10 11:06:53.416    9.042458836    7.399331814   478.9979   5  10   3.0218   3.8899  10.3703   1.8876   2.5145   1.4813   0.00    0.0
2022/11/10 11:06:54.416    9.042450365    7.399283985   505.4949   5  10   3.0216   3.8897  10.3715   1.8870   2.5148   1.4818   0.00    0.0
2022/11/10 11:06:55.416    9.042432780    7.399329025   489.9932   5  10   3.0215   3.8894  10.3726   1.8864   2.5151   1.4824   0.00    0.0
2022/11/10 11:06:56.416    9.042412185    7.399308606   483.6099   5  10   3.0213   3.8891  10.3738   1.8859   2.5153   1.4829   0.00    0.0
2022/11/10 11:06:57.416    9.042422586    7.399293819   484.7774   5  10   3.0211   3.8888  10.3749   1.8853   2.5156   1.4834   0.00    0.0
2022/11/10 11:06:58.416    9.042436464    7.399276319   488.7960   5  10   3.0209   3.8885  10.3760   1.8847   2.5159   1.4839   0.00    0.0
