% program   : RTKPOST ver.demo5 b34g
% inp file  : C:\Users\Abdullateef\Documents\PHD\Research on Precision Agriculture Navigation Technology\nav data\GNSS Log file\Geo++\GEOP314L.22o
% inp file  : C:\Users\Abdullateef\Documents\PHD\Research on Precision Agriculture Navigation Technology\nav data\GNSS Log file\Nav file\BRDC00WRD_S_20223140000_01D_MN.rnx\BRDC00WRD_S_20223140000_01D_MN.rnx
% obs start : 2022/11/10 11:00:00.4 GPST (week2235 385200.4s)
% obs end   : 2022/11/10 11:39:12.4 GPST (week2235 387552.4s)
% pos mode  : Single
% elev mask : 15.0 deg
% ionos opt : Broadcast
% tropo opt : Saastamoinen
% ephemeris : Broadcast
% navi sys  : GPS GLONASS Galileo BDS
%
% (lat/lon/height=WGS84/ellipsoidal,Q=1:fix,2:float,3:sbas,4:dgps,5:single,6:ppp,ns=# of satellites)
%  GPST                  latitude(deg) longitude(deg)  height(m)   Q  ns   sdn(m)   sde(m)   sdu(m)  sdne(m)  sdeu(m)  sdun(m) age(s)  ratio
2022/11/10 11:00:00.416    9.042507472    7.399354734   479.1250   5  15   2.5793   2.4801   7.0726   0.8557   1.7337   2.6103   0.00    0.0
2022/11/10 11:00:01.416    9.042568386    7.399336045   486.6195   5  15   2.5793   2.4801   7.0734   0.8555   1.7339   2.6104   0.00    0.0
2022/11/10 11:00:02.416    9.042533579    7.399384494   483.4896   5  15   2.5793   2.4801   7.0742   0.8553   1.7340   2.6105   0.00    0.0
2022/11/10 11:00:03.416    9.042565063    7.399405200   472.9055   5  14   2.6080   2.6599   7.1913   0.6000   2.0605   2.5136   0.00    0.0
2022/11/10 11:00:04.416    9.042582236    7.399358048   473.8177   5  15   2.5792   2.4802   7.0757   0.8548   1.7344   2.6107   0.00    0.0
2022/11/10 11:00:05.416    9.042553473    7.399381431   482.0150   5  15   2.5792   2.4802   7.0765   0.8546   1.7346   2.6108   0.00    0.0
2022/11/10 11:00:06.416    9.042579789    7.399315509   477.1902   5  15   2.5792   2.4802   7.0773   0.8544   1.7348   2.6109   0.00    0.0
2022/11/10 11:00:07.416    9.042607602    7.399365041   472.3071   5  15   2.5792   2.4802   7.0781   0.8542   1.7350   2.6110   0.00    0.0
2022/11/10 11:00:08.416    9.042562281    7.399344015   475.9072   5  15   2.5792   2.4802   7.0788   0.8540   1.7352   2.6111   0.00    0.0
2022/11/10 11:00:09.416    9.042470392    7.399393798   453.5439   5  14   3.5588   2.5246   8.1620  -0.6530   1.0478   4.0961   0.00    0.0
2022/11/10 11:00:10.416    9.042524987    7.399376300   475.8882   5  15   2.5791   2.4802   7.0804   0.8536   1.7356   2.6113   0.00    0.0
2022/11/10 11:00:11.416    9.042466676    7.399412755   474.3448   5  13   3.6732   2.7476   8.1756  -1.1905   1.2669   4.0427   0.00    0.0
2022/11/10 11:00:12.416    9.042527324    7.399380432   470.0342   5  14   3.5578   2.5248   8.1623  -0.6550   1.0478   4.0946   0.00    0.0
2022/11/10 11:00:13.416    9.042420887    7.399381622   450.4198   5  15   2.5791   2.4803   7.0827   0.8529   1.7361   2.6116   0.00    0.0
2022/11/10 11:00:14.416    9.042495565    7.399390947   473.0647   5  14   3.5572   2.5249   8.1624  -0.6564   1.0478   4.0936   0.00    0.0
2022/11/10 11:00:15.416    9.042535354    7.399369295   472.1277   5  14   3.5569   2.5250   8.1625  -0.6571   1.0478   4.0930   0.00    0.0
2022/11/10 11:00:16.416    9.042529871    7.399370162   481.3108   5  14   3.5566   2.5250   8.1626  -0.6578   1.0478   4.0925   0.00    0.0
2022/11/10 11:00:17.416    9.042521501    7.399374009   479.8248   5  15   2.5790   2.4803   7.0858   0.8521   1.7369   2.6120   0.00    0.0
2022/11/10 11:00:18.416    9.042542838    7.399370873   491.4741   5  14   3.5559   2.5252   8.1627  -0.6591   1.0478   4.0915   0.00    0.0
2022/11/10 11:00:19.416    9.042507427    7.399364102   484.1886   5  14   3.5556   2.5252   8.1628  -0.6598   1.0478   4.0910   0.00    0.0
2022/11/10 11:00:20.416    9.042652765    7.399348990   492.6137   5  15   2.5789   2.4803   7.0881   0.8514   1.7375   2.6122   0.00    0.0
2022/11/10 11:00:21.416    9.042460911    7.399377699   470.6272   5  14   3.5550   2.5254   8.1630  -0.6612   1.0478   4.0900   0.00    0.0
2022/11/10 11:00:22.416    9.042547187    7.399393613   478.4502   5  15   2.5789   2.4804   7.0897   0.8510   1.7378   2.6124   0.00    0.0
2022/11/10 11:00:23.416    9.042480343    7.399389756   469.7521   5  14   3.5543   2.5255   8.1631  -0.6625   1.0478   4.0889   0.00    0.0
2022/11/10 11:00:24.416    9.042435809    7.399361067   468.8753   5  14   3.5540   2.5256   8.1632  -0.6632   1.0478   4.0884   0.00    0.0
2022/11/10 11:00:25.416    9.042630489    7.399321783   507.7430   5  15   2.5788   2.4804   7.0920   0.8504   1.7384   2.6127   0.00    0.0
2022/11/10 11:00:26.416    9.042342701    7.399365114   461.1469   5  14   3.5534   2.5257   8.1633  -0.6645   1.0478   4.0874   0.00    0.0
2022/11/10 11:00:27.416    9.042391909    7.399366665   473.3060   5  14   3.5531   2.5258   8.1634  -0.6652   1.0478   4.0869   0.00    0.0
2022/11/10 11:00:28.416    9.042413066    7.399329458   465.9226   5  14   3.5528   2.5259   8.1635  -0.6659   1.0478   4.0863   0.00    0.0
2022/11/10 11:00:29.416    9.042331243    7.399325800   456.7998   5  14   3.5524   2.5259   8.1636  -0.6665   1.0478   4.0858   0.00    0.0
2022/11/10 11:00:30.416    9.042294868    7.399330886   450.6068   5  14   3.5521   2.5260   8.1636  -0.6672   1.0478   4.0853   0.00    0.0
2022/11/10 11:00:31.416    9.042390972    7.399310865   457.2195   5  14   3.5518   2.5261   8.1637  -0.6679   1.0478   4.0848   0.00    0.0
2022/11/10 11:00:32.416    9.042412044    7.399313421   453.7032   5  14   3.5515   2.5261   8.1638  -0.6685   1.0478   4.0843   0.00    0.0
2022/11/10 11:00:33.416    9.042395282    7.399355564   461.9059   5  15   2.6460   2.5150   6.1727  -1.0047  -0.4110   2.0056   0.00    0.0
2022/11/10 11:00:34.416    9.042354632    7.399359083   440.2496   5  15   2.6459   2.5151   6.1730  -1.0049  -0.4099   2.0052   0.00    0.0
2022/11/10 11:00:35.416    9.042395127    7.399346005   436.9848   5  15   2.6458   2.5152   6.1733  -1.0051  -0.4087   2.0048   0.00    0.0
2022/11/10 11:00:36.416    9.042386420    7.399347882   423.2417   5  15   2.6458   2.5153   6.1736  -1.0053  -0.4076   2.0045   0.00    0.0
2022/11/10 11:00:37.416    9.042403916    7.399392608   444.7893   5  15   2.6457   2.5154   6.1739  -1.0055  -0.4064   2.0041   0.00    0.0
2022/11/10 11:00:38.416    9.042500696    7.399356684   456.2025   5  15   2.6456   2.5155   6.1742  -1.0057  -0.4052   2.0037   0.00    0.0
2022/11/10 11:00:39.416    9.042465421    7.399365912   456.8643   5  15   2.6456   2.5156   6.1745  -1.0059  -0.4041   2.0033   0.00    0.0
2022/11/10 11:00:40.416    9.042459624    7.399422460   450.4258   5  15   2.6455   2.5156   6.1748  -1.0061  -0.4029   2.0030   0.00    0.0
2022/11/10 11:00:41.416    9.042477094    7.399373271   450.7322   5  15   2.6454   2.5157   6.1751  -1.0064  -0.4017   2.0026   0.00    0.0
2022/11/10 11:00:42.416    9.042567706    7.399354817   468.5563   5  15   2.6454   2.5158   6.1755  -1.0066  -0.4005   2.0022   0.00    0.0
2022/11/10 11:00:43.416    9.042443438    7.399396589   460.8867   5  15   2.6453   2.5159   6.1758  -1.0068  -0.3994   2.0018   0.00    0.0
2022/11/10 11:00:44.416    9.042442946    7.399381299   458.5340   5  15   2.6452   2.5160   6.1761  -1.0070  -0.3982   2.0014   0.00    0.0
2022/11/10 11:00:45.416    9.042519263    7.399382705   460.3674   5  15   2.6452   2.5161   6.1764  -1.0072  -0.3970   2.0011   0.00    0.0
2022/11/10 11:00:46.416    9.042599273    7.399419341   471.7040   5  15   2.6451   2.5161   6.1767  -1.0074  -0.3958   2.0007   0.00    0.0
2022/11/10 11:00:47.416    9.042594581    7.399325936   464.8425   5  16   2.2451   2.4127   6.0143  -0.1270   0.9222   1.4254   0.00    0.0
2022/11/10 11:00:48.416    9.042645406    7.399362239   463.4992   5  16   2.2451   2.4127   6.0148  -0.1279   0.9225   1.4253   0.00    0.0
2022/11/10 11:00:49.416    9.042587580    7.399372580   468.1782   5  15   2.6449   2.5164   6.1776  -1.0080  -0.3922   1.9995   0.00    0.0
2022/11/10 11:00:50.416    9.042575760    7.399361876   471.6878   5  16   2.2450   2.4128   6.0158  -0.1297   0.9232   1.4251   0.00    0.0
2022/11/10 11:00:51.416    9.042657142    7.399305946   478.8525   5  16   2.2450   2.4128   6.0163  -0.1306   0.9235   1.4250   0.00    0.0
2022/11/10 11:00:52.416    9.042655587    7.399316409   488.9878   5  16   2.2450   2.4128   6.0168  -0.1315   0.9239   1.4250   0.00    0.0
2022/11/10 11:00:53.416    9.042587599    7.399365687   475.7707   5  15   2.6446   2.5167   6.1789  -1.0088  -0.3873   1.9980   0.00    0.0
2022/11/10 11:00:54.416    9.042644882    7.399294728   468.8833   5  16   2.2450   2.4129   6.0179  -0.1333   0.9246   1.4248   0.00    0.0
2022/11/10 11:00:55.416    9.042464477    7.399335979   456.3355   5  15   2.6445   2.5169   6.1795  -1.0092  -0.3848   1.9973   0.00    0.0
2022/11/10 11:00:56.416    9.042478521    7.399363827   445.4861   5  15   2.6444   2.5170   6.1798  -1.0094  -0.3836   1.9969   0.00    0.0
2022/11/10 11:00:57.416    9.042465211    7.399384489   467.6962   5  15   2.6444   2.5171   6.1801  -1.0096  -0.3824   1.9965   0.00    0.0
2022/11/10 11:00:58.416    9.042553448    7.399340385   470.5844   5  15   2.6443   2.5172   6.1804  -1.0098  -0.3811   1.9961   0.00    0.0
2022/11/10 11:00:59.416    9.042569818    7.399370286   478.0462   5  15   2.6442   2.5172   6.1807  -1.0100  -0.3799   1.9957   0.00    0.0
2022/11/10 11:01:00.416    9.042578563    7.399372888   473.2886   5  15   2.6442   2.5173   6.1810  -1.0102  -0.3786   1.9954   0.00    0.0
2022/11/10 11:01:01.416    9.042531874    7.399357550   458.5105   5  15   2.6441   2.5174   6.1813  -1.0104  -0.3773   1.9950   0.00    0.0
2022/11/10 11:01:02.416    9.042560976    7.399386627   468.4801   5  15   2.6440   2.5175   6.1816  -1.0106  -0.3761   1.9946   0.00    0.0
2022/11/10 11:01:03.416    9.042563883    7.399375194   463.3694   5  15   2.6440   2.5176   6.1820  -1.0108  -0.3748   1.9942   0.00    0.0
2022/11/10 11:01:04.416    9.042557322    7.399374689   464.5193   5  15   2.6439   2.5177   6.1823  -1.0110  -0.3735   1.9938   0.00    0.0
2022/11/10 11:01:05.416    9.042579834    7.399366288   480.7189   5  15   2.2624   2.4570   6.2598   0.3304   0.2754   1.2447   0.00    0.0
2022/11/10 11:01:06.416    9.042508331    7.399375297   463.6799   5  14   2.6937   2.5418   6.3613  -0.9182  -0.8117   1.7888   0.00    0.0
2022/11/10 11:01:07.416    9.042470772    7.399403244   475.8899   5  14   2.6937   2.5419   6.3616  -0.9184  -0.8111   1.7882   0.00    0.0
2022/11/10 11:01:08.416    9.042475309    7.399360347   474.0474   5  14   2.6937   2.5420   6.3620  -0.9186  -0.8104   1.7877   0.00    0.0
2022/11/10 11:01:09.416    9.042484534    7.399404658   458.5698   5  14   2.6937   2.5420   6.3623  -0.9188  -0.8097   1.7871   0.00    0.0
2022/11/10 11:01:10.416    9.042473532    7.399387859   449.8023   5  14   2.6937   2.5421   6.3626  -0.9190  -0.8090   1.7865   0.00    0.0
2022/11/10 11:01:11.416    9.042445947    7.399409991   453.0148   5  14   2.6937   2.5422   6.3629  -0.9192  -0.8084   1.7860   0.00    0.0
2022/11/10 11:01:12.416    9.042497385    7.399375723   454.8470   5  14   2.6937   2.5423   6.3632  -0.9194  -0.8077   1.7854   0.00    0.0
2022/11/10 11:01:13.416    9.042469279    7.399419385   462.0162   5  14   2.6937   2.5423   6.3635  -0.9196  -0.8070   1.7848   0.00    0.0
2022/11/10 11:01:14.416    9.042484136    7.399399611   451.2156   5  15   2.6432   2.5185   6.1854  -1.0131  -0.3605   1.9900   0.00    0.0
2022/11/10 11:01:15.416    9.042624211    7.399321279   464.6116   5  16   2.2448   2.4136   6.0285  -0.1507   0.9316   1.4232   0.00    0.0
2022/11/10 11:01:16.416    9.042521873    7.399275446   461.9400   5  16   2.2448   2.4137   6.0290  -0.1515   0.9319   1.4231   0.00    0.0
2022/11/10 11:01:17.416    9.042407639    7.399358875   440.6625   5  15   2.6431   2.5188   6.1863  -1.0137  -0.3565   1.9889   0.00    0.0
2022/11/10 11:01:18.416    9.042456801    7.399337928   437.1987   5  15   2.6430   2.5189   6.1866  -1.0139  -0.3551   1.9885   0.00    0.0
2022/11/10 11:01:19.416    9.042505029    7.399282336   467.9038   5  16   2.2448   2.4138   6.0306  -0.1538   0.9329   1.4229   0.00    0.0
2022/11/10 11:01:20.416    9.042387751    7.399335746   436.7704   5  15   2.6429   2.5190   6.1872  -1.0143  -0.3524   1.9877   0.00    0.0
2022/11/10 11:01:21.416    9.042505078    7.399303742   453.0094   5  16   2.2448   2.4138   6.0316  -0.1554   0.9336   1.4227   0.00    0.0
2022/11/10 11:01:22.416    9.042463974    7.399306109   450.0000   5  16   2.2448   2.4139   6.0321  -0.1561   0.9339   1.4226   0.00    0.0
2022/11/10 11:01:23.416    9.042435299    7.399348617   439.3909   5  15   2.6427   2.5193   6.1882  -1.0149  -0.3483   1.9866   0.00    0.0
2022/11/10 11:01:24.416    9.042557326    7.399276176   469.3223   5  16   2.2448   2.4139   6.0331  -0.1576   0.9346   1.4225   0.00    0.0
2022/11/10 11:01:25.416    9.042449437    7.399335927   448.4046   5  15   2.6425   2.5195   6.1888  -1.0153  -0.3455   1.9858   0.00    0.0
2022/11/10 11:01:26.416    9.042433629    7.399376865   447.4426   5  15   2.6425   2.5195   6.1891  -1.0155  -0.3441   1.9854   0.00    0.0
2022/11/10 11:01:27.416    9.042551652    7.399282153   447.8974   5  16   2.2447   2.4140   6.0346  -0.1599   0.9356   1.4222   0.00    0.0
2022/11/10 11:01:28.416    9.042439065    7.399398574   451.7039   5  15   2.6423   2.5197   6.1897  -1.0160  -0.3413   1.9846   0.00    0.0
2022/11/10 11:01:29.416    9.042537689    7.399324986   461.9127   5  16   2.2447   2.4141   6.0356  -0.1614   0.9363   1.4221   0.00    0.0
2022/11/10 11:01:30.416    9.042605980    7.399298414   480.5446   5  16   2.2447   2.4141   6.0361  -0.1621   0.9366   1.4220   0.00    0.0
2022/11/10 11:01:31.416    9.042406821    7.399357688   463.8752   5  15   2.6421   2.5200   6.1906  -1.0166  -0.3370   1.9835   0.00    0.0
2022/11/10 11:01:32.416    9.042433714    7.399362505   467.2899   5  15   2.6421   2.5201   6.1909  -1.0168  -0.3355   1.9831   0.00    0.0
2022/11/10 11:01:33.416    9.042583188    7.399270136   488.0336   5  16   2.2447   2.4142   6.0377  -0.1643   0.9376   1.4218   0.00    0.0
2022/11/10 11:01:34.416    9.042415557    7.399388169   457.7018   5  15   2.6419   2.5202   6.1916  -1.0172  -0.3327   1.9823   0.00    0.0
2022/11/10 11:01:35.416    9.042532889    7.399355993   460.4469   5  16   2.2447   2.4143   6.0387  -0.1657   0.9382   1.4216   0.00    0.0
2022/11/10 11:01:36.416    9.042478536    7.399364515   463.2325   5  15   2.6418   2.5204   6.1922  -1.0176  -0.3297   1.9815   0.00    0.0
2022/11/10 11:01:37.416    9.042444641    7.399371880   445.1660   5  15   2.6417   2.5205   6.1925  -1.0178  -0.3282   1.9811   0.00    0.0
2022/11/10 11:01:38.416    9.042469468    7.399350414   456.5127   5  15   2.6417   2.5206   6.1928  -1.0180  -0.3267   1.9807   0.00    0.0
2022/11/10 11:01:39.416    9.042616630    7.399316957   457.1924   5  16   2.2446   2.4145   6.0407  -0.1686   0.9396   1.4213   0.00    0.0
2022/11/10 11:01:40.416    9.042453148    7.399351213   449.4772   5  15   2.6415   2.5207   6.1934  -1.0184  -0.3237   1.9800   0.00    0.0
2022/11/10 11:01:41.416    9.042529217    7.399294863   475.0248   5  16   2.2446   2.4145   6.0417  -0.1700   0.9402   1.4211   0.00    0.0
2022/11/10 11:01:42.416    9.042392617    7.399357904   455.1332   5  15   2.6414   2.5209   6.1941  -1.0188  -0.3207   1.9792   0.00    0.0
2022/11/10 11:01:43.416    9.042442127    7.399352724   444.3701   5  16   2.2446   2.4146   6.0427  -0.1714   0.9409   1.4210   0.00    0.0
2022/11/10 11:01:44.416    9.042352190    7.399359429   458.3317   5  15   2.6413   2.5211   6.1947  -1.0192  -0.3177   1.9784   0.00    0.0
2022/11/10 11:01:45.416    9.042450861    7.399320173   454.4153   5  16   2.2446   2.4147   6.0438  -0.1728   0.9415   1.4208   0.00    0.0
2022/11/10 11:01:46.416    9.042408440    7.399300942   451.1937   5  16   2.2446   2.4147   6.0443  -0.1734   0.9419   1.4207   0.00    0.0
2022/11/10 11:01:47.416    9.042384685    7.399316754   454.9811   5  16   2.2446   2.4147   6.0448  -0.1741   0.9422   1.4207   0.00    0.0
2022/11/10 11:01:48.416    9.042343224    7.399359551   447.0790   5  15   2.6410   2.5214   6.1959  -1.0200  -0.3115   1.9769   0.00    0.0
2022/11/10 11:01:49.416    9.042407246    7.399326281   468.9233   5  16   2.2445   2.4148   6.0458  -0.1755   0.9429   1.4205   0.00    0.0
2022/11/10 11:01:50.416    9.042339272    7.399381380   472.9669   5  15   2.6409   2.5216   6.1965  -1.0204  -0.3083   1.9761   0.00    0.0
2022/11/10 11:01:51.416    9.042358044    7.399381350   491.1978   5  15   2.6408   2.5217   6.1968  -1.0206  -0.3068   1.9757   0.00    0.0
2022/11/10 11:01:52.416    9.042422648    7.399393172   500.4573   5  15   2.6407   2.5218   6.1972  -1.0208  -0.3052   1.9753   0.00    0.0
2022/11/10 11:01:53.416    9.042515567    7.399267935   505.6627   5  16   2.2445   2.4149   6.0478  -0.1782   0.9442   1.4202   0.00    0.0
2022/11/10 11:01:54.416    9.042573523    7.399322934   514.3376   5  16   2.2445   2.4150   6.0483  -0.1789   0.9445   1.4201   0.00    0.0
2022/11/10 11:01:55.416    9.042426811    7.399384059   493.3365   5  15   2.6405   2.5220   6.1981  -1.0215  -0.3003   1.9741   0.00    0.0
2022/11/10 11:01:56.416    9.042477630    7.399394105   497.6226   5  15   2.6405   2.5221   6.1984  -1.0217  -0.2987   1.9737   0.00    0.0
2022/11/10 11:01:57.416    9.042531762    7.399338249   502.9042   5  16   2.2445   2.4151   6.0498  -0.1809   0.9455   1.4199   0.00    0.0
2022/11/10 11:01:58.416    9.042487491    7.399374987   495.5220   5  15   2.6403   2.5223   6.1990  -1.0221  -0.2954   1.9729   0.00    0.0
2022/11/10 11:01:59.416    9.042479146    7.399368639   486.6836   5  16   2.2445   2.4151   6.0508  -0.1822   0.9461   1.4197   0.00    0.0
2022/11/10 11:02:00.416    9.042449122    7.399360439   473.2438   5  15   2.6402   2.5225   6.1996  -1.0225  -0.2920   1.9721   0.00    0.0
2022/11/10 11:02:01.416    9.042466422    7.399362054   463.5797   5  16   2.2444   2.4152   6.0519  -0.1835   0.9468   1.4195   0.00    0.0
2022/11/10 11:02:02.416    9.042419292    7.399400068   461.3634   5  16   2.2444   2.4152   6.0524  -0.1842   0.9471   1.4195   0.00    0.0
2022/11/10 11:02:03.416    9.042484276    7.399338886   468.6796   5  16   2.2444   2.4153   6.0529  -0.1848   0.9474   1.4194   0.00    0.0
2022/11/10 11:02:04.416    9.042488107    7.399379735   449.6773   5  15   2.6400   2.5228   6.2009  -1.0233  -0.2852   1.9706   0.00    0.0
2022/11/10 11:02:05.416    9.042517388    7.399367905   462.2874   5  16   2.2444   2.4153   6.0539  -0.1861   0.9481   1.4192   0.00    0.0
2022/11/10 11:02:06.416    9.042467967    7.399363625   461.3065   5  15   2.6398   2.5230   6.2015  -1.0237  -0.2817   1.9698   0.00    0.0
2022/11/10 11:02:07.416    9.042468202    7.399312596   451.7771   5  16   2.2444   2.4154   6.0549  -0.1874   0.9488   1.4191   0.00    0.0
2022/11/10 11:02:08.416    9.042440654    7.399306200   457.4108   5  15   2.6397   2.5232   6.2021  -1.0241  -0.2781   1.9690   0.00    0.0
2022/11/10 11:02:09.416    9.042428493    7.399322049   458.9350   5  15   2.6396   2.5233   6.2024  -1.0243  -0.2764   1.9686   0.00    0.0
2022/11/10 11:02:10.416    9.042563336    7.399263128   485.1765   5  16   2.2444   2.4155   6.0564  -0.1893   0.9497   1.4188   0.00    0.0
2022/11/10 11:02:11.416    9.042404700    7.399341329   486.3821   5  15   2.6395   2.5234   6.2031  -1.0247  -0.2728   1.9678   0.00    0.0
2022/11/10 11:02:12.416    9.042455134    7.399318211   470.4537   5  14   2.6414   2.5267   7.4920  -1.0185   0.6765   2.0745   0.00    0.0
2022/11/10 11:02:13.416    9.042404262    7.399359009   508.3434   5  14   2.7507   2.7599   6.2659  -1.3844   0.9548   1.7852   0.00    0.0
2022/11/10 11:02:14.416    9.042488028    7.399319930   479.6304   5  14   2.3256   2.4594   7.7913  -0.5278   1.4623   1.3752   0.00    0.0
2022/11/10 11:02:15.416    9.042544073    7.399342327   521.3850   5  16   2.2443   2.4157   6.0589  -0.1924   0.9514   1.4184   0.00    0.0
2022/11/10 11:02:16.416    9.042524884    7.399340448   485.5509   5  13   2.7001   2.5696   7.8355  -1.1402   1.2365   1.7375   0.00    0.0
2022/11/10 11:02:17.416    9.042449712    7.399323830   385.6498   5  16   2.2443   2.4158   6.0600  -0.1937   0.9520   1.4183   0.00    0.0
2022/11/10 11:02:18.416    9.042549552    7.399313677   445.9033   5  15   2.3131   2.4588   6.4207  -0.5424   1.3704   0.9077   0.00    0.0
2022/11/10 11:02:19.416    9.042423757    7.399376025   381.0233   5  15   2.3131   2.4589   6.4211  -0.5427   1.3706   0.9076   0.00    0.0
2022/11/10 11:02:20.416    9.042590829    7.399325996   469.0136   5  16   2.2443   2.4159   6.0615  -0.1955   0.9530   1.4180   0.00    0.0
2022/11/10 11:02:21.416    9.042463379    7.399408601   452.5516   5  15   2.3131   2.4590   6.4219  -0.5432   1.3710   0.9073   0.00    0.0
2022/11/10 11:02:22.416    9.042488616    7.399370077   461.2447   5  16   2.2443   2.4159   6.0625  -0.1968   0.9536   1.4178   0.00    0.0
2022/11/10 11:02:23.416    9.042537891    7.399389400   486.9066   5  15   2.3132   2.4590   6.4227  -0.5438   1.3715   0.9070   0.00    0.0
2022/11/10 11:02:24.416    9.042523674    7.399358367   489.1428   5  15   2.3132   2.4591   6.4231  -0.5441   1.3718   0.9068   0.00    0.0
2022/11/10 11:02:25.416    9.042515879    7.399361225   471.0558   5  15   2.3132   2.4591   6.4235  -0.5444   1.3720   0.9067   0.00    0.0
2022/11/10 11:02:26.416    9.042572797    7.399364435   484.9043   5  16   2.2442   2.4161   6.0645  -0.1992   0.9549   1.4175   0.00    0.0
2022/11/10 11:02:27.416    9.042504185    7.399388423   473.1583   5  15   2.3132   2.4592   6.4243  -0.5449   1.3724   0.9064   0.00    0.0
2022/11/10 11:02:28.416    9.042495904    7.399350689   466.5894   5  15   2.3132   2.4593   6.4247  -0.5452   1.3727   0.9062   0.00    0.0
2022/11/10 11:02:29.416    9.042500341    7.399379720   456.4041   5  15   2.3132   2.4593   6.4251  -0.5455   1.3729   0.9061   0.00    0.0
2022/11/10 11:02:30.416    9.042470901    7.399360868   445.5761   5  15   2.3132   2.4594   6.4255  -0.5458   1.3731   0.9059   0.00    0.0
2022/11/10 11:02:31.416    9.042512999    7.399363813   436.8803   5  15   2.3132   2.4594   6.4259  -0.5461   1.3734   0.9058   0.00    0.0
2022/11/10 11:02:32.416    9.042551706    7.399351742   447.1759   5  15   2.3133   2.4594   6.4263  -0.5463   1.3736   0.9056   0.00    0.0
2022/11/10 11:02:33.416    9.042547407    7.399346181   444.3220   5  14   2.5918   2.5536   7.8132   0.7098   2.2223   2.4523   0.00    0.0
2022/11/10 11:02:34.416    9.042514754    7.399387056   418.1499   5  14   2.5918   2.5536   7.8138   0.7095   2.2224   2.4523   0.00    0.0
2022/11/10 11:02:35.416    9.042630449    7.399353880   453.7527   5  16   2.2442   2.4164   6.0691  -0.2046   0.9578   1.4168   0.00    0.0
2022/11/10 11:02:36.416    9.042438203    7.399377655   418.0067   5  14   2.5918   2.5536   7.8150   0.7089   2.2226   2.4524   0.00    0.0
2022/11/10 11:02:37.416    9.042487024    7.399358410   417.4066   5  14   2.5918   2.5536   7.8156   0.7085   2.2227   2.4524   0.00    0.0
2022/11/10 11:02:38.416    9.042555806    7.399353825   447.2618   5  15   2.5759   2.4820   7.1944   0.8207   1.7623   2.6247   0.00    0.0
2022/11/10 11:02:39.416    9.042473093    7.399397849   432.2783   5  15   2.5759   2.4820   7.1952   0.8205   1.7625   2.6248   0.00    0.0
2022/11/10 11:02:40.416    9.042520674    7.399377083   427.1742   5  14   2.5918   2.5537   7.8174   0.7076   2.2230   2.4524   0.00    0.0
2022/11/10 11:02:41.416    9.042558855    7.399326921   428.8409   5  15   2.5758   2.4820   7.1967   0.8200   1.7629   2.6250   0.00    0.0
2022/11/10 11:02:42.416    9.042533442    7.399324967   450.2693   5  16   2.2441   2.4166   6.0726  -0.2087   0.9601   1.4162   0.00    0.0
2022/11/10 11:02:43.416    9.042583865    7.399368117   471.9761   5  15   2.5758   2.4820   7.1982   0.8196   1.7632   2.6251   0.00    0.0
2022/11/10 11:02:44.416    9.042562479    7.399362050   468.8717   5  15   2.5758   2.4820   7.1990   0.8193   1.7634   2.6252   0.00    0.0
2022/11/10 11:02:45.416    9.042595915    7.399365362   487.9556   5  15   2.5758   2.4821   7.1997   0.8191   1.7635   2.6253   0.00    0.0
2022/11/10 11:02:46.416    9.042567137    7.399383792   481.0537   5  15   2.5757   2.4821   7.2005   0.8189   1.7637   2.6254   0.00    0.0
2022/11/10 11:02:47.416    9.042518069    7.399376116   485.3266   5  15   2.5757   2.4821   7.2013   0.8186   1.7639   2.6255   0.00    0.0
2022/11/10 11:02:48.416    9.042526402    7.399368976   485.0224   5  15   2.5757   2.4821   7.2020   0.8184   1.7641   2.6255   0.00    0.0
2022/11/10 11:02:49.416    9.042591512    7.399361463   495.2851   5  15   2.5757   2.4821   7.2028   0.8182   1.7642   2.6256   0.00    0.0
2022/11/10 11:02:50.416    9.042475485    7.399430777   474.6471   5  15   2.5756   2.4821   7.2036   0.8179   1.7644   2.6257   0.00    0.0
2022/11/10 11:02:51.416    9.042466499    7.399404763   456.4651   5  15   2.5756   2.4821   7.2043   0.8177   1.7646   2.6258   0.00    0.0
2022/11/10 11:02:52.416    9.042506456    7.399409776   471.4029   5  14   3.5064   2.5361   8.1721  -0.7552   1.0521   4.0087   0.00    0.0
2022/11/10 11:02:53.416    9.042456980    7.399400659   454.9906   5  14   3.5060   2.5362   8.1721  -0.7558   1.0521   4.0082   0.00    0.0
2022/11/10 11:02:54.416    9.042511304    7.399381128   475.7846   5  15   2.5756   2.4822   7.2066   0.8170   1.7651   2.6260   0.00    0.0
2022/11/10 11:02:55.416    9.042470339    7.399435308   469.2212   5  15   2.6366   2.5273   6.2168  -1.0337  -0.1748   1.9502   0.00    0.0
2022/11/10 11:02:56.416    9.042474634    7.399408986   447.8146   5  15   2.6365   2.5274   6.2171  -1.0339  -0.1719   1.9498   0.00    0.0
2022/11/10 11:02:57.416    9.042456555    7.399384295   453.4651   5  15   2.6365   2.5275   6.2174  -1.0341  -0.1689   1.9494   0.00    0.0
2022/11/10 11:02:58.416    9.042457876    7.399393265   442.1075   5  15   2.6364   2.5275   6.2178  -1.0343  -0.1659   1.9490   0.00    0.0
2022/11/10 11:02:59.416    9.042455301    7.399413056   449.1319   5  15   2.6363   2.5276   6.2181  -1.0345  -0.1629   1.9486   0.00    0.0
2022/11/10 11:03:00.416    9.042529922    7.399418757   476.2762   5  15   2.6363   2.5277   6.2184  -1.0347  -0.1597   1.9482   0.00    0.0
2022/11/10 11:03:01.416    9.042549336    7.399433684   478.4360   5  15   2.6362   2.5278   6.2187  -1.0349  -0.1566   1.9478   0.00    0.0
2022/11/10 11:03:02.416    9.042544385    7.399415480   474.7533   5  15   2.6361   2.5279   6.2190  -1.0351  -0.1533   1.9474   0.00    0.0
2022/11/10 11:03:03.416    9.042564069    7.399442693   485.6250   5  15   2.6361   2.5280   6.2193  -1.0353  -0.1500   1.9470   0.00    0.0
2022/11/10 11:03:04.416    9.042441132    7.399423900   475.9822   5  15   2.6360   2.5281   6.2196  -1.0355  -0.1465   1.9466   0.00    0.0
2022/11/10 11:03:05.416    9.042515749    7.399442391   483.8847   5  15   2.6359   2.5282   6.2199  -1.0357  -0.1431   1.9462   0.00    0.0
2022/11/10 11:03:06.416    9.042525375    7.399457515   476.3601   5  15   2.6359   2.5283   6.2203  -1.0359  -0.1395   1.9458   0.00    0.0
2022/11/10 11:03:07.416    9.042550756    7.399466062   478.7596   5  15   2.6358   2.5283   6.2206  -1.0361  -0.1358   1.9453   0.00    0.0
2022/11/10 11:03:08.416    9.042579754    7.399461568   465.6036   5  15   2.6357   2.5284   6.2209  -1.0363  -0.1320   1.9449   0.00    0.0
2022/11/10 11:03:09.416    9.042596564    7.399440371   497.9854   5  14   3.0658   2.5697   6.3809  -1.3385  -0.8163   2.4502   0.00    0.0
2022/11/10 11:03:10.416    9.042542403    7.399418248   496.2316   5  15   2.6356   2.5286   6.2215  -1.0367  -0.1240   1.9441   0.00    0.0
2022/11/10 11:03:11.416    9.042580356    7.399421733   493.9462   5  14   3.0657   2.5699   6.3817  -1.3389  -0.8154   2.4498   0.00    0.0
2022/11/10 11:03:12.416    9.042575364    7.399447672   491.6494   5  15   2.6355   2.5288   6.2221  -1.0371  -0.1156   1.9433   0.00    0.0
2022/11/10 11:03:13.416    9.042631775    7.399464237   492.9864   5  15   2.6354   2.5289   6.2224  -1.0373  -0.1112   1.9429   0.00    0.0
2022/11/10 11:03:14.416    9.042556453    7.399425216   497.0235   5  15   2.6353   2.5290   6.2228  -1.0375  -0.1064   1.9425   0.00    0.0
2022/11/10 11:03:15.416    9.042569379    7.399401432   505.6199   5  15   2.6353   2.5291   6.2231  -1.0377  -0.1014   1.9421   0.00    0.0
2022/11/10 11:03:16.416    9.042572450    7.399399009   490.0814   5  15   2.6352   2.5291   6.2234  -1.0379  -0.0963   1.9417   0.00    0.0
2022/11/10 11:03:17.416    9.042553928    7.399404621   483.0725   5  15   2.6352   2.5292   6.2237  -1.0381  -0.0909   1.9413   0.00    0.0
2022/11/10 11:03:18.416    9.042583448    7.399393142   484.1944   5  16   2.2438   2.4179   6.0908  -0.2287   0.9715   1.4132   0.00    0.0
2022/11/10 11:03:19.416    9.042568278    7.399394314   493.7949   5  15   2.5750   2.4825   7.2257   0.8111   1.7693   2.6281   0.00    0.0
2022/11/10 11:03:20.416    9.042515416    7.399399991   478.6943   5  16   2.2438   2.4180   6.0918  -0.2298   0.9721   1.4131   0.00    0.0
2022/11/10 11:03:21.416    9.042660233    7.399378652   506.8241   5  15   2.5749   2.4825   7.2272   0.8106   1.7696   2.6282   0.00    0.0
2022/11/10 11:03:22.416    9.042639993    7.399401863   500.1940   5  15   2.5749   2.4825   7.2279   0.8104   1.7698   2.6283   0.00    0.0
2022/11/10 11:03:23.416    9.042591650    7.399387046   502.3231   5  15   2.5749   2.4825   7.2287   0.8102   1.7700   2.6284   0.00    0.0
2022/11/10 11:03:24.416    9.042605994    7.399415872   501.8109   5  15   2.5749   2.4825   7.2295   0.8099   1.7701   2.6285   0.00    0.0
2022/11/10 11:03:25.416    9.042496588    7.399430292   466.4621   5  15   2.5748   2.4826   7.2302   0.8097   1.7703   2.6286   0.00    0.0
2022/11/10 11:03:26.416    9.042422496    7.399425337   452.0821   5  16   2.2438   2.4182   6.0948  -0.2330   0.9740   1.4126   0.00    0.0
2022/11/10 11:03:27.416    9.042512877    7.399433256   484.3039   5  15   2.5748   2.4826   7.2318   0.8092   1.7706   2.6287   0.00    0.0
2022/11/10 11:03:28.416    9.042437871    7.399410931   464.4721   5  16   2.2438   2.4182   6.0958  -0.2340   0.9746   1.4124   0.00    0.0
2022/11/10 11:03:29.416    9.042562350    7.399413532   493.3102   5  15   2.5748   2.4826   7.2333   0.8087   1.7710   2.6289   0.00    0.0
2022/11/10 11:03:30.416    9.042533047    7.399397893   498.6355   5  15   2.5747   2.4826   7.2340   0.8085   1.7711   2.6290   0.00    0.0
2022/11/10 11:03:31.416    9.042515495    7.399443968   487.0521   5  15   2.5747   2.4826   7.2348   0.8083   1.7713   2.6290   0.00    0.0
2022/11/10 11:03:32.416    9.042496002    7.399372143   463.2946   5  16   2.2437   2.4184   6.0978  -0.2361   0.9759   1.4121   0.00    0.0
2022/11/10 11:03:33.416    9.042547642    7.399431379   497.5962   5  15   2.5747   2.4827   7.2363   0.8078   1.7716   2.6292   0.00    0.0
2022/11/10 11:03:34.416    9.042525450    7.399418879   500.5603   5  15   2.5746   2.4827   7.2371   0.8076   1.7718   2.6293   0.00    0.0
2022/11/10 11:03:35.416    9.042442047    7.399412131   478.7219   5  16   2.2437   2.4185   6.0993  -0.2376   0.9768   1.4118   0.00    0.0
2022/11/10 11:03:36.416    9.042485032    7.399428584   491.5495   5  15   2.5746   2.4827   7.2386   0.8071   1.7721   2.6294   0.00    0.0
2022/11/10 11:03:37.416    9.042487757    7.399383933   489.8724   5  16   2.2437   2.4186   6.1003  -0.2387   0.9775   1.4116   0.00    0.0
2022/11/10 11:03:38.416    9.042491435    7.399408138   492.3886   5  15   2.5745   2.4827   7.2401   0.8066   1.7724   2.6296   0.00    0.0
2022/11/10 11:03:39.416    9.042492091    7.399370424   482.0582   5  16   2.2437   2.4186   6.1013  -0.2397   0.9781   1.4115   0.00    0.0
2022/11/10 11:03:40.416    9.042444590    7.399382027   479.2971   5  15   2.5745   2.4827   7.2416   0.8061   1.7728   2.6298   0.00    0.0
2022/11/10 11:03:41.416    9.042422256    7.399390909   467.2032   5  16   2.2437   2.4187   6.1024  -0.2407   0.9787   1.4113   0.00    0.0
2022/11/10 11:03:42.416    9.042507252    7.399398436   486.6490   5  15   2.5745   2.4828   7.2431   0.8056   1.7731   2.6299   0.00    0.0
2022/11/10 11:03:43.416    9.042454926    7.399389484   472.0930   5  15   2.5744   2.4828   7.2439   0.8054   1.7733   2.6300   0.00    0.0
2022/11/10 11:03:44.416    9.042572522    7.399376064   497.2856   5  15   2.5744   2.4828   7.2446   0.8052   1.7734   2.6301   0.00    0.0
2022/11/10 11:03:45.416    9.042562604    7.399376249   482.5558   5  15   2.5744   2.4828   7.2454   0.8049   1.7736   2.6301   0.00    0.0
2022/11/10 11:03:46.416    9.042521476    7.399385069   469.4732   5  15   2.5744   2.4828   7.2462   0.8047   1.7738   2.6302   0.00    0.0
2022/11/10 11:03:47.416    9.042506232    7.399400092   475.4155   5  15   2.5743   2.4828   7.2469   0.8044   1.7739   2.6303   0.00    0.0
2022/11/10 11:03:48.416    9.042536428    7.399380473   469.1660   5  16   2.2436   2.4190   6.1059  -0.2443   0.9809   1.4107   0.00    0.0
2022/11/10 11:03:49.416    9.042554843    7.399393184   483.8338   5  15   2.5743   2.4829   7.2484   0.8040   1.7743   2.6304   0.00    0.0
2022/11/10 11:03:50.416    9.042534688    7.399371177   468.5580   5  15   2.5743   2.4829   7.2492   0.8037   1.7744   2.6305   0.00    0.0
2022/11/10 11:03:51.416    9.042519155    7.399377175   474.9095   5  15   2.5742   2.4829   7.2500   0.8035   1.7746   2.6306   0.00    0.0
2022/11/10 11:03:52.416    9.042496574    7.399377954   461.0697   5  16   2.2436   2.4191   6.1079  -0.2463   0.9821   1.4104   0.00    0.0
2022/11/10 11:03:53.416    9.042526549    7.399409559   473.8457   5  15   2.5742   2.4829   7.2515   0.8030   1.7749   2.6308   0.00    0.0
2022/11/10 11:03:54.416    9.042466315    7.399376717   462.8232   5  15   2.5742   2.4829   7.2522   0.8028   1.7751   2.6308   0.00    0.0
2022/11/10 11:03:55.416    9.042529937    7.399399366   486.3312   5  16   2.2436   2.4192   6.1094  -0.2478   0.9831   1.4101   0.00    0.0
2022/11/10 11:03:56.416    9.042523563    7.399362516   477.2889   5  15   2.5741   2.4829   7.2537   0.8023   1.7754   2.6310   0.00    0.0
2022/11/10 11:03:57.416    9.042557698    7.399391968   485.6329   5  16   2.2435   2.4193   6.1104  -0.2488   0.9837   1.4099   0.00    0.0
2022/11/10 11:03:58.416    9.042636806    7.399408978   510.6100   5  16   2.2435   2.4193   6.1109  -0.2493   0.9840   1.4098   0.00    0.0
2022/11/10 11:03:59.416    9.042555241    7.399377097   489.9778   5  16   2.2435   2.4193   6.1114  -0.2498   0.9843   1.4097   0.00    0.0
2022/11/10 11:04:00.416    9.042532538    7.399388709   481.7109   5  15   2.5740   2.4830   7.2568   0.8013   1.7760   2.6313   0.00    0.0
2022/11/10 11:04:01.416    9.042558289    7.399383554   471.6053   5  15   2.5740   2.4830   7.2575   0.8011   1.7762   2.6314   0.00    0.0
2022/11/10 11:04:02.416    9.042544677    7.399386990   450.8210   5  15   2.5740   2.4830   7.2583   0.8008   1.7764   2.6315   0.00    0.0
2022/11/10 11:04:03.416    9.042548241    7.399357435   469.4364   5  15   2.4730   2.4276   6.1893  -0.5188   0.8833   1.7297   0.00    0.0
2022/11/10 11:04:04.416    9.042581497    7.399350517   462.3085   5  15   2.5739   2.4831   7.2598   0.8003   1.7767   2.6316   0.00    0.0
2022/11/10 11:04:05.416    9.042505060    7.399366758   452.6379   5  15   2.5739   2.4831   7.2606   0.8001   1.7769   2.6317   0.00    0.0
2022/11/10 11:04:06.416    9.042557510    7.399359799   461.9011   5  14   2.9696   2.4833   7.5958   0.7677   1.7555   3.1981   0.00    0.0
2022/11/10 11:04:07.416    9.042559575    7.399366421   467.8667   5  14   2.9696   2.4833   7.5969   0.7674   1.7557   3.1985   0.00    0.0
2022/11/10 11:04:08.416    9.042545722    7.399391430   461.0969   5  14   2.9697   2.4833   7.5980   0.7671   1.7558   3.1989   0.00    0.0
2022/11/10 11:04:09.416    9.042556421    7.399362377   456.6292   5  14   2.9697   2.4834   7.5991   0.7668   1.7559   3.1993   0.00    0.0
2022/11/10 11:04:10.416    9.042608492    7.399395347   483.0317   5  14   2.9698   2.4834   7.6002   0.7665   1.7560   3.1997   0.00    0.0
2022/11/10 11:04:11.416    9.042548303    7.399417995   471.9614   5  14   2.9698   2.4834   7.6013   0.7662   1.7562   3.2001   0.00    0.0
2022/11/10 11:04:12.416    9.042543530    7.399442426   471.9670   5  14   2.9699   2.4834   7.6024   0.7659   1.7563   3.2005   0.00    0.0
2022/11/10 11:04:13.416    9.042501353    7.399408304   451.3037   5  15   2.5737   2.4832   7.2666   0.7981   1.7781   2.6323   0.00    0.0
2022/11/10 11:04:14.416    9.042551161    7.399433667   478.8131   5  15   2.4731   2.4280   6.1960  -0.5219   0.8859   1.7313   0.00    0.0
2022/11/10 11:04:15.416    9.042540565    7.399429666   481.1474   5  15   2.5737   2.4832   7.2681   0.7976   1.7784   2.6324   0.00    0.0
2022/11/10 11:04:16.416    9.042522331    7.399435006   469.0416   5  14   2.4961   2.4703   6.4216  -0.3449   0.1425   1.5584   0.00    0.0
2022/11/10 11:04:17.416    9.042579428    7.399457693   483.3201   5  15   2.2658   2.4631   6.3526   0.2811   0.4461   1.2008   0.00    0.0
2022/11/10 11:04:18.416    9.042437871    7.399433416   458.5090   5  13   3.0150   2.5360   7.7058   0.9219   1.5691   3.1030   0.00    0.0
2022/11/10 11:04:19.416    9.042578344    7.399438832   479.5239   5  15   2.2659   2.4631   6.3536   0.2805   0.4476   1.2003   0.00    0.0
2022/11/10 11:04:20.416    9.042542014    7.399423440   476.3080   5  15   2.2659   2.4632   6.3541   0.2802   0.4483   1.2001   0.00    0.0
2022/11/10 11:04:21.416    9.042563457    7.399444947   485.5045   5  14   2.4963   2.4705   6.4244  -0.3464   0.1507   1.5586   0.00    0.0
2022/11/10 11:04:22.416    9.042561014    7.399440622   482.6873   5  14   2.4963   2.4705   6.4250  -0.3467   0.1524   1.5587   0.00    0.0
2022/11/10 11:04:23.416    9.042482725    7.399412838   474.6084   5  15   2.2660   2.4633   6.3555   0.2793   0.4505   1.1994   0.00    0.0
2022/11/10 11:04:24.416    9.042502960    7.399422896   475.5222   5  15   2.2660   2.4633   6.3559   0.2790   0.4512   1.1992   0.00    0.0
2022/11/10 11:04:25.416    9.042543522    7.399416862   473.9984   5  14   2.3351   2.5086   6.6805  -0.4355   1.0858   0.5278   0.00    0.0
2022/11/10 11:04:26.416    9.042520919    7.399420736   473.5565   5  15   2.2660   2.4634   6.3569   0.2784   0.4526   1.1987   0.00    0.0
2022/11/10 11:04:27.416    9.042481366    7.399382440   466.1750   5  14   2.3351   2.5087   6.6812  -0.4360   1.0864   0.5268   0.00    0.0
2022/11/10 11:04:28.416    9.042526045    7.399390798   472.4929   5  15   2.2661   2.4634   6.3578   0.2778   0.4541   1.1982   0.00    0.0
2022/11/10 11:04:29.416    9.042463967    7.399372351   459.9416   5  14   2.3352   2.5087   6.6819  -0.4366   1.0870   0.5258   0.00    0.0
2022/11/10 11:04:30.416    9.042479216    7.399379604   456.7216   5  13   2.6267   2.6117   7.9725   0.8259   2.0830   2.3462   0.00    0.0
2022/11/10 11:04:31.416    9.042488360    7.399379699   451.0848   5  14   2.3353   2.5088   6.6827  -0.4371   1.0875   0.5247   0.00    0.0
2022/11/10 11:04:32.416    9.042473028    7.399421180   484.4893   5  14   2.6114   2.5362   7.4010   0.9264   1.5777   2.5191   0.00    0.0
2022/11/10 11:04:33.416    9.042491211    7.399372325   452.8537   5  13   2.6268   2.6117   7.9740   0.8253   2.0833   2.3462   0.00    0.0
2022/11/10 11:04:34.416    9.042463774    7.399373876   452.8945   5  14   2.3354   2.5090   6.6837  -0.4379   1.0884   0.5232   0.00    0.0
2022/11/10 11:04:35.416    9.042438147    7.399418583   473.8839   5  14   2.6114   2.5362   7.4032   0.9260   1.5784   2.5192   0.00    0.0
2022/11/10 11:04:36.416    9.042460900    7.399376034   450.0649   5  13   2.6269   2.6118   7.9756   0.8246   2.0837   2.3461   0.00    0.0
2022/11/10 11:04:37.416    9.042473152    7.399386488   447.9624   5  13   2.6269   2.6118   7.9761   0.8244   2.0838   2.3461   0.00    0.0
2022/11/10 11:04:38.416    9.042425889    7.399455130   495.0099   5  14   2.6115   2.5362   7.4053   0.9255   1.5790   2.5193   0.00    0.0
2022/11/10 11:04:39.416    9.042452640    7.399413167   464.5979   5  15   2.3148   2.4652   6.4763  -0.5817   1.4015   0.8870   0.00    0.0
2022/11/10 11:04:40.416    9.042373594    7.399450762   467.6260   5  15   2.2663   2.4638   6.3635   0.2742   0.4625   1.1954   0.00    0.0
2022/11/10 11:04:41.416    9.042451659    7.399426949   448.6214   5  15   2.3148   2.4653   6.4771  -0.5822   1.4019   0.8867   0.00    0.0
2022/11/10 11:04:42.416    9.042435683    7.399497208   486.5093   5  16   2.2432   2.4209   6.1330  -0.2704   0.9974   1.4060   0.00    0.0
2022/11/10 11:04:43.416    9.042486211    7.399403334   459.0712   5  15   2.3149   2.4653   6.4779  -0.5828   1.4023   0.8864   0.00    0.0
2022/11/10 11:04:44.416    9.042508980    7.399408275   470.8211   5  15   2.3149   2.4654   6.4783  -0.5830   1.4026   0.8862   0.00    0.0
2022/11/10 11:04:45.416    9.042386250    7.399424799   490.7137   5  16   2.2432   2.4210   6.1345  -0.2717   0.9983   1.4058   0.00    0.0
2022/11/10 11:04:46.416    9.042450303    7.399423898   495.7530   5  16   2.2432   2.4210   6.1350  -0.2722   0.9986   1.4057   0.00    0.0
2022/11/10 11:04:47.416    9.042492527    7.399389153   458.3414   5  15   2.3149   2.4655   6.4794  -0.5839   1.4032   0.8858   0.00    0.0
2022/11/10 11:04:48.416    9.042495761    7.399409535   461.1107   5  15   2.3149   2.4656   6.4798  -0.5841   1.4034   0.8857   0.00    0.0
2022/11/10 11:04:49.416    9.042461172    7.399453878   495.9746   5  16   2.2432   2.4211   6.1365  -0.2736   0.9995   1.4054   0.00    0.0
2022/11/10 11:04:50.416    9.042404545    7.399440105   467.6428   5  16   2.2432   2.4212   6.1370  -0.2740   0.9999   1.4053   0.00    0.0
2022/11/10 11:04:51.416    9.042455199    7.399423851   474.6929   5  16   2.2432   2.4212   6.1375  -0.2745   1.0002   1.4052   0.00    0.0
2022/11/10 11:04:52.416    9.042492770    7.399423764   476.5608   5  16   2.2432   2.4212   6.1380  -0.2750   1.0005   1.4051   0.00    0.0
2022/11/10 11:04:53.416    9.042432629    7.399432848   483.0766   5  16   2.2432   2.4213   6.1385  -0.2754   1.0008   1.4051   0.00    0.0
2022/11/10 11:04:54.416    9.042427430    7.399390497   462.6687   5  16   2.2432   2.4213   6.1390  -0.2759   1.0011   1.4050   0.00    0.0
2022/11/10 11:04:55.416    9.042475866    7.399460431   481.3849   5  16   2.2431   2.4213   6.1395  -0.2763   1.0014   1.4049   0.00    0.0
2022/11/10 11:04:56.416    9.042449797    7.399462934   473.1134   5  16   2.2431   2.4214   6.1400  -0.2768   1.0017   1.4048   0.00    0.0
2022/11/10 11:04:57.416    9.042408548    7.399428706   453.0454   5  16   2.2431   2.4214   6.1405  -0.2772   1.0020   1.4047   0.00    0.0
2022/11/10 11:04:58.416    9.042456682    7.399419181   449.1706   5  15   2.3151   2.4660   6.4836  -0.5869   1.4055   0.8842   0.00    0.0
2022/11/10 11:04:59.416    9.042379565    7.399424763   453.0965   5  16   2.2431   2.4215   6.1415  -0.2781   1.0026   1.4045   0.00    0.0
2022/11/10 11:05:00.416    9.042424579    7.399468720   472.7983   5  16   2.2431   2.4215   6.1420  -0.2786   1.0029   1.4044   0.00    0.0
2022/11/10 11:05:01.416    9.042417615    7.399440773   467.8676   5  16   2.2431   2.4216   6.1425  -0.2790   1.0032   1.4044   0.00    0.0
2022/11/10 11:05:02.416    9.042389814    7.399425404   472.4426   5  16   2.2431   2.4216   6.1430  -0.2795   1.0035   1.4043   0.00    0.0
2022/11/10 11:05:03.416    9.042423389    7.399453840   480.4948   5  16   2.2431   2.4216   6.1434  -0.2799   1.0038   1.4042   0.00    0.0
2022/11/10 11:05:04.416    9.042449370    7.399425356   474.1797   5  16   2.2431   2.4217   6.1439  -0.2804   1.0041   1.4041   0.00    0.0
2022/11/10 11:05:05.416    9.042396418    7.399435634   475.6307   5  16   2.2431   2.4217   6.1444  -0.2808   1.0044   1.4040   0.00    0.0
2022/11/10 11:05:06.416    9.042441943    7.399481845   475.6828   5  16   2.2431   2.4217   6.1449  -0.2813   1.0046   1.4039   0.00    0.0
2022/11/10 11:05:07.416    9.042453860    7.399474992   482.0285   5  16   2.2431   2.4218   6.1454  -0.2817   1.0049   1.4038   0.00    0.0
2022/11/10 11:05:08.416    9.042419318    7.399441118   449.3418   5  16   2.2431   2.4218   6.1459  -0.2822   1.0053   1.4037   0.00    0.0
2022/11/10 11:05:09.416    9.042447930    7.399417291   459.9573   5  16   2.2431   2.4219   6.1464  -0.2826   1.0056   1.4036   0.00    0.0
2022/11/10 11:05:10.416    9.042481507    7.399441462   469.3237   5  16   2.2430   2.4219   6.1469  -0.2831   1.0059   1.4035   0.00    0.0
2022/11/10 11:05:11.416    9.042465301    7.399411467   455.2936   5  15   2.2866   2.6062   6.2880  -0.7126   1.5116   1.1758   0.00    0.0
2022/11/10 11:05:12.416    9.042494426    7.399444206   461.6241   5  16   2.2430   2.4220   6.1479  -0.2840   1.0064   1.4034   0.00    0.0
2022/11/10 11:05:13.416    9.042457130    7.399450859   450.4639   5  16   2.2430   2.4220   6.1484  -0.2844   1.0067   1.4033   0.00    0.0
2022/11/10 11:05:14.416    9.042451593    7.399522430   460.0862   5  16   2.2430   2.4220   6.1489  -0.2849   1.0070   1.4032   0.00    0.0
2022/11/10 11:05:15.416    9.042480153    7.399519020   462.6637   5  16   2.2430   2.4221   6.1494  -0.2853   1.0073   1.4031   0.00    0.0
2022/11/10 11:05:16.416    9.042527930    7.399431004   446.3213   5  14   2.3853   2.6939   6.7332  -0.9855   1.9812  -0.5005   0.00    0.0
2022/11/10 11:05:17.416    9.042458006    7.399496986   454.1883   5  16   2.2430   2.4221   6.1504  -0.2862   1.0079   1.4029   0.00    0.0
2022/11/10 11:05:18.416    9.042453233    7.399500658   452.4994   5  16   2.2430   2.4222   6.1509  -0.2866   1.0082   1.4028   0.00    0.0
2022/11/10 11:05:19.416    9.042480891    7.399491827   471.6182   5  16   2.2430   2.4222   6.1514  -0.2871   1.0085   1.4027   0.00    0.0
2022/11/10 11:05:20.416    9.042527979    7.399446762   467.0404   5  15   2.2863   2.6070   6.2943  -0.7140   1.5169   1.1736   0.00    0.0
2022/11/10 11:05:21.416    9.042483925    7.399502615   471.9443   5  16   2.2430   2.4223   6.1524  -0.2880   1.0091   1.4026   0.00    0.0
2022/11/10 11:05:22.416    9.042537837    7.399497048   481.5510   5  15   2.3154   2.4671   6.4928  -0.5934   1.4104   0.8808   0.00    0.0
2022/11/10 11:05:23.416    9.042498998    7.399510207   462.9897   5  16   2.2430   2.4224   6.1534  -0.2888   1.0097   1.4024   0.00    0.0
2022/11/10 11:05:24.416    9.042588713    7.399476037   479.3924   5  15   2.3154   2.4672   6.4935  -0.5939   1.4108   0.8805   0.00    0.0
2022/11/10 11:05:25.416    9.042542514    7.399496382   483.7251   5  16   2.2430   2.4224   6.1544  -0.2897   1.0103   1.4022   0.00    0.0
2022/11/10 11:05:26.416    9.042544214    7.399428467   468.2999   5  15   2.3154   2.4673   6.4943  -0.5945   1.4112   0.8802   0.00    0.0
2022/11/10 11:05:27.416    9.042507488    7.399463776   475.9613   5  16   2.2429   2.4225   6.1554  -0.2906   1.0109   1.4020   0.00    0.0
2022/11/10 11:05:28.416    9.042542297    7.399433727   466.2049   5  15   2.3155   2.4674   6.4951  -0.5950   1.4116   0.8799   0.00    0.0
2022/11/10 11:05:29.416    9.042551869    7.399431883   469.1249   5  16   2.2429   2.4226   6.1564  -0.2915   1.0115   1.4018   0.00    0.0
2022/11/10 11:05:30.416    9.042489732    7.399378463   456.1343   5  15   2.3155   2.4675   6.4958  -0.5955   1.4120   0.8796   0.00    0.0
2022/11/10 11:05:31.416    9.042438987    7.399446187   477.5810   5  16   2.2429   2.4227   6.1574  -0.2923   1.0121   1.4017   0.00    0.0
2022/11/10 11:05:32.416    9.042479411    7.399458675   466.6437   5  15   2.3155   2.4676   6.4966  -0.5961   1.4124   0.8793   0.00    0.0
2022/11/10 11:05:33.416    9.042485108    7.399401614   454.1845   5  15   2.3155   2.4676   6.4970  -0.5963   1.4126   0.8792   0.00    0.0
2022/11/10 11:05:34.416    9.042465644    7.399384275   462.2398   5  15   2.3156   2.4677   6.4973  -0.5966   1.4128   0.8791   0.00    0.0
2022/11/10 11:05:35.416    9.042496731    7.399413028   462.4759   5  15   2.3156   2.4677   6.4977  -0.5969   1.4130   0.8789   0.00    0.0
2022/11/10 11:05:36.416    9.042509122    7.399377828   466.7541   5  15   2.3156   2.4678   6.4981  -0.5972   1.4133   0.8788   0.00    0.0
2022/11/10 11:05:37.416    9.042445265    7.399388248   483.2582   5  15   2.3156   2.4678   6.4985  -0.5974   1.4135   0.8786   0.00    0.0
2022/11/10 11:05:38.416    9.042512531    7.399359933   475.4259   5  15   2.3156   2.4679   6.4988  -0.5977   1.4137   0.8785   0.00    0.0
2022/11/10 11:05:39.416    9.042458671    7.399407398   502.9323   5  15   2.3156   2.4679   6.4992  -0.5980   1.4139   0.8784   0.00    0.0
2022/11/10 11:05:40.416    9.042476634    7.399426946   489.9519   5  14   2.3853   2.6967   6.7488  -0.9899   1.9936  -0.5183   0.00    0.0
2022/11/10 11:05:41.416    9.042504920    7.399382686   488.6252   5  15   2.3156   2.4680   6.5000  -0.5985   1.4143   0.8781   0.00    0.0
2022/11/10 11:05:42.416    9.042484663    7.399458075   490.5966   5  15   2.3157   2.4680   6.5003  -0.5988   1.4144   0.8779   0.00    0.0
2022/11/10 11:05:43.416    9.042506261    7.399438569   497.0945   5  14   2.3853   2.6971   6.7507  -0.9905   1.9952  -0.5205   0.00    0.0
2022/11/10 11:05:44.416    9.042513896    7.399388695   508.6271   5  15   2.3157   2.4681   6.5011  -0.5993   1.4149   0.8776   0.00    0.0
2022/11/10 11:05:45.416    9.042515576    7.399403861   527.0682   5  14   2.3853   2.6973   6.7520  -0.9908   1.9962  -0.5219   0.00    0.0
2022/11/10 11:05:46.416    9.042540418    7.399393108   528.5158   5  14   2.3853   2.6974   6.7527  -0.9910   1.9967  -0.5226   0.00    0.0
2022/11/10 11:05:47.416    9.042457699    7.399492221   565.2810   5  15   2.2857   2.6094   6.3133  -0.7184   1.5327   1.1670   0.00    0.0
2022/11/10 11:05:48.416    9.042525759    7.399436762   511.8801   5  14   2.3853   2.6977   6.7540  -0.9914   1.9977  -0.5241   0.00    0.0
2022/11/10 11:05:49.416    9.042453139    7.399519625   554.8104   5  15   2.2856   2.6096   6.3147  -0.7187   1.5339   1.1665   0.00    0.0
2022/11/10 11:05:50.416    9.042519948    7.399453817   522.3023   5  14   2.3853   2.6979   6.7553  -0.9918   1.9988  -0.5255   0.00    0.0
2022/11/10 11:05:51.416    9.042497015    7.399434771   502.5137   5  14   2.3853   2.6980   6.7559  -0.9920   1.9993  -0.5262   0.00    0.0
2022/11/10 11:05:52.416    9.042419456    7.399557408   527.8726   5  15   2.2856   2.6099   6.3168  -0.7192   1.5356   1.1657   0.00    0.0
2022/11/10 11:05:53.416    9.042499985    7.399423209   496.8131   5  14   2.3853   2.6982   6.7572  -0.9923   2.0003  -0.5276   0.00    0.0
2022/11/10 11:05:54.416    9.042524063    7.399492758   513.3393   5  14   2.3853   2.6984   6.7579  -0.9925   2.0008  -0.5283   0.00    0.0
2022/11/10 11:05:55.416    9.042387051    7.399481607   510.8537   5  15   2.2855   2.6101   6.3190  -0.7196   1.5374   1.1650   0.00    0.0
2022/11/10 11:05:56.416    9.042429188    7.399495165   503.3413   5  14   2.5894   2.6913   7.5630   0.5289   2.2558   2.5325   0.00    0.0
2022/11/10 11:05:57.416    9.042447026    7.399420864   474.0511   5  14   2.3853   2.6987   6.7598  -0.9931   2.0024  -0.5304   0.00    0.0
2022/11/10 11:05:58.416    9.042422864    7.399481461   493.3029   5  15   2.2854   2.6104   6.3211  -0.7201   1.5391   1.1642   0.00    0.0
2022/11/10 11:05:59.416    9.042424560    7.399507684   506.8661   5  14   2.5892   2.6916   7.5662   0.5282   2.2574   2.5326   0.00    0.0
2022/11/10 11:06:00.416    9.042424778    7.399389288   459.5920   5  14   2.3853   2.6991   6.7618  -0.9936   2.0039  -0.5325   0.00    0.0
2022/11/10 11:06:01.416    9.042458791    7.399312175   457.0168   5  16   2.2427   2.4238   6.1723  -0.3051   1.0209   1.3989   0.00    0.0
2022/11/10 11:06:02.416    9.042417179    7.399434753   485.0344   5  15   2.2853   2.6108   6.3239  -0.7208   1.5415   1.1632   0.00    0.0
2022/11/10 11:06:03.416    9.042520622    7.399296201   473.5979   5  15   2.5711   2.4846   7.3488   0.7703   1.7950   2.6399   0.00    0.0
2022/11/10 11:06:04.416    9.042547084    7.399387414   473.3899   5  14   2.3853   2.6995   6.7644  -0.9944   2.0060  -0.5354   0.00    0.0
2022/11/10 11:06:05.416    9.042461754    7.399330227   457.9813   5  15   2.5710   2.4847   7.3503   0.7698   1.7953   2.6400   0.00    0.0
2022/11/10 11:06:06.416    9.042429848    7.399407873   475.1037   5  16   2.2427   2.4239   6.1748  -0.3072   1.0223   1.3984   0.00    0.0
2022/11/10 11:06:07.416    9.042437663    7.399403584   473.8541   5  15   2.5710   2.4847   7.3518   0.7692   1.7955   2.6401   0.00    0.0
2022/11/10 11:06:08.416    9.042439357    7.399422137   469.9462   5  15   2.5710   2.4847   7.3525   0.7690   1.7957   2.6402   0.00    0.0
2022/11/10 11:06:09.416    9.042416834    7.399422432   452.0131   5  15   2.5709   2.4847   7.3533   0.7687   1.7958   2.6403   0.00    0.0
2022/11/10 11:06:10.416    9.042437535    7.399430012   465.7372   5  15   2.5709   2.4847   7.3540   0.7684   1.7959   2.6403   0.00    0.0
2022/11/10 11:06:11.416    9.042460949    7.399402480   459.9636   5  15   2.5709   2.4848   7.3547   0.7682   1.7961   2.6404   0.00    0.0
2022/11/10 11:06:12.416    9.042492409    7.399424603   486.7401   5  15   2.5709   2.4848   7.3555   0.7679   1.7962   2.6404   0.00    0.0
2022/11/10 11:06:13.416    9.042472500    7.399366628   455.0320   5  14   2.5903   2.5566   7.9379   0.6315   2.2409   2.4552   0.00    0.0
2022/11/10 11:06:14.416    9.042531942    7.399423052   477.3854   5  16   2.2426   2.4242   6.1787  -0.3105   1.0247   1.3977   0.00    0.0
2022/11/10 11:06:15.416    9.042504266    7.399423608   462.8823   5  15   2.5708   2.4848   7.3577   0.7671   1.7967   2.6406   0.00    0.0
2022/11/10 11:06:16.416    9.042531759    7.399371271   442.1319   5  14   2.5902   2.5566   7.9395   0.6303   2.2410   2.4552   0.00    0.0
2022/11/10 11:06:17.416    9.042488332    7.399427422   456.2240   5  15   2.5707   2.4848   7.3592   0.7666   1.7970   2.6408   0.00    0.0
2022/11/10 11:06:18.416    9.042473360    7.399421577   449.0672   5  15   2.5707   2.4849   7.3599   0.7663   1.7971   2.6408   0.00    0.0
2022/11/10 11:06:19.416    9.042543557    7.399390886   448.2646   5  14   2.5902   2.5567   7.9411   0.6292   2.2412   2.4552   0.00    0.0
2022/11/10 11:06:20.416    9.042457706    7.399456241   455.7649   5  15   2.5707   2.4849   7.3614   0.7658   1.7974   2.6409   0.00    0.0
2022/11/10 11:06:21.416    9.042477785    7.399445457   442.5524   5  15   2.5706   2.4849   7.3621   0.7655   1.7975   2.6410   0.00    0.0
2022/11/10 11:06:22.416    9.042510424    7.399401922   459.3427   5  15   2.5706   2.4849   7.3628   0.7653   1.7977   2.6411   0.00    0.0
2022/11/10 11:06:23.416    9.042522115    7.399389965   443.4523   5  14   2.5902   2.5567   7.9432   0.6276   2.2415   2.4552   0.00    0.0
2022/11/10 11:06:24.416    9.042529496    7.399422157   466.0587   5  15   2.5706   2.4849   7.3643   0.7647   1.7980   2.6412   0.00    0.0
2022/11/10 11:06:25.416    9.042475626    7.399444014   490.2119   5  15   2.5705   2.4850   7.3650   0.7645   1.7981   2.6412   0.00    0.0
2022/11/10 11:06:26.416    9.042538426    7.399375684   448.5337   5  14   2.5902   2.5568   7.9448   0.6264   2.2416   2.4552   0.00    0.0
2022/11/10 11:06:27.416    9.042518521    7.399421106   489.8369   5  15   2.5705   2.4850   7.3665   0.7639   1.7984   2.6413   0.00    0.0
2022/11/10 11:06:28.416    9.042602577    7.399430217   495.7357   5  15   2.3163   2.4702   6.5175  -0.6111   1.4235   0.8714   0.00    0.0
2022/11/10 11:06:29.416    9.042555374    7.399449965   489.8611   5  15   2.5704   2.4850   7.3680   0.7634   1.7987   2.6415   0.00    0.0
2022/11/10 11:06:30.416    9.042589106    7.399416227   478.4657   5  15   2.3163   2.4703   6.5183  -0.6116   1.4239   0.8711   0.00    0.0
2022/11/10 11:06:31.416    9.042583945    7.399442623   492.0619   5  15   2.3164   2.4703   6.5186  -0.6119   1.4241   0.8710   0.00    0.0
2022/11/10 11:06:32.416    9.042561113    7.399484697   496.5362   5  16   2.2425   2.4249   6.1876  -0.3179   1.0298   1.3960   0.00    0.0
2022/11/10 11:06:33.416    9.042510440    7.399462614   492.0981   5  16   2.2425   2.4249   6.1881  -0.3183   1.0301   1.3959   0.00    0.0
2022/11/10 11:06:34.416    9.042492845    7.399523129   508.2063   5  16   2.2425   2.4250   6.1886  -0.3187   1.0304   1.3958   0.00    0.0
2022/11/10 11:06:35.416    9.042570422    7.399410369   487.2441   5  15   2.3164   2.4705   6.5201  -0.6130   1.4249   0.8704   0.00    0.0
2022/11/10 11:06:36.416    9.042546364    7.399480034   511.3881   5  16   2.2425   2.4250   6.1896  -0.3196   1.0310   1.3956   0.00    0.0
2022/11/10 11:06:37.416    9.042581269    7.399469543   485.4764   5  15   2.3164   2.4706   6.5209  -0.6135   1.4253   0.8701   0.00    0.0
2022/11/10 11:06:38.416    9.042503463    7.399411470   476.7765   5  15   2.5702   2.4851   7.3746   0.7610   1.7999   2.6420   0.00    0.0
2022/11/10 11:06:39.416    9.042624600    7.399416120   478.2187   5  16   2.2425   2.4252   6.1911  -0.3208   1.0318   1.3953   0.00    0.0
2022/11/10 11:06:40.416    9.042537885    7.399356536   468.6972   5  14   2.5901   2.5569   7.9522   0.6208   2.2424   2.4552   0.00    0.0
2022/11/10 11:06:41.416    9.042516044    7.399447202   472.8707   5  15   2.5701   2.4852   7.3768   0.7602   1.8003   2.6422   0.00    0.0
2022/11/10 11:06:42.416    9.042624795    7.399380714   501.5650   5  15   2.3165   2.4708   6.5227  -0.6148   1.4262   0.8694   0.00    0.0
2022/11/10 11:06:43.416    9.042484896    7.399390492   479.5073   5  15   2.5701   2.4852   7.3783   0.7597   1.8006   2.6423   0.00    0.0
2022/11/10 11:06:44.416    9.042575731    7.399376990   503.8131   5  16   2.2425   2.4253   6.1935  -0.3228   1.0333   1.3948   0.00    0.0
2022/11/10 11:06:45.416    9.042485622    7.399355358   494.0119   5  15   2.5700   2.4852   7.3797   0.7591   1.8009   2.6424   0.00    0.0
2022/11/10 11:06:46.416    9.042474891    7.399384038   497.1781   5  15   2.5700   2.4852   7.3805   0.7589   1.8010   2.6425   0.00    0.0
2022/11/10 11:06:47.416    9.042479996    7.399354195   495.8305   5  15   2.5700   2.4853   7.3812   0.7586   1.8012   2.6425   0.00    0.0
2022/11/10 11:06:48.416    9.042439288    7.399374570   471.1704   5  16   2.2425   2.4255   6.1955  -0.3244   1.0344   1.3945   0.00    0.0
2022/11/10 11:06:49.416    9.042393873    7.399379259   497.4568   5  15   2.5699   2.4853   7.3827   0.7581   1.8015   2.6427   0.00    0.0
2022/11/10 11:06:50.416    9.042418370    7.399384237   505.0968   5  15   2.5699   2.4853   7.3834   0.7578   1.8016   2.6427   0.00    0.0
2022/11/10 11:06:51.416    9.042432527    7.399380468   478.4854   5  16   2.2424   2.4256   6.1970  -0.3256   1.0353   1.3942   0.00    0.0
2022/11/10 11:06:52.416    9.042475939    7.399373486   483.3714   5  15   2.5699   2.4853   7.3849   0.7572   1.8019   2.6428   0.00    0.0
2022/11/10 11:06:53.416    9.042485951    7.399370714   480.8840   5  16   2.2424   2.4257   6.1980  -0.3264   1.0358   1.3940   0.00    0.0
2022/11/10 11:06:54.416    9.042501445    7.399356696   506.7054   5  16   2.2424   2.4257   6.1985  -0.3268   1.0361   1.3939   0.00    0.0
2022/11/10 11:06:55.416    9.042435564    7.399368307   505.5528   5  15   2.5698   2.4854   7.3870   0.7564   1.8023   2.6430   0.00    0.0
2022/11/10 11:06:56.416    9.042447875    7.399361789   478.6441   5  16   2.2424   2.4258   6.1994  -0.3276   1.0367   1.3937   0.00    0.0
2022/11/10 11:06:57.416    9.042403437    7.399326983   471.6095   5  16   2.2424   2.4258   6.1999  -0.3280   1.0370   1.3936   0.00    0.0
2022/11/10 11:06:58.416    9.042406754    7.399317794   477.9286   5  16   2.2424   2.4259   6.2004  -0.3284   1.0373   1.3935   0.00    0.0
