% program   : RTKPOST ver.demo5 b34g
% inp file  : C:\Users\Abdullateef\Documents\PHD\Research on Precision Agriculture Navigation Technology\nav data\GNSS Log file\Geo++\GEOP314L.22o
% inp file  : C:\Users\Abdullateef\Documents\PHD\Research on Precision Agriculture Navigation Technology\nav data\GNSS Log file\Nav file\BRDC00WRD_S_20223140000_01D_MN.rnx\BRDC00WRD_S_20223140000_01D_MN.rnx
% obs start : 2022/11/10 11:00:00.4 GPST (week2235 385200.4s)
% obs end   : 2022/11/10 11:39:12.4 GPST (week2235 387552.4s)
% pos mode  : Single
% elev mask : 0.0 deg
% ionos opt : Broadcast
% tropo opt : Saastamoinen
% ephemeris : Broadcast
% navi sys  : GPS GLONASS Galileo BDS
%
% (lat/lon/height=WGS84/ellipsoidal,Q=1:fix,2:float,3:sbas,4:dgps,5:single,6:ppp,ns=# of satellites)
%  GPST                  latitude(deg) longitude(deg)  height(m)   Q  ns   sdn(m)   sde(m)   sdu(m)  sdne(m)  sdeu(m)  sdun(m) age(s)  ratio
2022/11/10 11:00:00.416    9.042485895    7.399337465   478.5413   5  20   2.1055   2.1819   4.8007   0.7558  -1.3609   1.4734   0.00    0.0
2022/11/10 11:00:01.416    9.042516512    7.399314237   480.4416   5  20   2.1055   2.1818   4.8011   0.7558  -1.3609   1.4735   0.00    0.0
2022/11/10 11:00:02.416    9.042501014    7.399350735   477.4970   5  20   2.1055   2.1818   4.8015   0.7558  -1.3608   1.4736   0.00    0.0
2022/11/10 11:00:03.416    9.042522442    7.399375783   453.6370   5  18   2.1491   2.2862   5.0016   0.5582  -1.1433   1.2791   0.00    0.0
2022/11/10 11:00:04.416    9.042553511    7.399346456   478.7022   5  20   2.1055   2.1818   4.8023   0.7557  -1.3607   1.4738   0.00    0.0
2022/11/10 11:00:05.416    9.042500096    7.399355995   462.5018   5  19   2.1247   2.1875   4.9763   0.7253  -1.2828   1.3422   0.00    0.0
2022/11/10 11:00:06.416    9.042556501    7.399297241   468.1492   5  19   2.1247   2.1875   4.9767   0.7253  -1.2827   1.3423   0.00    0.0
2022/11/10 11:00:07.416    9.042521975    7.399344130   445.2888   5  19   2.1247   2.1875   4.9771   0.7253  -1.2826   1.3424   0.00    0.0
2022/11/10 11:00:08.416    9.042508612    7.399324225   464.1270   5  20   2.1055   2.1817   4.8039   0.7556  -1.3605   1.4741   0.00    0.0
2022/11/10 11:00:09.416    9.042446238    7.399379996   443.1598   5  17   2.9808   2.2727   6.0481  -0.8204  -1.8408   2.9666   0.00    0.0
2022/11/10 11:00:10.416    9.042514857    7.399342458   464.1951   5  19   2.1247   2.1874   4.9782   0.7252  -1.2823   1.3427   0.00    0.0
2022/11/10 11:00:11.416    9.042410243    7.399379273   448.8517   5  17   2.4458   2.3651   5.1128  -0.6291  -1.3909   1.6901   0.00    0.0
2022/11/10 11:00:12.416    9.042528878    7.399340894   460.2484   5  18   2.3943   2.2429   5.1013  -0.1466  -1.4813   1.7405   0.00    0.0
2022/11/10 11:00:13.416    9.042472701    7.399352314   454.9017   5  19   2.1247   2.1874   4.9794   0.7251  -1.2821   1.3431   0.00    0.0
2022/11/10 11:00:14.416    9.042502249    7.399343021   460.7838   5  18   2.3943   2.2429   5.1019  -0.1471  -1.4811   1.7404   0.00    0.0
2022/11/10 11:00:15.416    9.042545447    7.399341610   467.4712   5  18   2.3942   2.2429   5.1022  -0.1473  -1.4810   1.7403   0.00    0.0
2022/11/10 11:00:16.416    9.042505235    7.399335342   464.7332   5  18   2.3942   2.2429   5.1025  -0.1475  -1.4808   1.7402   0.00    0.0
2022/11/10 11:00:17.416    9.042534700    7.399333847   470.8869   5  19   2.1246   2.1873   4.9810   0.7250  -1.2817   1.3435   0.00    0.0
2022/11/10 11:00:18.416    9.042507633    7.399354837   468.1205   5  19   2.2868   2.1171   4.6847   0.7091  -0.8329   1.2623   0.00    0.0
2022/11/10 11:00:19.416    9.042489256    7.399337802   470.5043   5  17   2.9795   2.2729   6.0514  -0.8213  -1.8407   2.9657   0.00    0.0
2022/11/10 11:00:20.416    9.042625516    7.399305812   473.9976   5  19   2.1246   2.1873   4.9822   0.7249  -1.2814   1.3438   0.00    0.0
2022/11/10 11:00:21.416    9.042430866    7.399357341   452.0032   5  18   2.6382   2.1174   5.1389   0.6846  -0.8644   2.0904   0.00    0.0
2022/11/10 11:00:22.416    9.042527867    7.399357123   461.9321   5  18   2.3857   2.1898   5.5324   0.6416  -1.3760   2.1011   0.00    0.0
2022/11/10 11:00:23.416    9.042479692    7.399398837   453.7307   5  19   2.2866   2.1173   4.6860   0.7086  -0.8322   1.2617   0.00    0.0
2022/11/10 11:00:24.416    9.042455005    7.399333891   463.8446   5  18   2.6379   2.1175   5.1397   0.6840  -0.8644   2.0900   0.00    0.0
2022/11/10 11:00:25.416    9.042590887    7.399280986   486.2526   5  18   2.3857   2.1897   5.5340   0.6413  -1.3760   2.1016   0.00    0.0
2022/11/10 11:00:26.416    9.042560339    7.399338212   490.2763   5  19   2.2864   2.1174   4.6869   0.7083  -0.8318   1.2614   0.00    0.0
2022/11/10 11:00:27.416    9.042402693    7.399330799   462.1640   5  17   2.9785   2.2730   6.0540  -0.8221  -1.8406   2.9650   0.00    0.0
2022/11/10 11:00:28.416    9.042410555    7.399313700   453.5926   5  18   2.6374   2.1177   5.1409   0.6831  -0.8644   2.0895   0.00    0.0
2022/11/10 11:00:29.416    9.042382698    7.399308943   462.3081   5  18   2.6373   2.1177   5.1412   0.6829  -0.8644   2.0894   0.00    0.0
2022/11/10 11:00:30.416    9.042350618    7.399318416   457.5007   5  17   2.9781   2.2730   6.0550  -0.8224  -1.8406   2.9648   0.00    0.0
2022/11/10 11:00:31.416    9.042414817    7.399304215   459.5669   5  18   2.6371   2.1178   5.1418   0.6825  -0.8644   2.0892   0.00    0.0
2022/11/10 11:00:32.416    9.042430754    7.399309957   456.1270   5  17   2.9778   2.2730   6.0556  -0.8226  -1.8406   2.9646   0.00    0.0
2022/11/10 11:00:33.416    9.042400948    7.399347315   456.6097   5  19   2.3007   2.1040   4.7420   0.3917  -1.1084   1.3418   0.00    0.0
2022/11/10 11:00:34.416    9.042402607    7.399324571   448.6531   5  19   2.3006   2.1040   4.7422   0.3916  -1.1083   1.3417   0.00    0.0
2022/11/10 11:00:35.416    9.042402393    7.399354058   442.3055   5  19   2.3005   2.1041   4.7425   0.3914  -1.1082   1.3415   0.00    0.0
2022/11/10 11:00:36.416    9.042419707    7.399338655   437.4059   5  19   2.3005   2.1041   4.7428   0.3913  -1.1081   1.3413   0.00    0.0
2022/11/10 11:00:37.416    9.042407369    7.399368120   439.9533   5  19   2.3004   2.1042   4.7430   0.3911  -1.1081   1.3412   0.00    0.0
2022/11/10 11:00:38.416    9.042539390    7.399362748   460.9875   5  20   2.1073   2.1009   4.4954   0.5127  -1.0233   0.6344   0.00    0.0
2022/11/10 11:00:39.416    9.042480451    7.399324520   459.2363   5  19   2.3003   2.1043   4.7435   0.3908  -1.1079   1.3408   0.00    0.0
2022/11/10 11:00:40.416    9.042479187    7.399384515   454.7615   5  19   2.3002   2.1044   4.7438   0.3906  -1.1078   1.3407   0.00    0.0
2022/11/10 11:00:41.416    9.042522792    7.399343788   466.0557   5  21   2.0722   2.0916   4.3393   0.5819  -1.1314   0.9229   0.00    0.0
2022/11/10 11:00:42.416    9.042566491    7.399367351   469.5361   5  20   2.1072   2.1011   4.4964   0.5124  -1.0227   0.6332   0.00    0.0
2022/11/10 11:00:43.416    9.042514368    7.399354134   473.4842   5  20   2.1072   2.1011   4.4966   0.5124  -1.0225   0.6329   0.00    0.0
2022/11/10 11:00:44.416    9.042501544    7.399337653   471.9311   5  20   2.1072   2.1011   4.4969   0.5123  -1.0224   0.6326   0.00    0.0
2022/11/10 11:00:45.416    9.042541334    7.399369499   469.1361   5  21   2.0721   2.0918   4.3403   0.5818  -1.1310   0.9221   0.00    0.0
2022/11/10 11:00:46.416    9.042589149    7.399401228   463.0424   5  20   2.1071   2.1012   4.4974   0.5122  -1.0221   0.6320   0.00    0.0
2022/11/10 11:00:47.416    9.042590876    7.399335196   466.0280   5  21   1.9641   2.0683   4.4901   0.7383  -0.9737   0.4484   0.00    0.0
2022/11/10 11:00:48.416    9.042637720    7.399364169   461.4869   5  21   1.9641   2.0683   4.4904   0.7383  -0.9736   0.4483   0.00    0.0
2022/11/10 11:00:49.416    9.042564864    7.399371365   463.3484   5  20   2.1070   2.1014   4.4981   0.5120  -1.0216   0.6312   0.00    0.0
2022/11/10 11:00:50.416    9.042560519    7.399340806   468.8960   5  22   1.9375   2.0614   4.3270   0.7744  -1.0732   0.7667   0.00    0.0
2022/11/10 11:00:51.416    9.042609039    7.399329807   469.4517   5  21   1.9640   2.0684   4.4912   0.7383  -0.9733   0.4481   0.00    0.0
2022/11/10 11:00:52.416    9.042602805    7.399325181   469.8409   5  21   1.9640   2.0685   4.4915   0.7383  -0.9732   0.4481   0.00    0.0
2022/11/10 11:00:53.416    9.042567062    7.399381417   472.8682   5  21   2.0719   2.0921   4.3423   0.5815  -1.1303   0.9205   0.00    0.0
2022/11/10 11:00:54.416    9.042622669    7.399315534   465.5482   5  21   1.9640   2.0685   4.4921   0.7383  -0.9730   0.4480   0.00    0.0
2022/11/10 11:00:55.416    9.042487958    7.399321996   463.2325   5  19   2.1628   2.2410   4.7997  -0.3445  -1.5301   1.1013   0.00    0.0
2022/11/10 11:00:56.416    9.042524766    7.399330952   463.1846   5  21   2.0718   2.0922   4.3431   0.5815  -1.1300   0.9199   0.00    0.0
2022/11/10 11:00:57.416    9.042467408    7.399345435   467.5645   5  20   2.1068   2.1017   4.5002   0.5115  -1.0204   0.6288   0.00    0.0
2022/11/10 11:00:58.416    9.042523398    7.399350431   467.5755   5  21   2.0717   2.0923   4.3436   0.5814  -1.1298   0.9195   0.00    0.0
2022/11/10 11:00:59.416    9.042562910    7.399344393   473.7302   5  20   2.1067   2.1018   4.5007   0.5113  -1.0201   0.6282   0.00    0.0
2022/11/10 11:01:00.416    9.042573760    7.399358224   466.7534   5  20   2.1067   2.1019   4.5009   0.5113  -1.0199   0.6279   0.00    0.0
2022/11/10 11:01:01.416    9.042569272    7.399317868   466.6286   5  20   2.1067   2.1019   4.5012   0.5112  -1.0198   0.6276   0.00    0.0
2022/11/10 11:01:02.416    9.042546909    7.399376980   467.1472   5  20   2.1066   2.1020   4.5014   0.5112  -1.0196   0.6273   0.00    0.0
2022/11/10 11:01:03.416    9.042549201    7.399364959   463.4258   5  20   2.1066   2.1020   4.5017   0.5111  -1.0195   0.6270   0.00    0.0
2022/11/10 11:01:04.416    9.042547199    7.399375155   466.7980   5  20   2.1066   2.1021   4.5019   0.5110  -1.0193   0.6267   0.00    0.0
2022/11/10 11:01:05.416    9.042550292    7.399353780   469.2859   5  19   1.9985   2.2329   5.0297   0.6775  -1.6787   0.5527   0.00    0.0
2022/11/10 11:01:06.416    9.042498942    7.399353203   457.7942   5  20   2.0942   2.1374   4.5576   0.6867  -1.3686   0.6483   0.00    0.0
2022/11/10 11:01:07.416    9.042462921    7.399392087   469.4200   5  17   2.4674   2.3110   5.4411  -0.6063  -1.9319   1.7342   0.00    0.0
2022/11/10 11:01:08.416    9.042456455    7.399340924   463.9983   5  18   2.4324   2.3061   5.2753  -0.5525  -1.9830   1.8865   0.00    0.0
2022/11/10 11:01:09.416    9.042478087    7.399407372   457.4690   5  18   2.1876   2.2848   5.0497   0.1691  -1.7401   0.8316   0.00    0.0
2022/11/10 11:01:10.416    9.042496207    7.399362644   458.4795   5  19   2.2965   2.1396   4.7764   0.6202  -1.4157   1.3271   0.00    0.0
2022/11/10 11:01:11.416    9.042471933    7.399378418   458.2895   5  19   2.1350   2.1434   4.7468   0.6373  -1.2895  -0.3636   0.00    0.0
2022/11/10 11:01:12.416    9.042511228    7.399334412   465.3737   5  19   2.2964   2.1396   4.7770   0.6202  -1.4156   1.3265   0.00    0.0
2022/11/10 11:01:13.416    9.042478460    7.399403322   457.0838   5  18   2.1876   2.2848   5.0507   0.1701  -1.7395   0.8299   0.00    0.0
2022/11/10 11:01:14.416    9.042510519    7.399348017   458.3932   5  21   2.0713   2.0929   4.3477   0.5809  -1.1283   0.9162   0.00    0.0
2022/11/10 11:01:15.416    9.042590696    7.399324641   461.3102   5  20   2.0836   2.0693   4.7119   0.7266  -0.9882   1.0852   0.00    0.0
2022/11/10 11:01:16.416    9.042530559    7.399281420   472.3639   5  21   1.9638   2.0692   4.4981   0.7380  -0.9709   0.4467   0.00    0.0
2022/11/10 11:01:17.416    9.042421803    7.399336589   446.7555   5  20   2.2658   2.0966   4.6052   0.4743  -1.2074   1.4937   0.00    0.0
2022/11/10 11:01:18.416    9.042444993    7.399348036   450.0850   5  20   2.2657   2.0966   4.6055   0.4742  -1.2074   1.4936   0.00    0.0
2022/11/10 11:01:19.416    9.042496924    7.399258874   474.0900   5  21   2.0609   2.0624   4.5495   0.7617  -1.0894   1.2471   0.00    0.0
2022/11/10 11:01:20.416    9.042405820    7.399313781   454.6956   5  20   2.2656   2.0967   4.6060   0.4740  -1.2073   1.4933   0.00    0.0
2022/11/10 11:01:21.416    9.042484940    7.399297782   464.2690   5  21   2.0608   2.0624   4.5502   0.7617  -1.0894   1.2470   0.00    0.0
2022/11/10 11:01:22.416    9.042459412    7.399284314   465.0226   5  21   2.0608   2.0624   4.5505   0.7616  -1.0894   1.2470   0.00    0.0
2022/11/10 11:01:23.416    9.042443845    7.399313749   452.6298   5  20   2.2654   2.0968   4.6068   0.4737  -1.2072   1.4928   0.00    0.0
2022/11/10 11:01:24.416    9.042520878    7.399278683   472.8036   5  21   2.0608   2.0625   4.5512   0.7616  -1.0894   1.2470   0.00    0.0
2022/11/10 11:01:25.416    9.042524288    7.399330427   477.4585   5  21   2.0710   2.0933   4.3505   0.5806  -1.1272   0.9139   0.00    0.0
2022/11/10 11:01:26.416    9.042435953    7.399357899   461.3919   5  20   2.2652   2.0970   4.6076   0.4734  -1.2071   1.4923   0.00    0.0
2022/11/10 11:01:27.416    9.042566057    7.399303884   466.0119   5  22   1.9372   2.0624   4.3376   0.7744  -1.0713   0.7647   0.00    0.0
2022/11/10 11:01:28.416    9.042428355    7.399382260   458.3834   5  20   2.2651   2.0970   4.6081   0.4732  -1.2070   1.4920   0.00    0.0
2022/11/10 11:01:29.416    9.042514728    7.399338001   468.3070   5  21   1.9613   2.1685   4.6022   0.6282  -1.4754   1.0271   0.00    0.0
2022/11/10 11:01:30.416    9.042571355    7.399305549   481.0619   5  21   1.9613   2.1685   4.6025   0.6282  -1.4753   1.0271   0.00    0.0
2022/11/10 11:01:31.416    9.042440991    7.399337049   472.5831   5  20   2.1284   2.2325   4.6589  -0.2104  -1.5996   1.2846   0.00    0.0
2022/11/10 11:01:32.416    9.042481154    7.399348387   481.0945   5  20   2.1283   2.2325   4.6591  -0.2103  -1.5995   1.2845   0.00    0.0
2022/11/10 11:01:33.416    9.042546396    7.399273518   486.6370   5  21   1.9613   2.1684   4.6035   0.6283  -1.4751   1.0271   0.00    0.0
2022/11/10 11:01:34.416    9.042440106    7.399381506   466.5936   5  20   2.1283   2.2325   4.6596  -0.2102  -1.5993   1.2842   0.00    0.0
2022/11/10 11:01:35.416    9.042508266    7.399370807   467.1667   5  21   1.9612   2.1684   4.6041   0.6283  -1.4750   1.0271   0.00    0.0
2022/11/10 11:01:36.416    9.042482714    7.399366761   473.0579   5  20   2.1282   2.2325   4.6601  -0.2100  -1.5991   1.2839   0.00    0.0
2022/11/10 11:01:37.416    9.042462098    7.399376967   461.1159   5  20   2.1282   2.2325   4.6604  -0.2100  -1.5989   1.2838   0.00    0.0
2022/11/10 11:01:38.416    9.042520949    7.399338796   477.3130   5  20   2.1281   2.2325   4.6607  -0.2099  -1.5988   1.2836   0.00    0.0
2022/11/10 11:01:39.416    9.042550700    7.399341908   461.0221   5  21   1.9612   2.1684   4.6054   0.6284  -1.4748   1.0271   0.00    0.0
2022/11/10 11:01:40.416    9.042481545    7.399358862   468.6255   5  20   2.1281   2.2325   4.6612  -0.2097  -1.5986   1.2833   0.00    0.0
2022/11/10 11:01:41.416    9.042499588    7.399291909   474.5429   5  21   1.9612   2.1684   4.6061   0.6284  -1.4747   1.0271   0.00    0.0
2022/11/10 11:01:42.416    9.042419183    7.399358779   470.1231   5  20   2.1280   2.2325   4.6617  -0.2096  -1.5984   1.2830   0.00    0.0
2022/11/10 11:01:43.416    9.042462574    7.399373593   465.5433   5  21   1.9612   2.1683   4.6067   0.6284  -1.4745   1.0271   0.00    0.0
2022/11/10 11:01:44.416    9.042426026    7.399317515   469.6816   5  20   2.1280   2.2325   4.6622  -0.2094  -1.5981   1.2827   0.00    0.0
2022/11/10 11:01:45.416    9.042462149    7.399315535   462.9972   5  21   1.9612   2.1683   4.6074   0.6284  -1.4744   1.0271   0.00    0.0
2022/11/10 11:01:46.416    9.042399197    7.399308953   456.6581   5  21   1.9612   2.1683   4.6077   0.6284  -1.4744   1.0271   0.00    0.0
2022/11/10 11:01:47.416    9.042415626    7.399309867   464.8386   5  21   1.9612   2.1683   4.6080   0.6285  -1.4743   1.0271   0.00    0.0
2022/11/10 11:01:48.416    9.042373674    7.399370994   462.8064   5  19   2.2484   2.3091   4.6923  -0.6873  -1.4983   1.1248   0.00    0.0
2022/11/10 11:01:49.416    9.042430354    7.399307407   471.9725   5  21   1.9612   2.1683   4.6086   0.6285  -1.4742   1.0271   0.00    0.0
2022/11/10 11:01:50.416    9.042403510    7.399346619   476.0751   5  20   2.1278   2.2325   4.6637  -0.2090  -1.5975   1.2819   0.00    0.0
2022/11/10 11:01:51.416    9.042436677    7.399277145   495.3895   5  21   2.0703   2.0943   4.3571   0.5797  -1.1248   0.9086   0.00    0.0
2022/11/10 11:01:52.416    9.042516050    7.399302210   506.6227   5  20   2.2636   2.0981   4.6145   0.4707  -1.2062   1.4884   0.00    0.0
2022/11/10 11:01:53.416    9.042530728    7.399216153   508.6302   5  22   1.9371   2.0631   4.3450   0.7744  -1.0701   0.7633   0.00    0.0
2022/11/10 11:01:54.416    9.042556471    7.399295415   502.9873   5  21   1.9612   2.1682   4.6103   0.6285  -1.4739   1.0271   0.00    0.0
2022/11/10 11:01:55.416    9.042448497    7.399343967   483.3576   5  20   2.1276   2.2325   4.6650  -0.2086  -1.5969   1.2811   0.00    0.0
2022/11/10 11:01:56.416    9.042490258    7.399352684   488.0733   5  20   2.2633   2.0983   4.6156   0.4703  -1.2061   1.4878   0.00    0.0
2022/11/10 11:01:57.416    9.042502299    7.399316756   488.7037   5  21   1.9612   2.1682   4.6112   0.6286  -1.4737   1.0271   0.00    0.0
2022/11/10 11:01:58.416    9.042506503    7.399301449   494.0393   5  20   2.2632   2.0984   4.6161   0.4701  -1.2060   1.4875   0.00    0.0
2022/11/10 11:01:59.416    9.042470096    7.399342010   481.3413   5  21   1.9612   2.1682   4.6119   0.6286  -1.4736   1.0271   0.00    0.0
2022/11/10 11:02:00.416    9.042451274    7.399317666   470.1736   5  20   2.2630   2.0984   4.6166   0.4698  -1.2059   1.4872   0.00    0.0
2022/11/10 11:02:01.416    9.042431410    7.399357692   459.6922   5  21   1.9612   2.1682   4.6125   0.6286  -1.4735   1.0271   0.00    0.0
2022/11/10 11:02:02.416    9.042430194    7.399342872   466.6559   5  21   2.0599   2.0635   4.5637   0.7603  -1.0894   1.2468   0.00    0.0
2022/11/10 11:02:03.416    9.042441823    7.399346585   462.1519   5  21   2.0599   2.0636   4.5640   0.7603  -1.0894   1.2468   0.00    0.0
2022/11/10 11:02:04.416    9.042442362    7.399388249   448.1408   5  19   2.4014   2.2639   5.1263  -0.6799  -1.8287   1.9999   0.00    0.0
2022/11/10 11:02:05.416    9.042481058    7.399369606   458.6921   5  21   2.0598   2.0636   4.5647   0.7602  -1.0894   1.2468   0.00    0.0
2022/11/10 11:02:06.416    9.042420504    7.399375065   460.0553   5  19   2.4012   2.2639   5.1268  -0.6799  -1.8286   1.9996   0.00    0.0
2022/11/10 11:02:07.416    9.042450254    7.399323628   459.1630   5  21   2.0598   2.0637   4.5654   0.7602  -1.0894   1.2468   0.00    0.0
2022/11/10 11:02:08.416    9.042423125    7.399314002   469.4644   5  20   2.2625   2.0988   4.6188   0.4690  -1.2056   1.4859   0.00    0.0
2022/11/10 11:02:09.416    9.042392002    7.399313565   461.3357   5  21   2.0698   2.0950   4.3617   0.5791  -1.1230   0.9048   0.00    0.0
2022/11/10 11:02:10.416    9.042523807    7.399284955   490.0245   5  20   2.1142   2.1760   4.9475   0.4987  -1.5813   1.5692   0.00    0.0
2022/11/10 11:02:11.416    9.042412006    7.399305505   490.9514   5  20   2.2623   2.0989   4.6196   0.4687  -1.2055   1.4855   0.00    0.0
2022/11/10 11:02:12.416    9.042468802    7.399305159   492.9924   5  20   2.0731   2.0989   5.0742   0.5661  -1.2592   1.0601   0.00    0.0
2022/11/10 11:02:13.416    9.042386739    7.399352622   501.7411   5  20   2.1083   2.1984   4.4085   0.2604  -0.9158   0.7502   0.00    0.0
2022/11/10 11:02:14.416    9.042495696    7.399318355   496.7413   5  20   2.0104   2.0755   5.1019   0.7024  -1.2313   0.9358   0.00    0.0
2022/11/10 11:02:15.416    9.042534744    7.399341969   509.2723   5  22   1.9369   2.0636   4.3513   0.7743  -1.0690   0.7621   0.00    0.0
2022/11/10 11:02:16.416    9.042502214    7.399348159   485.5156   5  17   2.2221   2.2501   5.7131  -0.4442  -1.6316   1.0332   0.00    0.0
2022/11/10 11:02:17.416    9.042477773    7.399383548   422.7148   5  20   1.9857   2.1737   4.7823   0.5884  -1.4043   0.8171   0.00    0.0
2022/11/10 11:02:18.416    9.042514229    7.399366590   463.6964   5  21   1.9951   2.0677   4.4104   0.7336  -1.0251   0.4888   0.00    0.0
2022/11/10 11:02:19.416    9.042462959    7.399427038   423.1778   5  19   2.0483   2.1767   4.8742   0.5373  -1.3653   0.4428   0.00    0.0
2022/11/10 11:02:20.416    9.042570818    7.399341986   474.5290   5  20   1.9857   2.1737   4.7832   0.5884  -1.4040   0.8172   0.00    0.0
2022/11/10 11:02:21.416    9.042497882    7.399418619   473.8499   5  19   2.0483   2.1767   4.8747   0.5373  -1.3651   0.4431   0.00    0.0
2022/11/10 11:02:22.416    9.042498450    7.399380214   472.3956   5  20   1.9857   2.1737   4.7838   0.5884  -1.4038   0.8172   0.00    0.0
2022/11/10 11:02:23.416    9.042531694    7.399396596   483.9166   5  20   2.0301   2.0767   4.5965   0.6828  -0.8962  -0.4956   0.00    0.0
2022/11/10 11:02:24.416    9.042509895    7.399360776   488.5769   5  19   2.0483   2.1767   4.8754   0.5372  -1.3648   0.4436   0.00    0.0
2022/11/10 11:02:25.416    9.042480051    7.399381118   471.7193   5  19   2.0483   2.1767   4.8757   0.5372  -1.3647   0.4438   0.00    0.0
2022/11/10 11:02:26.416    9.042559202    7.399368322   486.4396   5  20   1.9856   2.1737   4.7851   0.5884  -1.4034   0.8173   0.00    0.0
2022/11/10 11:02:27.416    9.042520016    7.399394070   486.1478   5  19   2.0482   2.1767   4.8762   0.5371  -1.3645   0.4441   0.00    0.0
2022/11/10 11:02:28.416    9.042481316    7.399368987   474.1782   5  19   2.0482   2.1767   4.8765   0.5371  -1.3644   0.4443   0.00    0.0
2022/11/10 11:02:29.416    9.042495549    7.399397477   466.0449   5  19   2.0482   2.1767   4.8767   0.5371  -1.3643   0.4445   0.00    0.0
2022/11/10 11:02:30.416    9.042488321    7.399387546   466.8116   5  19   2.0482   2.1767   4.8770   0.5371  -1.3642   0.4446   0.00    0.0
2022/11/10 11:02:31.416    9.042528741    7.399399230   462.8083   5  19   2.0482   2.1767   4.8773   0.5370  -1.3641   0.4448   0.00    0.0
2022/11/10 11:02:32.416    9.042548362    7.399379902   463.9903   5  19   2.0482   2.1767   4.8775   0.5370  -1.3640   0.4449   0.00    0.0
2022/11/10 11:02:33.416    9.042506891    7.399409323   477.5668   5  19   2.1469   2.1820   4.9414   0.7212  -1.3168   1.3574   0.00    0.0
2022/11/10 11:02:34.416    9.042500877    7.399440267   438.0733   5  18   2.1722   2.1896   5.1415   0.6780  -1.2145   1.1720   0.00    0.0
2022/11/10 11:02:35.416    9.042549697    7.399400073   460.1204   5  21   1.9611   2.1678   4.6235   0.6290  -1.4715   1.0272   0.00    0.0
2022/11/10 11:02:36.416    9.042419209    7.399434247   442.0080   5  19   2.1469   2.1819   4.9425   0.7211  -1.3167   1.3577   0.00    0.0
2022/11/10 11:02:37.416    9.042464344    7.399408403   439.0956   5  19   2.1469   2.1819   4.9429   0.7210  -1.3166   1.3578   0.00    0.0
2022/11/10 11:02:38.416    9.042481615    7.399385746   449.3326   5  20   2.1058   2.1791   4.8641   0.7523  -1.3529   1.4874   0.00    0.0
2022/11/10 11:02:39.416    9.042480126    7.399420452   452.8759   5  20   2.1058   2.1791   4.8645   0.7522  -1.3528   1.4875   0.00    0.0
2022/11/10 11:02:40.416    9.042506235    7.399398259   434.2397   5  18   2.1722   2.1895   5.1435   0.6777  -1.2139   1.1730   0.00    0.0
2022/11/10 11:02:41.416    9.042517151    7.399382771   447.3413   5  20   2.1058   2.1791   4.8653   0.7522  -1.3527   1.4876   0.00    0.0
2022/11/10 11:02:42.416    9.042506107    7.399340264   454.5374   5  21   1.9610   2.1678   4.6258   0.6291  -1.4711   1.0272   0.00    0.0
2022/11/10 11:02:43.416    9.042551633    7.399346460   463.3827   5  20   2.1058   2.1790   4.8661   0.7521  -1.3526   1.4878   0.00    0.0
2022/11/10 11:02:44.416    9.042592857    7.399356226   483.7473   5  19   2.1857   2.2312   4.9037   0.5335  -1.2410   1.3641   0.00    0.0
2022/11/10 11:02:45.416    9.042575341    7.399330986   481.4438   5  21   2.0612   2.0903   4.5306   0.9115  -0.8576   1.2031   0.00    0.0
2022/11/10 11:02:46.416    9.042543368    7.399361589   474.4020   5  19   2.1858   2.2312   4.9045   0.5333  -1.2409   1.3643   0.00    0.0
2022/11/10 11:02:47.416    9.042510623    7.399339688   475.0744   5  20   2.1058   2.1790   4.8678   0.7520  -1.3524   1.4881   0.00    0.0
2022/11/10 11:02:48.416    9.042509108    7.399343088   478.2346   5  19   2.1858   2.2312   4.9053   0.5332  -1.2409   1.3645   0.00    0.0
2022/11/10 11:02:49.416    9.042524016    7.399333234   474.4392   5  20   2.1058   2.1789   4.8686   0.7520  -1.3523   1.4883   0.00    0.0
2022/11/10 11:02:50.416    9.042480007    7.399407954   473.1133   5  20   2.1058   2.1789   4.8690   0.7520  -1.3523   1.4884   0.00    0.0
2022/11/10 11:02:51.416    9.042443962    7.399403114   453.8709   5  20   2.1058   2.1789   4.8694   0.7519  -1.3522   1.4885   0.00    0.0
2022/11/10 11:02:52.416    9.042439543    7.399418189   465.7458   5  19   2.3606   2.2337   5.0006   0.2015  -1.5451   1.8514   0.00    0.0
2022/11/10 11:02:53.416    9.042407763    7.399427250   459.5471   5  19   2.3605   2.2337   5.0009   0.2014  -1.5450   1.8514   0.00    0.0
2022/11/10 11:02:54.416    9.042447023    7.399377959   464.1728   5  20   2.1058   2.1788   4.8706   0.7519  -1.3521   1.4888   0.00    0.0
2022/11/10 11:02:55.416    9.042429568    7.399430996   462.7974   5  20   2.1258   2.2323   4.6805  -0.2043  -1.5899   1.2721   0.00    0.0
2022/11/10 11:02:56.416    9.042433919    7.399433802   453.5965   5  20   2.1257   2.2323   4.6808  -0.2042  -1.5898   1.2720   0.00    0.0
2022/11/10 11:02:57.416    9.042399955    7.399414469   454.6927   5  20   2.1257   2.2323   4.6811  -0.2042  -1.5897   1.2718   0.00    0.0
2022/11/10 11:02:58.416    9.042459517    7.399410518   458.2407   5  20   2.1257   2.2323   4.6813  -0.2041  -1.5896   1.2717   0.00    0.0
2022/11/10 11:02:59.416    9.042453766    7.399418935   458.0241   5  20   2.1256   2.2323   4.6816  -0.2040  -1.5894   1.2715   0.00    0.0
2022/11/10 11:03:00.416    9.042482532    7.399427079   473.1295   5  20   2.1256   2.2323   4.6818  -0.2039  -1.5893   1.2714   0.00    0.0
2022/11/10 11:03:01.416    9.042538407    7.399399591   482.7026   5  21   2.0683   2.0971   4.3752   0.5773  -1.1180   0.8939   0.00    0.0
2022/11/10 11:03:02.416    9.042541080    7.399373852   483.8157   5  21   2.0683   2.0971   4.3754   0.5773  -1.1179   0.8937   0.00    0.0
2022/11/10 11:03:03.416    9.042521493    7.399442225   477.6104   5  20   2.1255   2.2323   4.6826  -0.2037  -1.5890   1.2709   0.00    0.0
2022/11/10 11:03:04.416    9.042422751    7.399412099   476.6104   5  21   2.0683   2.0972   4.3760   0.5772  -1.1177   0.8933   0.00    0.0
2022/11/10 11:03:05.416    9.042499041    7.399432658   478.7270   5  21   2.0682   2.0972   4.3762   0.5772  -1.1176   0.8930   0.00    0.0
2022/11/10 11:03:06.416    9.042489976    7.399426550   474.1932   5  21   2.0682   2.0973   4.3765   0.5772  -1.1175   0.8928   0.00    0.0
2022/11/10 11:03:07.416    9.042514570    7.399447957   467.3481   5  20   2.1254   2.2323   4.6837  -0.2034  -1.5885   1.2703   0.00    0.0
2022/11/10 11:03:08.416    9.042541143    7.399444537   466.6283   5  21   2.0681   2.0973   4.3770   0.5771  -1.1173   0.8924   0.00    0.0
2022/11/10 11:03:09.416    9.042541189    7.399423451   483.9484   5  19   2.3312   2.2508   4.7052  -0.5637  -1.6281   1.4277   0.00    0.0
2022/11/10 11:03:10.416    9.042505160    7.399394864   485.5426   5  21   2.0681   2.0974   4.3775   0.5770  -1.1171   0.8920   0.00    0.0
2022/11/10 11:03:11.416    9.042530232    7.399409991   486.6070   5  20   2.2467   2.1049   4.3824   0.4219  -1.1328   0.9861   0.00    0.0
2022/11/10 11:03:12.416    9.042542406    7.399430206   479.0661   5  21   2.0680   2.0975   4.3780   0.5769  -1.1169   0.8916   0.00    0.0
2022/11/10 11:03:13.416    9.042585425    7.399447789   475.2934   5  21   2.0680   2.0975   4.3783   0.5769  -1.1168   0.8913   0.00    0.0
2022/11/10 11:03:14.416    9.042490026    7.399434403   475.7613   5  21   2.0680   2.0976   4.3785   0.5769  -1.1167   0.8911   0.00    0.0
2022/11/10 11:03:15.416    9.042505568    7.399377592   483.4584   5  20   2.1251   2.2322   4.6857  -0.2029  -1.5875   1.2691   0.00    0.0
2022/11/10 11:03:16.416    9.042530574    7.399390895   479.0878   5  21   2.0679   2.0976   4.3791   0.5768  -1.1165   0.8907   0.00    0.0
2022/11/10 11:03:17.416    9.042507408    7.399398452   474.5477   5  20   2.1251   2.2322   4.6863  -0.2027  -1.5873   1.2688   0.00    0.0
2022/11/10 11:03:18.416    9.042530328    7.399406113   474.5603   5  22   1.9365   2.0653   4.3694   0.7741  -1.0659   0.7587   0.00    0.0
2022/11/10 11:03:19.416    9.042514355    7.399360488   481.1123   5  21   2.0609   2.0908   4.5420   0.9105  -0.8557   1.2041   0.00    0.0
2022/11/10 11:03:20.416    9.042498967    7.399380728   470.5127   5  22   1.9365   2.0653   4.3699   0.7741  -1.0658   0.7586   0.00    0.0
2022/11/10 11:03:21.416    9.042563508    7.399365769   479.2667   5  21   2.0609   2.0909   4.5427   0.9104  -0.8556   1.2042   0.00    0.0
2022/11/10 11:03:22.416    9.042572918    7.399374014   481.8651   5  21   2.0609   2.0909   4.5431   0.9104  -0.8556   1.2042   0.00    0.0
2022/11/10 11:03:23.416    9.042507259    7.399349638   484.3920   5  21   2.0609   2.0909   4.5434   0.9103  -0.8555   1.2042   0.00    0.0
2022/11/10 11:03:24.416    9.042515432    7.399375287   474.3385   5  21   2.0609   2.0909   4.5437   0.9103  -0.8555   1.2043   0.00    0.0
2022/11/10 11:03:25.416    9.042490519    7.399398916   463.8107   5  21   2.0609   2.0909   4.5441   0.9103  -0.8554   1.2043   0.00    0.0
2022/11/10 11:03:26.416    9.042424838    7.399409563   450.1260   5  21   1.9623   2.0733   4.5339   0.7361  -0.9585   0.4395   0.00    0.0
2022/11/10 11:03:27.416    9.042454271    7.399397427   469.7094   5  21   2.0609   2.0910   4.5447   0.9102  -0.8554   1.2044   0.00    0.0
2022/11/10 11:03:28.416    9.042412185    7.399397734   467.9517   5  22   1.9364   2.0655   4.3722   0.7740  -1.0655   0.7583   0.00    0.0
2022/11/10 11:03:29.416    9.042510250    7.399374069   470.1185   5  19   2.2734   2.1007   5.0641   0.9093  -0.6168   1.6669   0.00    0.0
2022/11/10 11:03:30.416    9.042462584    7.399370647   479.3806   5  20   2.2582   2.0917   4.8927   0.9369  -0.7967   1.7668   0.00    0.0
2022/11/10 11:03:31.416    9.042479410    7.399398208   465.3084   5  19   2.2733   2.1007   5.0649   0.9092  -0.6168   1.6670   0.00    0.0
2022/11/10 11:03:32.416    9.042495850    7.399351947   461.7631   5  20   2.0801   2.0738   4.7558   0.7203  -0.9824   1.0863   0.00    0.0
2022/11/10 11:03:33.416    9.042492547    7.399397668   472.2767   5  20   2.2581   2.0917   4.8939   0.9366  -0.7968   1.7671   0.00    0.0
2022/11/10 11:03:34.416    9.042510865    7.399358229   483.5574   5  19   2.2732   2.1008   5.0661   0.9089  -0.6167   1.6673   0.00    0.0
2022/11/10 11:03:35.416    9.042452594    7.399368821   470.5177   5  20   2.0800   2.0739   4.7568   0.7202  -0.9823   1.0864   0.00    0.0
2022/11/10 11:03:36.416    9.042461269    7.399380522   466.0477   5  19   2.2732   2.1008   5.0669   0.9087  -0.6167   1.6674   0.00    0.0
2022/11/10 11:03:37.416    9.042483399    7.399362636   471.5234   5  20   2.0799   2.0740   4.7574   0.7201  -0.9822   1.0864   0.00    0.0
2022/11/10 11:03:38.416    9.042450349    7.399384843   460.8320   5  19   2.2731   2.1008   5.0678   0.9086  -0.6166   1.6676   0.00    0.0
2022/11/10 11:03:39.416    9.042481733    7.399353641   462.1536   5  20   2.0799   2.0740   4.7581   0.7200  -0.9821   1.0864   0.00    0.0
2022/11/10 11:03:40.416    9.042448089    7.399350999   468.3203   5  19   2.2730   2.1009   5.0686   0.9084  -0.6166   1.6677   0.00    0.0
2022/11/10 11:03:41.416    9.042432103    7.399365996   459.6116   5  20   2.0798   2.0741   4.7587   0.7199  -0.9820   1.0864   0.00    0.0
2022/11/10 11:03:42.416    9.042503513    7.399361794   476.3718   5  19   2.2730   2.1009   5.0694   0.9082  -0.6166   1.6679   0.00    0.0
2022/11/10 11:03:43.416    9.042468286    7.399361286   469.8288   5  19   2.2729   2.1009   5.0698   0.9081  -0.6165   1.6680   0.00    0.0
2022/11/10 11:03:44.416    9.042528674    7.399355515   472.7930   5  19   2.2729   2.1009   5.0702   0.9080  -0.6165   1.6680   0.00    0.0
2022/11/10 11:03:45.416    9.042538547    7.399352055   468.3877   5  19   2.2729   2.1010   5.0706   0.9079  -0.6165   1.6681   0.00    0.0
2022/11/10 11:03:46.416    9.042486547    7.399381569   455.4699   5  20   2.0812   2.1002   4.7193   0.8780  -0.6988   1.0430   0.00    0.0
2022/11/10 11:03:47.416    9.042457913    7.399393009   450.3657   5  19   2.2728   2.1010   5.0714   0.9078  -0.6165   1.6683   0.00    0.0
2022/11/10 11:03:48.416    9.042561948    7.399371603   470.4614   5  21   1.9621   2.0740   4.5400   0.7357  -0.9564   0.4383   0.00    0.0
2022/11/10 11:03:49.416    9.042515717    7.399388942   460.9483   5  20   2.0812   2.1002   4.7202   0.8779  -0.6984   1.0432   0.00    0.0
2022/11/10 11:03:50.416    9.042515501    7.399391573   454.9912   5  20   2.0812   2.1003   4.7206   0.8779  -0.6983   1.0432   0.00    0.0
2022/11/10 11:03:51.416    9.042523300    7.399369807   468.9177   5  20   2.0812   2.1003   4.7209   0.8778  -0.6981   1.0433   0.00    0.0
2022/11/10 11:03:52.416    9.042479909    7.399383505   454.7874   5  20   2.0795   2.0744   4.7623   0.7193  -0.9816   1.0865   0.00    0.0
2022/11/10 11:03:53.416    9.042500239    7.399406884   455.9771   5  20   2.0812   2.1003   4.7216   0.8777  -0.6979   1.0434   0.00    0.0
2022/11/10 11:03:54.416    9.042445578    7.399373207   457.4936   5  19   2.1241   2.1848   5.0667   0.7175  -1.2618   1.3672   0.00    0.0
2022/11/10 11:03:55.416    9.042521695    7.399421620   469.8348   5  22   1.9361   2.0662   4.3795   0.7740  -1.0645   0.7576   0.00    0.0
2022/11/10 11:03:56.416    9.042505313    7.399379866   464.6510   5  20   2.0811   2.1004   4.7225   0.8776  -0.6975   1.0435   0.00    0.0
2022/11/10 11:03:57.416    9.042554096    7.399378201   482.1128   5  20   1.9850   2.1733   4.8135   0.5880  -1.3949   0.8194   0.00    0.0
2022/11/10 11:03:58.416    9.042608369    7.399407724   487.3950   5  22   1.9361   2.0663   4.3803   0.7740  -1.0644   0.7575   0.00    0.0
2022/11/10 11:03:59.416    9.042525665    7.399365219   478.2026   5  20   1.9850   2.1733   4.8141   0.5880  -1.3947   0.8195   0.00    0.0
2022/11/10 11:04:00.416    9.042503380    7.399378414   472.8175   5  20   2.1059   2.1777   4.8965   0.7503  -1.3491   1.4949   0.00    0.0
2022/11/10 11:04:01.416    9.042534364    7.399395343   465.3876   5  20   2.0811   2.1005   4.7242   0.8774  -0.6969   1.0438   0.00    0.0
2022/11/10 11:04:02.416    9.042507334    7.399405740   450.8195   5  19   2.1240   2.1847   5.0699   0.7172  -1.2611   1.3681   0.00    0.0
2022/11/10 11:04:03.416    9.042529115    7.399366696   474.7707   5  20   2.1087   2.1743   4.6624   0.5081  -1.4860   1.1430   0.00    0.0
2022/11/10 11:04:04.416    9.042537762    7.399363365   458.7623   5  19   2.1240   2.1847   5.0707   0.7171  -1.2609   1.3683   0.00    0.0
2022/11/10 11:04:05.416    9.042476197    7.399399536   457.2544   5  21   2.0605   2.0915   4.5568   0.9091  -0.8540   1.2061   0.00    0.0
2022/11/10 11:04:06.416    9.042495805    7.399373949   455.7064   5  18   2.3006   2.1891   5.1103   0.6254  -1.2950   1.5584   0.00    0.0
2022/11/10 11:04:07.416    9.042500653    7.399372597   463.1584   5  19   2.2895   2.1827   4.9304   0.6548  -1.3790   1.6535   0.00    0.0
2022/11/10 11:04:08.416    9.042475737    7.399395826   449.2534   5  18   2.3006   2.1891   5.1112   0.6252  -1.2949   1.5589   0.00    0.0
2022/11/10 11:04:09.416    9.042457253    7.399393708   447.4477   5  20   2.2243   2.0928   4.5699   0.8746  -0.8678   1.3154   0.00    0.0
2022/11/10 11:04:10.416    9.042547067    7.399366275   462.5197   5  18   2.3006   2.1891   5.1122   0.6251  -1.2948   1.5594   0.00    0.0
2022/11/10 11:04:11.416    9.042476975    7.399400391   452.3833   5  18   2.3007   2.1891   5.1126   0.6250  -1.2947   1.5597   0.00    0.0
2022/11/10 11:04:12.416    9.042455990    7.399430707   455.1114   5  19   2.2895   2.1827   4.9326   0.6545  -1.3790   1.6546   0.00    0.0
2022/11/10 11:04:13.416    9.042475969    7.399404865   446.7736   5  19   2.1240   2.1846   5.0743   0.7168  -1.2601   1.3693   0.00    0.0
2022/11/10 11:04:14.416    9.042529543    7.399407671   466.2386   5  19   2.1259   2.1800   4.8345   0.4640  -1.4170   0.9840   0.00    0.0
2022/11/10 11:04:15.416    9.042511130    7.399400883   466.4002   5  19   2.1240   2.1846   5.0751   0.7167  -1.2599   1.3695   0.00    0.0
2022/11/10 11:04:16.416    9.042468981    7.399420165   454.4920   5  19   2.1221   2.2353   4.9026   0.6176  -1.7283   0.9764   0.00    0.0
2022/11/10 11:04:17.416    9.042556758    7.399426341   468.8730   5  18   2.1483   2.2392   5.4025   0.5788  -1.7588   1.2975   0.00    0.0
2022/11/10 11:04:18.416    9.042417146    7.399421341   452.4017   5  18   2.3109   2.2475   5.1232   0.7718  -1.6246   1.5206   0.00    0.0
2022/11/10 11:04:19.416    9.042539393    7.399415931   461.7690   5  20   1.9734   2.2289   4.8943   0.7172  -1.7134   0.8482   0.00    0.0
2022/11/10 11:04:20.416    9.042495442    7.399408036   459.5047   5  19   2.0009   2.2321   5.0878   0.6889  -1.6638   0.5100   0.00    0.0
2022/11/10 11:04:21.416    9.042535711    7.399413385   469.7041   5  18   2.1422   2.2381   5.1015   0.5907  -1.6819   0.7365   0.00    0.0
2022/11/10 11:04:22.416    9.042514477    7.399417087   465.0605   5  18   2.1423   2.2381   5.1018   0.5907  -1.6818   0.7366   0.00    0.0
2022/11/10 11:04:23.416    9.042490244    7.399388453   470.3264   5  19   2.0010   2.2321   5.0887   0.6891  -1.6636   0.5093   0.00    0.0
2022/11/10 11:04:24.416    9.042470505    7.399406232   461.7312   5  20   1.9735   2.2288   4.8957   0.7175  -1.7132   0.8476   0.00    0.0
2022/11/10 11:04:25.416    9.042555404    7.399389319   472.2954   5  18   2.0618   2.2361   5.1613   0.6388  -1.6283  -0.4098   0.00    0.0
2022/11/10 11:04:26.416    9.042523761    7.399367402   476.1616   5  21   1.9511   2.1225   4.6092   0.8464  -1.3458   0.4784   0.00    0.0
2022/11/10 11:04:27.416    9.042505413    7.399364055   468.8945   5  18   2.0618   2.2361   5.1618   0.6389  -1.6281  -0.4100   0.00    0.0
2022/11/10 11:04:28.416    9.042498003    7.399382047   464.9599   5  20   1.9735   2.2288   4.8969   0.7178  -1.7130   0.8472   0.00    0.0
2022/11/10 11:04:29.416    9.042455357    7.399362611   453.2952   5  18   2.0618   2.2361   5.1623   0.6390  -1.6280  -0.4102   0.00    0.0
2022/11/10 11:04:30.416    9.042420838    7.399364954   442.9402   5  19   2.1273   2.1605   4.7980   0.9532  -1.1310   0.8706   0.00    0.0
2022/11/10 11:04:31.416    9.042479645    7.399381081   452.8112   5  18   2.0618   2.2361   5.1627   0.6391  -1.6278  -0.4104   0.00    0.0
2022/11/10 11:04:32.416    9.042449256    7.399374205   460.3485   5  19   2.1254   2.2434   5.1020   0.8470  -1.6026   1.3578   0.00    0.0
2022/11/10 11:04:33.416    9.042504098    7.399357037   451.4905   5  16   2.3131   2.3100   5.4860   0.4818  -1.3052   0.4680   0.00    0.0
2022/11/10 11:04:34.416    9.042469547    7.399365174   450.1030   5  19   2.0261   2.2320   4.9485   0.6785  -1.6878   0.6288   0.00    0.0
2022/11/10 11:04:35.416    9.042469842    7.399372781   467.6517   5  18   2.1470   2.2471   5.3027   0.8234  -1.5425   1.1863   0.00    0.0
2022/11/10 11:04:36.416    9.042477452    7.399355005   444.3300   5  18   2.1647   2.2475   5.1644   0.8133  -1.5682   1.2328   0.00    0.0
2022/11/10 11:04:37.416    9.042451768    7.399377776   438.9564   5  16   2.3133   2.3100   5.4871   0.4816  -1.3049   0.4689   0.00    0.0
2022/11/10 11:04:38.416    9.042423346    7.399370910   459.6832   5  19   2.1256   2.2433   5.1042   0.8472  -1.6024   1.3580   0.00    0.0
2022/11/10 11:04:39.416    9.042490514    7.399380996   462.8178   5  19   2.0478   2.1765   4.9104   0.5337  -1.3514   0.4665   0.00    0.0
2022/11/10 11:04:40.416    9.042409306    7.399395699   456.2843   5  19   2.0012   2.2320   5.0937   0.6900  -1.6622   0.5056   0.00    0.0
2022/11/10 11:04:41.416    9.042494222    7.399400710   449.6386   5  20   2.0153   2.1689   4.7242   0.5921  -1.4383   0.8395   0.00    0.0
2022/11/10 11:04:42.416    9.042461664    7.399413612   456.0772   5  21   2.0562   2.0678   4.6153   0.7548  -1.0904   1.2471   0.00    0.0
2022/11/10 11:04:43.416    9.042471502    7.399392931   450.7085   5  19   2.0477   2.1765   4.9114   0.5336  -1.3510   0.4672   0.00    0.0
2022/11/10 11:04:44.416    9.042506939    7.399383230   461.7284   5  19   2.0477   2.1765   4.9116   0.5336  -1.3509   0.4673   0.00    0.0
2022/11/10 11:04:45.416    9.042369875    7.399403690   463.3021   5  20   2.1396   2.1159   4.6621   0.5518  -0.9468   1.0813   0.00    0.0
2022/11/10 11:04:46.416    9.042428083    7.399375432   470.4979   5  20   1.9846   2.1731   4.8288   0.5876  -1.3903   0.8206   0.00    0.0
2022/11/10 11:04:47.416    9.042487519    7.399375679   453.0793   5  20   2.1072   2.0720   4.6733   0.7139  -1.0465   1.1052   0.00    0.0
2022/11/10 11:04:48.416    9.042487323    7.399395083   453.5939   5  18   2.1823   2.1843   5.2674   0.3812  -1.4747   1.2855   0.00    0.0
2022/11/10 11:04:49.416    9.042455225    7.399407018   477.5690   5  18   2.2370   2.2458   5.2205  -0.4069  -1.3850   1.2838   0.00    0.0
2022/11/10 11:04:50.416    9.042414788    7.399403253   452.7169   5  20   2.1115   2.1752   5.0092   0.4950  -1.5806   1.5776   0.00    0.0
2022/11/10 11:04:51.416    9.042487323    7.399384528   471.8578   5  20   1.9846   2.1731   4.8303   0.5876  -1.3898   0.8207   0.00    0.0
2022/11/10 11:04:52.416    9.042486707    7.399402013   465.8256   5  20   2.1115   2.1752   5.0099   0.4949  -1.5806   1.5777   0.00    0.0
2022/11/10 11:04:53.416    9.042464855    7.399350014   479.1069   5  21   2.0560   2.0681   4.6187   0.7544  -1.0905   1.2472   0.00    0.0
2022/11/10 11:04:54.416    9.042423882    7.399380864   458.0613   5  20   2.1114   2.1752   5.0107   0.4949  -1.5806   1.5778   0.00    0.0
2022/11/10 11:04:55.416    9.042474417    7.399422738   468.7782   5  20   2.1114   2.1752   5.0111   0.4949  -1.5806   1.5778   0.00    0.0
2022/11/10 11:04:56.416    9.042447845    7.399432752   461.4253   5  19   2.1307   2.1814   5.1778   0.4447  -1.5113   1.4550   0.00    0.0
2022/11/10 11:04:57.416    9.042400307    7.399428150   451.3392   5  20   2.1114   2.1752   5.0118   0.4948  -1.5806   1.5779   0.00    0.0
2022/11/10 11:04:58.416    9.042450515    7.399415311   446.3889   5  18   2.1821   2.1843   5.2706   0.3804  -1.4743   1.2866   0.00    0.0
2022/11/10 11:04:59.416    9.042376524    7.399418510   453.2881   5  20   2.1113   2.1752   5.0126   0.4948  -1.5806   1.5781   0.00    0.0
2022/11/10 11:05:00.416    9.042420568    7.399440954   462.9690   5  20   2.1113   2.1752   5.0130   0.4948  -1.5806   1.5781   0.00    0.0
2022/11/10 11:05:01.416    9.042401420    7.399431112   466.0985   5  20   2.1113   2.1752   5.0133   0.4947  -1.5806   1.5782   0.00    0.0
2022/11/10 11:05:02.416    9.042390529    7.399407221   467.0283   5  20   2.1113   2.1752   5.0137   0.4947  -1.5806   1.5782   0.00    0.0
2022/11/10 11:05:03.416    9.042432781    7.399421911   471.1325   5  20   1.9845   2.1731   4.8341   0.5875  -1.3887   0.8210   0.00    0.0
2022/11/10 11:05:04.416    9.042445132    7.399401617   468.2232   5  20   2.1112   2.1752   5.0145   0.4947  -1.5806   1.5783   0.00    0.0
2022/11/10 11:05:05.416    9.042391001    7.399417181   472.0504   5  20   2.1112   2.1752   5.0148   0.4946  -1.5806   1.5784   0.00    0.0
2022/11/10 11:05:06.416    9.042462051    7.399447178   472.3900   5  21   1.9604   2.1664   4.6706   0.6307  -1.4633   1.0294   0.00    0.0
2022/11/10 11:05:07.416    9.042449090    7.399438028   470.8952   5  20   2.1112   2.1752   5.0156   0.4946  -1.5806   1.5785   0.00    0.0
2022/11/10 11:05:08.416    9.042475715    7.399428032   470.8790   5  21   1.9603   2.1663   4.6713   0.6308  -1.4632   1.0295   0.00    0.0
2022/11/10 11:05:09.416    9.042437270    7.399412611   459.7570   5  20   2.1112   2.1751   5.0164   0.4945  -1.5806   1.5786   0.00    0.0
2022/11/10 11:05:10.416    9.042503327    7.399415029   473.7303   5  21   1.9603   2.1663   4.6719   0.6308  -1.4631   1.0295   0.00    0.0
2022/11/10 11:05:11.416    9.042528039    7.399384447   473.8632   5  20   1.9844   2.2668   4.7168   0.4385  -1.3070   0.9277   0.00    0.0
2022/11/10 11:05:12.416    9.042475796    7.399435961   459.2911   5  20   2.1111   2.1751   5.0175   0.4945  -1.5806   1.5788   0.00    0.0
2022/11/10 11:05:13.416    9.042444981    7.399447767   450.4852   5  20   2.1111   2.1751   5.0179   0.4944  -1.5806   1.5788   0.00    0.0
2022/11/10 11:05:14.416    9.042476457    7.399487546   461.8636   5  21   1.9603   2.1663   4.6731   0.6308  -1.4628   1.0296   0.00    0.0
2022/11/10 11:05:15.416    9.042467910    7.399493300   455.6932   5  20   2.1110   2.1751   5.0186   0.4944  -1.5806   1.5789   0.00    0.0
2022/11/10 11:05:16.416    9.042522909    7.399432468   455.5614   5  19   2.0474   2.2736   4.7904   0.3222  -1.2491   0.6662   0.00    0.0
2022/11/10 11:05:17.416    9.042453342    7.399478092   450.2452   5  20   2.1110   2.1751   5.0194   0.4943  -1.5806   1.5790   0.00    0.0
2022/11/10 11:05:18.416    9.042444277    7.399481274   447.9803   5  20   2.1110   2.1751   5.0198   0.4943  -1.5806   1.5791   0.00    0.0
2022/11/10 11:05:19.416    9.042466782    7.399466808   462.3280   5  20   2.1110   2.1751   5.0202   0.4943  -1.5806   1.5791   0.00    0.0
2022/11/10 11:05:20.416    9.042510296    7.399429627   460.9038   5  19   2.1363   2.2769   5.0567   0.1531  -1.4464   1.5152   0.00    0.0
2022/11/10 11:05:21.416    9.042480747    7.399465848   459.5298   5  20   2.1109   2.1751   5.0209   0.4942  -1.5806   1.5793   0.00    0.0
2022/11/10 11:05:22.416    9.042508790    7.399469386   464.6358   5  20   2.0153   2.1686   4.7350   0.5919  -1.4361   0.8430   0.00    0.0
2022/11/10 11:05:23.416    9.042504671    7.399478492   456.2512   5  20   2.1109   2.1751   5.0217   0.4942  -1.5806   1.5794   0.00    0.0
2022/11/10 11:05:24.416    9.042571512    7.399448368   469.2063   5  19   2.1556   2.1771   5.0887   0.4506  -1.5559   1.4615   0.00    0.0
2022/11/10 11:05:25.416    9.042512985    7.399451359   459.4418   5  21   1.9603   2.1662   4.6765   0.6309  -1.4623   1.0298   0.00    0.0
2022/11/10 11:05:26.416    9.042566213    7.399397905   470.5671   5  20   2.0153   2.1686   4.7360   0.5919  -1.4359   0.8433   0.00    0.0
2022/11/10 11:05:27.416    9.042489540    7.399431200   461.8122   5  21   1.9603   2.1662   4.6771   0.6310  -1.4622   1.0298   0.00    0.0
2022/11/10 11:05:28.416    9.042528966    7.399419220   460.4273   5  19   2.1556   2.1771   5.0900   0.4504  -1.5559   1.4618   0.00    0.0
2022/11/10 11:05:29.416    9.042549217    7.399418269   472.4057   5  21   1.9602   2.1661   4.6777   0.6310  -1.4620   1.0299   0.00    0.0
2022/11/10 11:05:30.416    9.042487355    7.399374392   459.9130   5  20   2.0153   2.1685   4.7371   0.5919  -1.4357   0.8437   0.00    0.0
2022/11/10 11:05:31.416    9.042487112    7.399394103   477.4332   5  21   1.9602   2.1661   4.6783   0.6310  -1.4619   1.0299   0.00    0.0
2022/11/10 11:05:32.416    9.042520311    7.399417286   469.4377   5  20   2.0153   2.1685   4.7376   0.5919  -1.4356   0.8438   0.00    0.0
2022/11/10 11:05:33.416    9.042468269    7.399392349   451.8505   5  19   2.1555   2.1771   5.0916   0.4502  -1.5559   1.4623   0.00    0.0
2022/11/10 11:05:34.416    9.042471931    7.399368713   464.3633   5  20   2.0153   2.1685   4.7381   0.5919  -1.4355   0.8440   0.00    0.0
2022/11/10 11:05:35.416    9.042476622    7.399397344   458.3594   5  19   2.1555   2.1771   5.0923   0.4501  -1.5559   1.4625   0.00    0.0
2022/11/10 11:05:36.416    9.042475605    7.399377310   461.4806   5  20   2.0153   2.1685   4.7387   0.5918  -1.4354   0.8442   0.00    0.0
2022/11/10 11:05:37.416    9.042428132    7.399365695   476.7288   5  19   2.1555   2.1771   5.0929   0.4500  -1.5559   1.4627   0.00    0.0
2022/11/10 11:05:38.416    9.042498822    7.399346100   476.2360   5  20   2.0153   2.1685   4.7392   0.5918  -1.4352   0.8443   0.00    0.0
2022/11/10 11:05:39.416    9.042478999    7.399362996   497.3652   5  20   2.0153   2.1685   4.7395   0.5918  -1.4352   0.8444   0.00    0.0
2022/11/10 11:05:40.416    9.042463521    7.399397470   478.4575   5  18   2.1879   2.2832   5.1430  -0.2361  -1.3904   1.3691   0.00    0.0
2022/11/10 11:05:41.416    9.042478249    7.399363712   479.8001   5  19   2.1555   2.1771   5.0943   0.4498  -1.5559   1.4630   0.00    0.0
2022/11/10 11:05:42.416    9.042473576    7.399417085   476.3713   5  19   2.1554   2.1771   5.0946   0.4497  -1.5559   1.4631   0.00    0.0
2022/11/10 11:05:43.416    9.042500152    7.399391126   482.3067   5  19   2.0469   2.2737   4.7995   0.3244  -1.2436   0.6670   0.00    0.0
2022/11/10 11:05:44.416    9.042498508    7.399352335   492.8531   5  19   2.1554   2.1771   5.0952   0.4496  -1.5559   1.4633   0.00    0.0
2022/11/10 11:05:45.416    9.042503103    7.399345751   504.0242   5  18   2.1877   2.2832   5.1450  -0.2356  -1.3897   1.3693   0.00    0.0
2022/11/10 11:05:46.416    9.042527047    7.399330187   505.8228   5  18   2.1877   2.2832   5.1454  -0.2355  -1.3895   1.3694   0.00    0.0
2022/11/10 11:05:47.416    9.042462255    7.399361493   520.7750   5  20   1.9836   2.2667   4.7304   0.4415  -1.2999   0.9266   0.00    0.0
2022/11/10 11:05:48.416    9.042510404    7.399384401   490.5714   5  18   2.1876   2.2832   5.1462  -0.2353  -1.3892   1.3695   0.00    0.0
2022/11/10 11:05:49.416    9.042454260    7.399398855   514.8368   5  19   2.1352   2.2769   5.0697   0.1593  -1.4422   1.5158   0.00    0.0
2022/11/10 11:05:50.416    9.042509370    7.399384891   496.0594   5  18   2.1875   2.2832   5.1470  -0.2351  -1.3889   1.3696   0.00    0.0
2022/11/10 11:05:51.416    9.042457206    7.399377365   463.8025   5  18   2.0790   2.2818   4.9878   0.1887  -1.1329  -0.2143   0.00    0.0
2022/11/10 11:05:52.416    9.042422346    7.399442294   487.9595   5  18   2.1538   2.2829   5.2357  -0.1461  -1.3650   1.3886   0.00    0.0
2022/11/10 11:05:53.416    9.042452512    7.399387666   476.0392   5  19   2.0467   2.2737   4.8028   0.3252  -1.2415   0.6674   0.00    0.0
2022/11/10 11:05:54.416    9.042527957    7.399408183   480.9237   5  17   2.2135   2.2907   5.3384  -0.3435  -1.2906   1.1826   0.00    0.0
2022/11/10 11:05:55.416    9.042368274    7.399409313   478.4353   5  19   2.0070   2.2732   4.8956   0.3779  -1.2128   0.6894   0.00    0.0
2022/11/10 11:05:56.416    9.042356710    7.399427523   469.8765   5  19   2.1240   2.2784   4.9941   0.6090  -1.1480   1.4377   0.00    0.0
2022/11/10 11:05:57.416    9.042439104    7.399389991   460.2637   5  17   2.2134   2.2908   5.3396  -0.3434  -1.2900   1.1828   0.00    0.0
2022/11/10 11:05:58.416    9.042434102    7.399413570   473.6030   5  19   2.0070   2.2732   4.8968   0.3781  -1.2120   0.6893   0.00    0.0
2022/11/10 11:05:59.416    9.042402118    7.399425524   485.3132   5  19   2.1239   2.2784   4.9955   0.6091  -1.1473   1.4380   0.00    0.0
2022/11/10 11:06:00.416    9.042405318    7.399389068   455.4894   5  19   2.0571   2.1823   4.7259   0.4855  -0.4559  -0.7254   0.00    0.0
2022/11/10 11:06:01.416    9.042440351    7.399326868   460.0278   5  20   1.9841   2.1729   4.8522   0.5870  -1.3831   0.8224   0.00    0.0
2022/11/10 11:06:02.416    9.042423127    7.399385436   471.0902   5  19   2.0069   2.2733   4.8983   0.3784  -1.2110   0.6891   0.00    0.0
2022/11/10 11:06:03.416    9.042478420    7.399317829   473.3855   5  21   2.0593   2.0931   4.5948   0.9052  -0.8500   1.2113   0.00    0.0
2022/11/10 11:06:04.416    9.042523146    7.399377955   464.8243   5  17   2.2131   2.2909   5.3424  -0.3433  -1.2885   1.1832   0.00    0.0
2022/11/10 11:06:05.416    9.042504436    7.399321115   474.1154   5  20   2.0795   2.1031   4.7650   0.8718  -0.6817   1.0502   0.00    0.0
2022/11/10 11:06:06.416    9.042413783    7.399386330   463.8875   5  19   2.1293   2.1815   5.2048   0.4413  -1.5086   1.4591   0.00    0.0
2022/11/10 11:06:07.416    9.042415315    7.399376104   463.0825   5  19   2.2684   2.1037   5.1279   0.8952  -0.6147   1.6790   0.00    0.0
2022/11/10 11:06:08.416    9.042395370    7.399400461   453.7204   5  20   2.0795   2.1032   4.7660   0.8717  -0.6813   1.0503   0.00    0.0
2022/11/10 11:06:09.416    9.042395246    7.399415199   444.7212   5  18   2.3817   2.1874   5.7196   0.6048  -1.3767   2.1582   0.00    0.0
2022/11/10 11:06:10.416    9.042466468    7.399384031   469.7240   5  20   2.0795   2.1033   4.7666   0.8716  -0.6811   1.0504   0.00    0.0
2022/11/10 11:06:11.416    9.042441824    7.399404336   454.4948   5  20   2.0794   2.1033   4.7670   0.8715  -0.6810   1.0505   0.00    0.0
2022/11/10 11:06:12.416    9.042484779    7.399403655   477.4246   5  20   2.0794   2.1033   4.7673   0.8715  -0.6808   1.0505   0.00    0.0
2022/11/10 11:06:13.416    9.042445484    7.399383534   475.4467   5  20   2.1075   2.0985   4.6549   0.8675  -0.7841   1.0690   0.00    0.0
2022/11/10 11:06:14.416    9.042504687    7.399416790   466.8904   5  21   1.9605   2.0787   4.5803   0.7327  -0.9426   0.4312   0.00    0.0
2022/11/10 11:06:15.416    9.042436554    7.399404987   446.8021   5  20   2.0794   2.1034   4.7683   0.8714  -0.6805   1.0507   0.00    0.0
2022/11/10 11:06:16.416    9.042520651    7.399393263   479.2149   5  20   2.1075   2.0985   4.6558   0.8674  -0.7841   1.0692   0.00    0.0
2022/11/10 11:06:17.416    9.042485492    7.399404806   456.2001   5  20   2.0794   2.1034   4.7690   0.8713  -0.6802   1.0508   0.00    0.0
2022/11/10 11:06:18.416    9.042447256    7.399411587   462.9634   5  21   2.0592   2.0934   4.5996   0.9047  -0.8495   1.2119   0.00    0.0
2022/11/10 11:06:19.416    9.042460982    7.399424172   444.9980   5  18   2.1727   2.1878   5.2167   0.6659  -1.1934   1.2090   0.00    0.0
2022/11/10 11:06:20.416    9.042445284    7.399425348   452.8944   5  19   2.2680   2.1039   5.1332   0.8940  -0.6147   1.6800   0.00    0.0
2022/11/10 11:06:21.416    9.042499861    7.399430230   451.7344   5  20   2.0793   2.1035   4.7703   0.8711  -0.6798   1.0510   0.00    0.0
2022/11/10 11:06:22.416    9.042469346    7.399407439   457.2848   5  19   2.2680   2.1040   5.1340   0.8938  -0.6147   1.6801   0.00    0.0
2022/11/10 11:06:23.416    9.042484286    7.399425659   454.0317   5  19   2.1348   2.1105   4.8491   0.8220  -0.5595   0.8277   0.00    0.0
2022/11/10 11:06:24.416    9.042496979    7.399417355   448.5215   5  18   2.3658   2.1574   5.1936   0.6909  -0.0779   1.5160   0.00    0.0
2022/11/10 11:06:25.416    9.042422705    7.399410088   463.9601   5  19   2.2679   2.1040   5.1352   0.8935  -0.6147   1.6803   0.00    0.0
2022/11/10 11:06:26.416    9.042559588    7.399372187   453.7148   5  18   2.2472   2.1718   4.9606   0.5622   0.4699  -0.2132   0.00    0.0
2022/11/10 11:06:27.416    9.042491763    7.399382405   468.0964   5  18   2.3658   2.1575   5.1948   0.6903  -0.0785   1.5163   0.00    0.0
2022/11/10 11:06:28.416    9.042604613    7.399380404   474.2308   5  18   2.2578   2.1482   4.9806   0.2235  -0.5680   0.2263   0.00    0.0
2022/11/10 11:06:29.416    9.042536501    7.399388015   466.9650   5  19   2.1690   2.1575   4.8557   0.6800  -0.1818   0.7443   0.00    0.0
2022/11/10 11:06:30.416    9.042588337    7.399381184   461.2007   5  18   2.2578   2.1483   4.9810   0.2228  -0.5680   0.2272   0.00    0.0
2022/11/10 11:06:31.416    9.042613292    7.399371002   477.8784   5  19   2.1454   2.1472   4.7693   0.3112  -0.4751  -0.9795   0.00    0.0
2022/11/10 11:06:32.416    9.042547673    7.399432397   469.7731   5  19   2.1745   2.1358   4.8844   0.4360  -0.7412   0.8044   0.00    0.0
2022/11/10 11:06:33.416    9.042506960    7.399397043   471.0872   5  20   2.0529   2.1346   4.6746   0.4919  -0.6682  -0.6070   0.00    0.0
2022/11/10 11:06:34.416    9.042459627    7.399446772   470.3827   5  20   2.0529   2.1347   4.6749   0.4918  -0.6681  -0.6070   0.00    0.0
2022/11/10 11:06:35.416    9.042568842    7.399396970   475.1485   5  20   2.0913   2.1276   4.5464   0.4856  -0.8035  -0.5174   0.00    0.0
2022/11/10 11:06:36.416    9.042553089    7.399397167   484.9149   5  19   2.0816   2.2352   4.9294   0.1160  -1.2170   0.4116   0.00    0.0
2022/11/10 11:06:37.416    9.042580662    7.399410097   462.4416   5  19   2.1455   2.1475   4.7705   0.3101  -0.4742  -0.9791   0.00    0.0
2022/11/10 11:06:38.416    9.042527299    7.399363205   469.0540   5  18   2.2203   2.2443   5.1887   0.4104  -1.0749   1.1912   0.00    0.0
2022/11/10 11:06:39.416    9.042599462    7.399384905   456.5375   5  20   2.0530   2.1349   4.6761   0.4913  -0.6674  -0.6072   0.00    0.0
2022/11/10 11:06:40.416    9.042493146    7.399352128   468.1257   5  18   2.2494   2.2367   5.0722   0.4105  -1.1654   1.2140   0.00    0.0
2022/11/10 11:06:41.416    9.042501497    7.399404140   458.9887   5  19   2.1690   2.1579   4.8594   0.6787  -0.1767   0.7452   0.00    0.0
2022/11/10 11:06:42.416    9.042618743    7.399332766   479.0421   5  18   2.1694   2.2450   5.0326  -0.3380  -1.1269  -0.6665   0.00    0.0
2022/11/10 11:06:43.416    9.042462528    7.399381057   477.1651   5  20   2.1364   2.1404   4.6605   0.7506  -0.6400   1.0357   0.00    0.0
2022/11/10 11:06:44.416    9.042551759    7.399330602   477.4483   5  21   1.9602   2.0797   4.5885   0.7320  -0.9397   0.4298   0.00    0.0
2022/11/10 11:06:45.416    9.042420304    7.399341764   475.1852   5  21   2.0589   2.0937   4.6084   0.9037  -0.8487   1.2131   0.00    0.0
2022/11/10 11:06:46.416    9.042493259    7.399339577   486.3974   5  19   2.1691   2.1580   4.8609   0.6782  -0.1745   0.7456   0.00    0.0
2022/11/10 11:06:47.416    9.042464458    7.399300752   495.9921   5  21   2.0589   2.0938   4.6090   0.9036  -0.8487   1.2131   0.00    0.0
2022/11/10 11:06:48.416    9.042439320    7.399359388   478.5549   5  22   1.9347   2.0706   4.4266   0.7730  -1.0582   0.7529   0.00    0.0
2022/11/10 11:06:49.416    9.042395272    7.399335777   486.5487   5  19   2.1234   2.1832   5.1359   0.7105  -1.2458   1.3856   0.00    0.0
2022/11/10 11:06:50.416    9.042429033    7.399308782   493.0141   5  20   2.0790   2.1041   4.7798   0.8697  -0.6763   1.0525   0.00    0.0
2022/11/10 11:06:51.416    9.042429084    7.399350307   486.7281   5  22   1.9347   2.0706   4.4274   0.7729  -1.0581   0.7528   0.00    0.0
2022/11/10 11:06:52.416    9.042463460    7.399354675   476.9892   5  19   2.1234   2.1831   5.1371   0.7104  -1.2455   1.3859   0.00    0.0
2022/11/10 11:06:53.416    9.042474741    7.399361503   477.1687   5  21   1.9602   2.0800   4.5910   0.7318  -0.9389   0.4294   0.00    0.0
2022/11/10 11:06:54.416    9.042470829    7.399327010   495.0278   5  21   1.9598   2.1654   4.7040   0.6317  -1.4575   1.0313   0.00    0.0
2022/11/10 11:06:55.416    9.042407742    7.399327826   486.2140   5  19   2.1234   2.1831   5.1383   0.7103  -1.2452   1.3862   0.00    0.0
2022/11/10 11:06:56.416    9.042428980    7.399363698   480.7412   5  22   1.9346   2.0708   4.4288   0.7729  -1.0580   0.7527   0.00    0.0
2022/11/10 11:06:57.416    9.042400027    7.399326596   472.2935   5  20   1.9837   2.1728   4.8696   0.5864  -1.3777   0.8237   0.00    0.0
2022/11/10 11:06:58.416    9.042396982    7.399318751   470.2328   5  21   1.9601   2.0801   4.5924   0.7317  -0.9384   0.4292   0.00    0.0
