% program   : RTKPOST ver.demo5 b34g
% inp file  : C:\Users\Abdullateef\Documents\PHD\Research on Precision Agriculture Navigation Technology\nav data\GNSS Log file\Geo++\GEOP314L.22o
% inp file  : C:\Users\Abdullateef\Documents\PHD\Research on Precision Agriculture Navigation Technology\nav data\GNSS Log file\Nav file\BRDC00WRD_S_20223140000_01D_MN.rnx\BRDC00WRD_S_20223140000_01D_MN.rnx
% obs start : 2022/11/10 11:00:00.4 GPST (week2235 385200.4s)
% obs end   : 2022/11/10 11:39:12.4 GPST (week2235 387552.4s)
% pos mode  : Single
% elev mask : 20.0 deg
% ionos opt : Broadcast
% tropo opt : Saastamoinen
% ephemeris : Broadcast
% navi sys  : GPS GLONASS Galileo BDS
%
% (lat/lon/height=WGS84/ellipsoidal,Q=1:fix,2:float,3:sbas,4:dgps,5:single,6:ppp,ns=# of satellites)
%  GPST                  latitude(deg) longitude(deg)  height(m)   Q  ns   sdn(m)   sde(m)   sdu(m)  sdne(m)  sdeu(m)  sdun(m) age(s)  ratio
2022/11/10 11:00:00.416    9.042507472    7.399354734   479.1250   5  15   2.5793   2.4801   7.0726   0.8557   1.7337   2.6103   0.00    0.0
2022/11/10 11:00:01.416    9.042568386    7.399336045   486.6195   5  15   2.5793   2.4801   7.0734   0.8555   1.7339   2.6104   0.00    0.0
2022/11/10 11:00:02.416    9.042533579    7.399384494   483.4896   5  15   2.5793   2.4801   7.0742   0.8553   1.7340   2.6105   0.00    0.0
2022/11/10 11:00:03.416    9.042565063    7.399405200   472.9055   5  14   2.6080   2.6599   7.1913   0.6000   2.0605   2.5136   0.00    0.0
2022/11/10 11:00:04.416    9.042582236    7.399358048   473.8177   5  15   2.5792   2.4802   7.0757   0.8548   1.7344   2.6107   0.00    0.0
2022/11/10 11:00:05.416    9.042553473    7.399381431   482.0150   5  15   2.5792   2.4802   7.0765   0.8546   1.7346   2.6108   0.00    0.0
2022/11/10 11:00:06.416    9.042579789    7.399315509   477.1902   5  15   2.5792   2.4802   7.0773   0.8544   1.7348   2.6109   0.00    0.0
2022/11/10 11:00:07.416    9.042607602    7.399365041   472.3071   5  15   2.5792   2.4802   7.0781   0.8542   1.7350   2.6110   0.00    0.0
2022/11/10 11:00:08.416    9.042562281    7.399344015   475.9072   5  15   2.5792   2.4802   7.0788   0.8540   1.7352   2.6111   0.00    0.0
2022/11/10 11:00:09.416    9.042470392    7.399393798   453.5439   5  14   3.5588   2.5246   8.1620  -0.6530   1.0478   4.0961   0.00    0.0
2022/11/10 11:00:10.416    9.042524987    7.399376300   475.8882   5  15   2.5791   2.4802   7.0804   0.8536   1.7356   2.6113   0.00    0.0
2022/11/10 11:00:11.416    9.042466676    7.399412755   474.3448   5  13   3.6732   2.7476   8.1756  -1.1905   1.2669   4.0427   0.00    0.0
2022/11/10 11:00:12.416    9.042527324    7.399380432   470.0342   5  14   3.5578   2.5248   8.1623  -0.6550   1.0478   4.0946   0.00    0.0
2022/11/10 11:00:13.416    9.042420887    7.399381622   450.4198   5  15   2.5791   2.4803   7.0827   0.8529   1.7361   2.6116   0.00    0.0
2022/11/10 11:00:14.416    9.042495565    7.399390947   473.0647   5  14   3.5572   2.5249   8.1624  -0.6564   1.0478   4.0936   0.00    0.0
2022/11/10 11:00:15.416    9.042535354    7.399369295   472.1277   5  14   3.5569   2.5250   8.1625  -0.6571   1.0478   4.0930   0.00    0.0
2022/11/10 11:00:16.416    9.042529871    7.399370162   481.3108   5  14   3.5566   2.5250   8.1626  -0.6578   1.0478   4.0925   0.00    0.0
2022/11/10 11:00:17.416    9.042521501    7.399374009   479.8248   5  15   2.5790   2.4803   7.0858   0.8521   1.7369   2.6120   0.00    0.0
2022/11/10 11:00:18.416    9.042542838    7.399370873   491.4741   5  14   3.5559   2.5252   8.1627  -0.6591   1.0478   4.0915   0.00    0.0
2022/11/10 11:00:19.416    9.042507427    7.399364102   484.1886   5  14   3.5556   2.5252   8.1628  -0.6598   1.0478   4.0910   0.00    0.0
2022/11/10 11:00:20.416    9.042652765    7.399348990   492.6137   5  15   2.5789   2.4803   7.0881   0.8514   1.7375   2.6122   0.00    0.0
2022/11/10 11:00:21.416    9.042460911    7.399377699   470.6272   5  14   3.5550   2.5254   8.1630  -0.6612   1.0478   4.0900   0.00    0.0
2022/11/10 11:00:22.416    9.042547187    7.399393613   478.4502   5  15   2.5789   2.4804   7.0897   0.8510   1.7378   2.6124   0.00    0.0
2022/11/10 11:00:23.416    9.042480343    7.399389756   469.7521   5  14   3.5543   2.5255   8.1631  -0.6625   1.0478   4.0889   0.00    0.0
2022/11/10 11:00:24.416    9.042435809    7.399361067   468.8753   5  14   3.5540   2.5256   8.1632  -0.6632   1.0478   4.0884   0.00    0.0
2022/11/10 11:00:25.416    9.042630489    7.399321783   507.7430   5  15   2.5788   2.4804   7.0920   0.8504   1.7384   2.6127   0.00    0.0
2022/11/10 11:00:26.416    9.042342701    7.399365114   461.1469   5  14   3.5534   2.5257   8.1633  -0.6645   1.0478   4.0874   0.00    0.0
2022/11/10 11:00:27.416    9.042391909    7.399366665   473.3060   5  14   3.5531   2.5258   8.1634  -0.6652   1.0478   4.0869   0.00    0.0
2022/11/10 11:00:28.416    9.042413066    7.399329458   465.9226   5  14   3.5528   2.5259   8.1635  -0.6659   1.0478   4.0863   0.00    0.0
2022/11/10 11:00:29.416    9.042331243    7.399325800   456.7998   5  14   3.5524   2.5259   8.1636  -0.6665   1.0478   4.0858   0.00    0.0
2022/11/10 11:00:30.416    9.042294868    7.399330886   450.6068   5  14   3.5521   2.5260   8.1636  -0.6672   1.0478   4.0853   0.00    0.0
2022/11/10 11:00:31.416    9.042390972    7.399310865   457.2195   5  14   3.5518   2.5261   8.1637  -0.6679   1.0478   4.0848   0.00    0.0
2022/11/10 11:00:32.416    9.042412044    7.399313421   453.7032   5  14   3.5515   2.5261   8.1638  -0.6685   1.0478   4.0843   0.00    0.0
2022/11/10 11:00:33.416    9.042405822    7.399356625   464.5379   5  14   3.5512   2.5262   8.1639  -0.6692   1.0478   4.0838   0.00    0.0
2022/11/10 11:00:34.416    9.042411505    7.399364806   454.4542   5  14   3.5508   2.5263   8.1639  -0.6699   1.0478   4.0832   0.00    0.0
2022/11/10 11:00:35.416    9.042421814    7.399348689   443.6507   5  14   3.5505   2.5263   8.1640  -0.6706   1.0478   4.0827   0.00    0.0
2022/11/10 11:00:36.416    9.042469530    7.399356237   444.0042   5  14   3.5502   2.5264   8.1641  -0.6712   1.0478   4.0822   0.00    0.0
2022/11/10 11:00:37.416    9.042407129    7.399392931   445.5921   5  14   3.5499   2.5265   8.1641  -0.6719   1.0478   4.0817   0.00    0.0
2022/11/10 11:00:38.416    9.042453541    7.399351948   444.4191   5  14   3.5496   2.5265   8.1642  -0.6725   1.0479   4.0811   0.00    0.0
2022/11/10 11:00:39.416    9.042444679    7.399363830   451.6807   5  14   3.5493   2.5266   8.1643  -0.6732   1.0479   4.0806   0.00    0.0
2022/11/10 11:00:40.416    9.042462991    7.399422798   451.2674   5  14   3.5489   2.5267   8.1644  -0.6739   1.0478   4.0801   0.00    0.0
2022/11/10 11:00:41.416    9.042425814    7.399368129   437.9133   5  14   3.5486   2.5267   8.1644  -0.6745   1.0479   4.0796   0.00    0.0
2022/11/10 11:00:42.416    9.042537315    7.399351772   460.9582   5  14   3.5483   2.5268   8.1645  -0.6752   1.0479   4.0790   0.00    0.0
2022/11/10 11:00:43.416    9.042434494    7.399395693   458.6505   5  14   3.5480   2.5269   8.1646  -0.6759   1.0479   4.0785   0.00    0.0
2022/11/10 11:00:44.416    9.042491957    7.399386206   470.7902   5  14   3.5477   2.5270   8.1646  -0.6765   1.0479   4.0780   0.00    0.0
2022/11/10 11:00:45.416    9.042484106    7.399379187   451.5745   5  14   3.5473   2.5270   8.1647  -0.6772   1.0479   4.0775   0.00    0.0
2022/11/10 11:00:46.416    9.042453489    7.399404761   435.2384   5  14   3.5470   2.5271   8.1648  -0.6778   1.0479   4.0770   0.00    0.0
2022/11/10 11:00:47.416    9.042615670    7.399335587   471.8222   5  15   2.5783   2.4806   7.1090   0.8456   1.7425   2.6148   0.00    0.0
2022/11/10 11:00:48.416    9.042645123    7.399362110   463.4057   5  15   2.5783   2.4807   7.1098   0.8454   1.7427   2.6149   0.00    0.0
2022/11/10 11:00:49.416    9.042466662    7.399360505   437.9211   5  14   3.5461   2.5273   8.1650  -0.6798   1.0480   4.0754   0.00    0.0
2022/11/10 11:00:50.416    9.042559810    7.399354580   466.4058   5  15   2.5783   2.4807   7.1114   0.8450   1.7430   2.6151   0.00    0.0
2022/11/10 11:00:51.416    9.042676063    7.399314599   485.1194   5  15   2.5783   2.4807   7.1121   0.8447   1.7432   2.6152   0.00    0.0
2022/11/10 11:00:52.416    9.042688742    7.399331570   499.9713   5  15   2.5782   2.4807   7.1129   0.8445   1.7434   2.6153   0.00    0.0
2022/11/10 11:00:53.416    9.042433928    7.399350374   437.2989   5  14   3.5448   2.5276   8.1653  -0.6824   1.0480   4.0733   0.00    0.0
2022/11/10 11:00:54.416    9.042688334    7.399314593   483.2837   5  15   2.5782   2.4807   7.1144   0.8441   1.7438   2.6155   0.00    0.0
2022/11/10 11:00:55.416    9.042404160    7.399329975   441.2313   5  14   3.5442   2.5277   8.1654  -0.6837   1.0480   4.0722   0.00    0.0
2022/11/10 11:00:56.416    9.042420625    7.399358067   430.9865   5  14   3.5438   2.5278   8.1655  -0.6844   1.0480   4.0717   0.00    0.0
2022/11/10 11:00:57.416    9.042393662    7.399377375   449.7749   5  14   3.5435   2.5279   8.1655  -0.6850   1.0480   4.0712   0.00    0.0
2022/11/10 11:00:58.416    9.042427069    7.399327824   438.9254   5  14   3.5432   2.5279   8.1656  -0.6857   1.0481   4.0707   0.00    0.0
2022/11/10 11:00:59.416    9.042423973    7.399355798   441.5060   5  14   3.5429   2.5280   8.1657  -0.6863   1.0481   4.0701   0.00    0.0
2022/11/10 11:01:00.416    9.042497503    7.399364840   452.9772   5  14   3.5425   2.5281   8.1657  -0.6870   1.0481   4.0696   0.00    0.0
2022/11/10 11:01:01.416    9.042479700    7.399352372   445.4355   5  14   3.5422   2.5281   8.1658  -0.6876   1.0481   4.0691   0.00    0.0
2022/11/10 11:01:02.416    9.042494362    7.399380020   451.7844   5  14   3.5419   2.5282   8.1659  -0.6883   1.0481   4.0685   0.00    0.0
2022/11/10 11:01:03.416    9.042464443    7.399365336   438.4435   5  14   3.5416   2.5283   8.1660  -0.6889   1.0481   4.0680   0.00    0.0
2022/11/10 11:01:04.416    9.042539551    7.399372928   460.0641   5  14   3.5413   2.5283   8.1660  -0.6895   1.0482   4.0675   0.00    0.0
2022/11/10 11:01:05.416    9.042641902    7.399396096   500.0924   5  14   2.6086   2.5340   7.2518   0.9561   1.5315   2.5106   0.00    0.0
2022/11/10 11:01:06.416    9.042500700    7.399374345   461.9599   5  13   3.6900   2.5610   8.1747  -0.2336   0.9729   4.0183   0.00    0.0
2022/11/10 11:01:07.416    9.042521384    7.399409554   487.2975   5  13   3.6898   2.5610   8.1748  -0.2354   0.9730   4.0178   0.00    0.0
2022/11/10 11:01:08.416    9.042511429    7.399364848   482.1890   5  13   3.6895   2.5611   8.1748  -0.2372   0.9731   4.0173   0.00    0.0
2022/11/10 11:01:09.416    9.042535443    7.399410999   470.0457   5  13   3.6893   2.5611   8.1749  -0.2391   0.9731   4.0167   0.00    0.0
2022/11/10 11:01:10.416    9.042469657    7.399387377   448.9286   5  13   3.6891   2.5612   8.1749  -0.2408   0.9732   4.0162   0.00    0.0
2022/11/10 11:01:11.416    9.042515167    7.399418606   468.6202   5  13   3.6889   2.5612   8.1750  -0.2426   0.9733   4.0157   0.00    0.0
2022/11/10 11:01:12.416    9.042504865    7.399376653   456.5335   5  13   3.6887   2.5613   8.1751  -0.2444   0.9734   4.0152   0.00    0.0
2022/11/10 11:01:13.416    9.042481961    7.399420962   464.8757   5  13   3.6885   2.5613   8.1751  -0.2462   0.9734   4.0146   0.00    0.0
2022/11/10 11:01:14.416    9.042533620    7.399404488   463.6366   5  14   3.5381   2.5290   8.1667  -0.6959   1.0483   4.0622   0.00    0.0
2022/11/10 11:01:15.416    9.042684913    7.399348949   484.8096   5  15   2.5777   2.4810   7.1306   0.8395   1.7476   2.6174   0.00    0.0
2022/11/10 11:01:16.416    9.042569146    7.399296992   477.6728   5  15   2.5777   2.4810   7.1314   0.8393   1.7478   2.6175   0.00    0.0
2022/11/10 11:01:17.416    9.042437701    7.399361834   448.2111   5  14   3.5371   2.5293   8.1669  -0.6978   1.0484   4.0606   0.00    0.0
2022/11/10 11:01:18.416    9.042416397    7.399333954   427.0519   5  14   3.5368   2.5293   8.1669  -0.6985   1.0484   4.0601   0.00    0.0
2022/11/10 11:01:19.416    9.042528326    7.399292949   475.6615   5  15   2.5777   2.4810   7.1337   0.8386   1.7484   2.6178   0.00    0.0
2022/11/10 11:01:20.416    9.042443598    7.399341233   450.7989   5  14   3.5361   2.5295   8.1671  -0.6997   1.0485   4.0590   0.00    0.0
2022/11/10 11:01:21.416    9.042545719    7.399322252   466.5479   5  15   2.5776   2.4810   7.1353   0.8381   1.7487   2.6180   0.00    0.0
2022/11/10 11:01:22.416    9.042483080    7.399314810   456.3658   5  15   2.5776   2.4811   7.1361   0.8379   1.7489   2.6181   0.00    0.0
2022/11/10 11:01:23.416    9.042480104    7.399353012   450.6501   5  14   3.5352   2.5297   8.1672  -0.7016   1.0486   4.0574   0.00    0.0
2022/11/10 11:01:24.416    9.042594730    7.399293205   481.7897   5  15   2.5775   2.4811   7.1376   0.8375   1.7493   2.6182   0.00    0.0
2022/11/10 11:01:25.416    9.042473588    7.399338293   454.4750   5  14   3.5345   2.5298   8.1674  -0.7029   1.0486   4.0563   0.00    0.0
2022/11/10 11:01:26.416    9.042449266    7.399378396   451.3735   5  14   3.5342   2.5299   8.1674  -0.7035   1.0486   4.0558   0.00    0.0
2022/11/10 11:01:27.416    9.042621732    7.399314044   471.2692   5  15   2.5775   2.4811   7.1399   0.8368   1.7498   2.6185   0.00    0.0
2022/11/10 11:01:28.416    9.042457502    7.399400378   456.3400   5  14   3.5336   2.5300   8.1676  -0.7048   1.0487   4.0547   0.00    0.0
2022/11/10 11:01:29.416    9.042553704    7.399332272   467.2560   5  15   2.5774   2.4811   7.1414   0.8364   1.7502   2.6187   0.00    0.0
2022/11/10 11:01:30.416    9.042652868    7.399319742   496.1907   5  15   2.5774   2.4811   7.1422   0.8361   1.7504   2.6188   0.00    0.0
2022/11/10 11:01:31.416    9.042379005    7.399354971   456.8782   5  14   3.5326   2.5302   8.1677  -0.7067   1.0488   4.0531   0.00    0.0
2022/11/10 11:01:32.416    9.042384575    7.399357707   454.9277   5  14   3.5323   2.5303   8.1678  -0.7073   1.0488   4.0526   0.00    0.0
2022/11/10 11:01:33.416    9.042623304    7.399288376   501.4278   5  15   2.5773   2.4812   7.1445   0.8355   1.7509   2.6190   0.00    0.0
2022/11/10 11:01:34.416    9.042387242    7.399385408   450.5767   5  14   3.5316   2.5305   8.1679  -0.7085   1.0488   4.0515   0.00    0.0
2022/11/10 11:01:35.416    9.042530848    7.399355065   459.7651   5  15   2.5773   2.4812   7.1461   0.8350   1.7512   2.6192   0.00    0.0
2022/11/10 11:01:36.416    9.042414146    7.399358242   447.0257   5  14   3.5310   2.5306   8.1680  -0.7098   1.0489   4.0504   0.00    0.0
2022/11/10 11:01:37.416    9.042378649    7.399365454   428.5537   5  14   3.5307   2.5307   8.1681  -0.7104   1.0489   4.0499   0.00    0.0
2022/11/10 11:01:38.416    9.042391978    7.399342873   437.0039   5  14   3.5303   2.5307   8.1682  -0.7110   1.0490   4.0494   0.00    0.0
2022/11/10 11:01:39.416    9.042644097    7.399329435   466.3737   5  15   2.5772   2.4813   7.1491   0.8341   1.7520   2.6196   0.00    0.0
2022/11/10 11:01:40.416    9.042405230    7.399346555   437.4104   5  14   3.5297   2.5309   8.1683  -0.7123   1.0490   4.0483   0.00    0.0
2022/11/10 11:01:41.416    9.042563940    7.399310634   486.6355   5  15   2.5772   2.4813   7.1507   0.8337   1.7523   2.6198   0.00    0.0
2022/11/10 11:01:42.416    9.042356329    7.399354380   445.9928   5  14   3.5291   2.5310   8.1684  -0.7135   1.0491   4.0472   0.00    0.0
2022/11/10 11:01:43.416    9.042441975    7.399352655   444.3193   5  15   2.5771   2.4813   7.1522   0.8332   1.7527   2.6200   0.00    0.0
2022/11/10 11:01:44.416    9.042335990    7.399357857   454.2502   5  14   3.5284   2.5312   8.1685  -0.7147   1.0491   4.0461   0.00    0.0
2022/11/10 11:01:45.416    9.042473754    7.399330564   462.0763   5  15   2.5771   2.4813   7.1538   0.8328   1.7530   2.6201   0.00    0.0
2022/11/10 11:01:46.416    9.042453095    7.399321209   466.1402   5  15   2.5771   2.4813   7.1545   0.8326   1.7532   2.6202   0.00    0.0
2022/11/10 11:01:47.416    9.042431635    7.399338059   470.6987   5  15   2.5771   2.4814   7.1553   0.8323   1.7534   2.6203   0.00    0.0
2022/11/10 11:01:48.416    9.042354777    7.399360669   449.9912   5  14   3.5271   2.5315   8.1688  -0.7172   1.0493   4.0440   0.00    0.0
2022/11/10 11:01:49.416    9.042465417    7.399352671   488.4045   5  15   2.5770   2.4814   7.1568   0.8319   1.7538   2.6205   0.00    0.0
2022/11/10 11:01:50.416    9.042324124    7.399379915   469.1474   5  14   3.5265   2.5316   8.1689  -0.7184   1.0493   4.0429   0.00    0.0
2022/11/10 11:01:51.416    9.042294801    7.399375237   475.2497   5  14   3.5262   2.5317   8.1689  -0.7190   1.0493   4.0423   0.00    0.0
2022/11/10 11:01:52.416    9.042331104    7.399384329   477.3699   5  14   3.5258   2.5317   8.1690  -0.7196   1.0494   4.0418   0.00    0.0
2022/11/10 11:01:53.416    9.042499346    7.399260580   500.2264   5  15   2.5769   2.4814   7.1599   0.8310   1.7545   2.6208   0.00    0.0
2022/11/10 11:01:54.416    9.042596086    7.399333163   521.9013   5  15   2.5769   2.4814   7.1607   0.8308   1.7546   2.6209   0.00    0.0
2022/11/10 11:01:55.416    9.042275559    7.399369471   455.1762   5  14   3.5249   2.5320   8.1692  -0.7215   1.0495   4.0402   0.00    0.0
2022/11/10 11:01:56.416    9.042286555    7.399375687   449.4091   5  14   3.5245   2.5320   8.1692  -0.7221   1.0495   4.0396   0.00    0.0
2022/11/10 11:01:57.416    9.042504767    7.399326016   493.8500   5  15   2.5768   2.4815   7.1630   0.8301   1.7552   2.6212   0.00    0.0
2022/11/10 11:01:58.416    9.042296222    7.399356569   447.2472   5  14   3.5239   2.5322   8.1693  -0.7233   1.0496   4.0385   0.00    0.0
2022/11/10 11:01:59.416    9.042404693    7.399334910   461.7022   5  15   2.5768   2.4815   7.1645   0.8296   1.7555   2.6214   0.00    0.0
2022/11/10 11:02:00.416    9.042313374    7.399347381   438.9736   5  14   3.5233   2.5323   8.1694  -0.7245   1.0497   4.0374   0.00    0.0
2022/11/10 11:02:01.416    9.042426319    7.399343891   450.1186   5  15   2.5767   2.4815   7.1661   0.8292   1.7559   2.6215   0.00    0.0
2022/11/10 11:02:02.416    9.042332872    7.399360935   432.3506   5  15   2.5767   2.4815   7.1668   0.8290   1.7561   2.6217   0.00    0.0
2022/11/10 11:02:03.416    9.042463274    7.399329376   461.6272   5  15   2.5767   2.4815   7.1676   0.8287   1.7562   2.6217   0.00    0.0
2022/11/10 11:02:04.416    9.042383378    7.399369682   423.2246   5  14   3.5220   2.5326   8.1697  -0.7269   1.0498   4.0353   0.00    0.0
2022/11/10 11:02:05.416    9.042456298    7.399340253   441.7663   5  15   2.5767   2.4816   7.1691   0.8283   1.7566   2.6219   0.00    0.0
2022/11/10 11:02:06.416    9.042341935    7.399351541   429.4652   5  14   3.5213   2.5328   8.1698  -0.7281   1.0499   4.0342   0.00    0.0
2022/11/10 11:02:07.416    9.042446533    7.399302791   444.4956   5  15   2.5766   2.4816   7.1707   0.8278   1.7570   2.6221   0.00    0.0
2022/11/10 11:02:08.416    9.042349586    7.399297478   434.3972   5  14   3.5207   2.5329   8.1699  -0.7293   1.0500   4.0331   0.00    0.0
2022/11/10 11:02:09.416    9.042339190    7.399313499   436.3643   5  14   3.5203   2.5330   8.1699  -0.7299   1.0500   4.0325   0.00    0.0
2022/11/10 11:02:10.416    9.042520273    7.399243649   470.6972   5  15   2.5765   2.4816   7.1730   0.8272   1.7575   2.6223   0.00    0.0
2022/11/10 11:02:11.416    9.042349766    7.399336075   472.4947   5  14   3.5197   2.5331   8.1700  -0.7311   1.0501   4.0314   0.00    0.0
2022/11/10 11:02:12.416    9.042396827    7.399312035   453.4544   5  13   3.5698   2.5393   9.8040  -0.6558   1.4342   4.4146   0.00    0.0
2022/11/10 11:02:13.416    9.042336746    7.399353661   491.5406   5  13   3.6202   2.7661   8.2010  -1.2166   1.3757   3.9547   0.00    0.0
2022/11/10 11:02:14.416    9.042428007    7.399285395   449.6827   5  13   2.6504   2.5646   9.6709   0.8036   2.5107   3.0289   0.00    0.0
2022/11/10 11:02:15.416    9.042505086    7.399324705   508.2638   5  15   2.5764   2.4817   7.1768   0.8260   1.7583   2.6227   0.00    0.0
2022/11/10 11:02:16.416    9.042408182    7.399320566   445.5471   5  12   3.5703   2.5999  10.6634  -0.6130   2.0955   4.4626   0.00    0.0
2022/11/10 11:02:17.416    9.042333123    7.399271146   346.3973   5  15   2.5764   2.4817   7.1784   0.8256   1.7587   2.6230   0.00    0.0
2022/11/10 11:02:18.416    9.042505498    7.399287593   427.4032   5  14   2.5919   2.5533   7.8042   0.7147   2.2207   2.4520   0.00    0.0
2022/11/10 11:02:19.416    9.042289543    7.399296568   324.6542   5  14   2.5919   2.5534   7.8049   0.7144   2.2208   2.4520   0.00    0.0
2022/11/10 11:02:20.416    9.042517338    7.399292801   444.2569   5  15   2.5763   2.4817   7.1806   0.8249   1.7592   2.6232   0.00    0.0
2022/11/10 11:02:21.416    9.042387558    7.399363725   420.6978   5  14   2.5919   2.5534   7.8060   0.7137   2.2210   2.4520   0.00    0.0
2022/11/10 11:02:22.416    9.042390176    7.399325626   428.0710   5  15   2.5763   2.4818   7.1822   0.8244   1.7596   2.6234   0.00    0.0
2022/11/10 11:02:23.416    9.042473399    7.399351238   459.8048   5  14   2.5919   2.5534   7.8072   0.7131   2.2212   2.4521   0.00    0.0
2022/11/10 11:02:24.416    9.042479810    7.399332414   470.7067   5  14   2.5919   2.5534   7.8078   0.7128   2.2213   2.4521   0.00    0.0
2022/11/10 11:02:25.416    9.042447299    7.399320655   442.2280   5  14   2.5919   2.5534   7.8084   0.7125   2.2215   2.4521   0.00    0.0
2022/11/10 11:02:26.416    9.042492009    7.399327976   457.6586   5  15   2.5762   2.4818   7.1852   0.8235   1.7603   2.6237   0.00    0.0
2022/11/10 11:02:27.416    9.042433076    7.399346367   443.2588   5  14   2.5919   2.5535   7.8096   0.7118   2.2217   2.4522   0.00    0.0
2022/11/10 11:02:28.416    9.042492809    7.399348859   465.2880   5  14   2.5919   2.5535   7.8102   0.7115   2.2218   2.4522   0.00    0.0
2022/11/10 11:02:29.416    9.042485431    7.399370904   450.1334   5  14   2.5919   2.5535   7.8108   0.7111   2.2219   2.4522   0.00    0.0
2022/11/10 11:02:30.416    9.042472880    7.399362038   446.4083   5  14   2.5918   2.5535   7.8114   0.7108   2.2220   2.4522   0.00    0.0
2022/11/10 11:02:31.416    9.042528615    7.399373045   443.4501   5  14   2.5918   2.5535   7.8120   0.7105   2.2221   2.4522   0.00    0.0
2022/11/10 11:02:32.416    9.042555052    7.399353720   448.5837   5  14   2.5918   2.5535   7.8126   0.7102   2.2222   2.4523   0.00    0.0
2022/11/10 11:02:33.416    9.042547407    7.399346181   444.3220   5  14   2.5918   2.5536   7.8132   0.7098   2.2223   2.4523   0.00    0.0
2022/11/10 11:02:34.416    9.042514754    7.399387056   418.1499   5  14   2.5918   2.5536   7.8138   0.7095   2.2224   2.4523   0.00    0.0
2022/11/10 11:02:35.416    9.042594437    7.399337649   441.5870   5  15   2.5760   2.4819   7.1921   0.8214   1.7618   2.6245   0.00    0.0
2022/11/10 11:02:36.416    9.042438203    7.399377655   418.0067   5  14   2.5918   2.5536   7.8150   0.7089   2.2226   2.4524   0.00    0.0
2022/11/10 11:02:37.416    9.042487024    7.399358410   417.4066   5  14   2.5918   2.5536   7.8156   0.7085   2.2227   2.4524   0.00    0.0
2022/11/10 11:02:38.416    9.042555806    7.399353825   447.2618   5  15   2.5759   2.4820   7.1944   0.8207   1.7623   2.6247   0.00    0.0
2022/11/10 11:02:39.416    9.042473093    7.399397849   432.2783   5  15   2.5759   2.4820   7.1952   0.8205   1.7625   2.6248   0.00    0.0
2022/11/10 11:02:40.416    9.042520674    7.399377083   427.1742   5  14   2.5918   2.5537   7.8174   0.7076   2.2230   2.4524   0.00    0.0
2022/11/10 11:02:41.416    9.042558855    7.399326921   428.8409   5  15   2.5758   2.4820   7.1967   0.8200   1.7629   2.6250   0.00    0.0
2022/11/10 11:02:42.416    9.042568637    7.399340815   462.1748   5  15   2.5758   2.4820   7.1975   0.8198   1.7630   2.6250   0.00    0.0
2022/11/10 11:02:43.416    9.042583865    7.399368117   471.9761   5  15   2.5758   2.4820   7.1982   0.8196   1.7632   2.6251   0.00    0.0
2022/11/10 11:02:44.416    9.042562479    7.399362050   468.8717   5  15   2.5758   2.4820   7.1990   0.8193   1.7634   2.6252   0.00    0.0
2022/11/10 11:02:45.416    9.042595915    7.399365362   487.9556   5  15   2.5758   2.4821   7.1997   0.8191   1.7635   2.6253   0.00    0.0
2022/11/10 11:02:46.416    9.042567137    7.399383792   481.0537   5  15   2.5757   2.4821   7.2005   0.8189   1.7637   2.6254   0.00    0.0
2022/11/10 11:02:47.416    9.042518069    7.399376116   485.3266   5  15   2.5757   2.4821   7.2013   0.8186   1.7639   2.6255   0.00    0.0
2022/11/10 11:02:48.416    9.042526402    7.399368976   485.0224   5  15   2.5757   2.4821   7.2020   0.8184   1.7641   2.6255   0.00    0.0
2022/11/10 11:02:49.416    9.042591512    7.399361463   495.2851   5  15   2.5757   2.4821   7.2028   0.8182   1.7642   2.6256   0.00    0.0
2022/11/10 11:02:50.416    9.042475485    7.399430777   474.6471   5  15   2.5756   2.4821   7.2036   0.8179   1.7644   2.6257   0.00    0.0
2022/11/10 11:02:51.416    9.042466499    7.399404763   456.4651   5  15   2.5756   2.4821   7.2043   0.8177   1.7646   2.6258   0.00    0.0
2022/11/10 11:02:52.416    9.042506456    7.399409776   471.4029   5  14   3.5064   2.5361   8.1721  -0.7552   1.0521   4.0087   0.00    0.0
2022/11/10 11:02:53.416    9.042456980    7.399400659   454.9906   5  14   3.5060   2.5362   8.1721  -0.7558   1.0521   4.0082   0.00    0.0
2022/11/10 11:02:54.416    9.042511304    7.399381128   475.7846   5  15   2.5756   2.4822   7.2066   0.8170   1.7651   2.6260   0.00    0.0
2022/11/10 11:02:55.416    9.042479871    7.399436198   471.6443   5  14   3.5054   2.5364   8.1722  -0.7569   1.0522   4.0070   0.00    0.0
2022/11/10 11:02:56.416    9.042500902    7.399411438   454.4927   5  14   3.5051   2.5364   8.1723  -0.7575   1.0523   4.0065   0.00    0.0
2022/11/10 11:02:57.416    9.042477587    7.399386257   458.8130   5  14   3.5047   2.5365   8.1723  -0.7581   1.0524   4.0059   0.00    0.0
2022/11/10 11:02:58.416    9.042441791    7.399391765   438.0170   5  14   3.5044   2.5366   8.1724  -0.7587   1.0524   4.0054   0.00    0.0
2022/11/10 11:02:59.416    9.042471188    7.399414536   453.1726   5  14   3.5041   2.5367   8.1724  -0.7592   1.0525   4.0048   0.00    0.0
2022/11/10 11:03:00.416    9.042482214    7.399414314   464.1412   5  14   3.5038   2.5367   8.1724  -0.7598   1.0525   4.0042   0.00    0.0
2022/11/10 11:03:01.416    9.042519862    7.399430940   470.9381   5  14   3.5034   2.5368   8.1725  -0.7604   1.0526   4.0037   0.00    0.0
2022/11/10 11:03:02.416    9.042547595    7.399415778   475.5699   5  14   3.5031   2.5369   8.1725  -0.7609   1.0526   4.0031   0.00    0.0
2022/11/10 11:03:03.416    9.042559502    7.399442269   484.4629   5  14   3.5028   2.5370   8.1726  -0.7615   1.0527   4.0025   0.00    0.0
2022/11/10 11:03:04.416    9.042437330    7.399423547   475.0147   5  14   3.5024   2.5370   8.1726  -0.7621   1.0528   4.0020   0.00    0.0
2022/11/10 11:03:05.416    9.042513347    7.399442168   483.2734   5  14   3.5021   2.5371   8.1726  -0.7627   1.0528   4.0014   0.00    0.0
2022/11/10 11:03:06.416    9.042499029    7.399455070   469.6535   5  14   3.5018   2.5372   8.1727  -0.7632   1.0529   4.0009   0.00    0.0
2022/11/10 11:03:07.416    9.042559845    7.399466905   481.0736   5  14   3.5015   2.5373   8.1727  -0.7638   1.0529   4.0003   0.00    0.0
2022/11/10 11:03:08.416    9.042591789    7.399462683   468.6677   5  14   3.5011   2.5373   8.1728  -0.7644   1.0530   3.9997   0.00    0.0
2022/11/10 11:03:09.416    9.042579039    7.399440625   494.2720   5  13   4.9280   2.5703   9.7600  -1.4163  -1.0375   5.8734   0.00    0.0
2022/11/10 11:03:10.416    9.042521055    7.399416270   490.7946   5  14   3.5005   2.5375   8.1729  -0.7655   1.0531   3.9986   0.00    0.0
2022/11/10 11:03:11.416    9.042614555    7.399421232   501.1946   5  13   4.9272   2.5705   9.7605  -1.4174  -1.0386   5.8726   0.00    0.0
2022/11/10 11:03:12.416    9.042601014    7.399450045   498.1836   5  14   3.4998   2.5376   8.1729  -0.7666   1.0532   3.9975   0.00    0.0
2022/11/10 11:03:13.416    9.042641026    7.399465093   495.3435   5  14   3.4995   2.5377   8.1730  -0.7672   1.0533   3.9969   0.00    0.0
2022/11/10 11:03:14.416    9.042547541    7.399424392   494.7527   5  14   3.4992   2.5378   8.1730  -0.7678   1.0534   3.9963   0.00    0.0
2022/11/10 11:03:15.416    9.042636662    7.399407647   522.7668   5  14   3.4988   2.5379   8.1731  -0.7683   1.0535   3.9958   0.00    0.0
2022/11/10 11:03:16.416    9.042627216    7.399404065   504.0399   5  14   3.4985   2.5379   8.1731  -0.7689   1.0535   3.9952   0.00    0.0
2022/11/10 11:03:17.416    9.042615051    7.399410261   498.6533   5  14   3.4982   2.5380   8.1732  -0.7694   1.0536   3.9946   0.00    0.0
2022/11/10 11:03:18.416    9.042634691    7.399416097   501.6457   5  15   2.5750   2.4825   7.2249   0.8114   1.7691   2.6280   0.00    0.0
2022/11/10 11:03:19.416    9.042568278    7.399394314   493.7949   5  15   2.5750   2.4825   7.2257   0.8111   1.7693   2.6281   0.00    0.0
2022/11/10 11:03:20.416    9.042541496    7.399411670   487.5791   5  15   2.5750   2.4825   7.2264   0.8109   1.7695   2.6282   0.00    0.0
2022/11/10 11:03:21.416    9.042660233    7.399378652   506.8241   5  15   2.5749   2.4825   7.2272   0.8106   1.7696   2.6282   0.00    0.0
2022/11/10 11:03:22.416    9.042639993    7.399401863   500.1940   5  15   2.5749   2.4825   7.2279   0.8104   1.7698   2.6283   0.00    0.0
2022/11/10 11:03:23.416    9.042591650    7.399387046   502.3231   5  15   2.5749   2.4825   7.2287   0.8102   1.7700   2.6284   0.00    0.0
2022/11/10 11:03:24.416    9.042605994    7.399415872   501.8109   5  15   2.5749   2.4825   7.2295   0.8099   1.7701   2.6285   0.00    0.0
2022/11/10 11:03:25.416    9.042496588    7.399430292   466.4621   5  15   2.5748   2.4826   7.2302   0.8097   1.7703   2.6286   0.00    0.0
2022/11/10 11:03:26.416    9.042466443    7.399445001   467.0711   5  15   2.5748   2.4826   7.2310   0.8095   1.7704   2.6287   0.00    0.0
2022/11/10 11:03:27.416    9.042512877    7.399433256   484.3039   5  15   2.5748   2.4826   7.2318   0.8092   1.7706   2.6287   0.00    0.0
2022/11/10 11:03:28.416    9.042472067    7.399426227   476.1395   5  15   2.5748   2.4826   7.2325   0.8090   1.7708   2.6288   0.00    0.0
2022/11/10 11:03:29.416    9.042562350    7.399413532   493.3102   5  15   2.5748   2.4826   7.2333   0.8087   1.7710   2.6289   0.00    0.0
2022/11/10 11:03:30.416    9.042533047    7.399397893   498.6355   5  15   2.5747   2.4826   7.2340   0.8085   1.7711   2.6290   0.00    0.0
2022/11/10 11:03:31.416    9.042515495    7.399443968   487.0521   5  15   2.5747   2.4826   7.2348   0.8083   1.7713   2.6290   0.00    0.0
2022/11/10 11:03:32.416    9.042568597    7.399404597   488.0820   5  15   2.5747   2.4826   7.2355   0.8080   1.7715   2.6291   0.00    0.0
2022/11/10 11:03:33.416    9.042547642    7.399431379   497.5962   5  15   2.5747   2.4827   7.2363   0.8078   1.7716   2.6292   0.00    0.0
2022/11/10 11:03:34.416    9.042525450    7.399418879   500.5603   5  15   2.5746   2.4827   7.2371   0.8076   1.7718   2.6293   0.00    0.0
2022/11/10 11:03:35.416    9.042479575    7.399428901   491.5433   5  15   2.5746   2.4827   7.2378   0.8073   1.7719   2.6294   0.00    0.0
2022/11/10 11:03:36.416    9.042485032    7.399428584   491.5495   5  15   2.5746   2.4827   7.2386   0.8071   1.7721   2.6294   0.00    0.0
2022/11/10 11:03:37.416    9.042511913    7.399394725   498.1285   5  15   2.5746   2.4827   7.2393   0.8068   1.7723   2.6295   0.00    0.0
2022/11/10 11:03:38.416    9.042491435    7.399408138   492.3886   5  15   2.5745   2.4827   7.2401   0.8066   1.7724   2.6296   0.00    0.0
2022/11/10 11:03:39.416    9.042537968    7.399390913   497.7432   5  15   2.5745   2.4827   7.2409   0.8064   1.7726   2.6297   0.00    0.0
2022/11/10 11:03:40.416    9.042444590    7.399382027   479.2971   5  15   2.5745   2.4827   7.2416   0.8061   1.7728   2.6298   0.00    0.0
2022/11/10 11:03:41.416    9.042453283    7.399404762   477.8153   5  15   2.5745   2.4828   7.2424   0.8059   1.7729   2.6298   0.00    0.0
2022/11/10 11:03:42.416    9.042507252    7.399398436   486.6490   5  15   2.5745   2.4828   7.2431   0.8056   1.7731   2.6299   0.00    0.0
2022/11/10 11:03:43.416    9.042454926    7.399389484   472.0930   5  15   2.5744   2.4828   7.2439   0.8054   1.7733   2.6300   0.00    0.0
2022/11/10 11:03:44.416    9.042572522    7.399376064   497.2856   5  15   2.5744   2.4828   7.2446   0.8052   1.7734   2.6301   0.00    0.0
2022/11/10 11:03:45.416    9.042562604    7.399376249   482.5558   5  15   2.5744   2.4828   7.2454   0.8049   1.7736   2.6301   0.00    0.0
2022/11/10 11:03:46.416    9.042521476    7.399385069   469.4732   5  15   2.5744   2.4828   7.2462   0.8047   1.7738   2.6302   0.00    0.0
2022/11/10 11:03:47.416    9.042506232    7.399400092   475.4155   5  15   2.5743   2.4828   7.2469   0.8044   1.7739   2.6303   0.00    0.0
2022/11/10 11:03:48.416    9.042529518    7.399377391   466.7997   5  15   2.5743   2.4828   7.2477   0.8042   1.7741   2.6304   0.00    0.0
2022/11/10 11:03:49.416    9.042554843    7.399393184   483.8338   5  15   2.5743   2.4829   7.2484   0.8040   1.7743   2.6304   0.00    0.0
2022/11/10 11:03:50.416    9.042534688    7.399371177   468.5580   5  15   2.5743   2.4829   7.2492   0.8037   1.7744   2.6305   0.00    0.0
2022/11/10 11:03:51.416    9.042519155    7.399377175   474.9095   5  15   2.5742   2.4829   7.2500   0.8035   1.7746   2.6306   0.00    0.0
2022/11/10 11:03:52.416    9.042518579    7.399387762   468.6112   5  15   2.5742   2.4829   7.2507   0.8032   1.7747   2.6307   0.00    0.0
2022/11/10 11:03:53.416    9.042526549    7.399409559   473.8457   5  15   2.5742   2.4829   7.2515   0.8030   1.7749   2.6308   0.00    0.0
2022/11/10 11:03:54.416    9.042466315    7.399376717   462.8232   5  15   2.5742   2.4829   7.2522   0.8028   1.7751   2.6308   0.00    0.0
2022/11/10 11:03:55.416    9.042498142    7.399385200   475.4283   5  15   2.5742   2.4829   7.2530   0.8025   1.7752   2.6309   0.00    0.0
2022/11/10 11:03:56.416    9.042523563    7.399362516   477.2889   5  15   2.5741   2.4829   7.2537   0.8023   1.7754   2.6310   0.00    0.0
2022/11/10 11:03:57.416    9.042532112    7.399380571   476.8558   5  15   2.5741   2.4830   7.2545   0.8020   1.7756   2.6311   0.00    0.0
2022/11/10 11:03:58.416    9.042564201    7.399376641   485.6987   5  15   2.5741   2.4830   7.2553   0.8018   1.7757   2.6311   0.00    0.0
2022/11/10 11:03:59.416    9.042539417    7.399370051   484.5475   5  15   2.5741   2.4830   7.2560   0.8015   1.7759   2.6312   0.00    0.0
2022/11/10 11:04:00.416    9.042532538    7.399388709   481.7109   5  15   2.5740   2.4830   7.2568   0.8013   1.7760   2.6313   0.00    0.0
2022/11/10 11:04:01.416    9.042558289    7.399383554   471.6053   5  15   2.5740   2.4830   7.2575   0.8011   1.7762   2.6314   0.00    0.0
2022/11/10 11:04:02.416    9.042544677    7.399386990   450.8210   5  15   2.5740   2.4830   7.2583   0.8008   1.7764   2.6315   0.00    0.0
2022/11/10 11:04:03.416    9.042560581    7.399361385   473.0913   5  14   2.9694   2.4833   7.5925   0.7685   1.7551   3.1969   0.00    0.0
2022/11/10 11:04:04.416    9.042581497    7.399350517   462.3085   5  15   2.5739   2.4831   7.2598   0.8003   1.7767   2.6316   0.00    0.0
2022/11/10 11:04:05.416    9.042505060    7.399366758   452.6379   5  15   2.5739   2.4831   7.2606   0.8001   1.7769   2.6317   0.00    0.0
2022/11/10 11:04:06.416    9.042557510    7.399359799   461.9011   5  14   2.9696   2.4833   7.5958   0.7677   1.7555   3.1981   0.00    0.0
2022/11/10 11:04:07.416    9.042559575    7.399366421   467.8667   5  14   2.9696   2.4833   7.5969   0.7674   1.7557   3.1985   0.00    0.0
2022/11/10 11:04:08.416    9.042545722    7.399391430   461.0969   5  14   2.9697   2.4833   7.5980   0.7671   1.7558   3.1989   0.00    0.0
2022/11/10 11:04:09.416    9.042556421    7.399362377   456.6292   5  14   2.9697   2.4834   7.5991   0.7668   1.7559   3.1993   0.00    0.0
2022/11/10 11:04:10.416    9.042608492    7.399395347   483.0317   5  14   2.9698   2.4834   7.6002   0.7665   1.7560   3.1997   0.00    0.0
2022/11/10 11:04:11.416    9.042548303    7.399417995   471.9614   5  14   2.9698   2.4834   7.6013   0.7662   1.7562   3.2001   0.00    0.0
2022/11/10 11:04:12.416    9.042543530    7.399442426   471.9670   5  14   2.9699   2.4834   7.6024   0.7659   1.7563   3.2005   0.00    0.0
2022/11/10 11:04:13.416    9.042501353    7.399408304   451.3037   5  15   2.5737   2.4832   7.2666   0.7981   1.7781   2.6323   0.00    0.0
2022/11/10 11:04:14.416    9.042519670    7.399423615   469.4669   5  14   2.9700   2.4834   7.6046   0.7654   1.7566   3.2013   0.00    0.0
2022/11/10 11:04:15.416    9.042540565    7.399429666   481.1474   5  15   2.5737   2.4832   7.2681   0.7976   1.7784   2.6324   0.00    0.0
2022/11/10 11:04:16.416    9.042470026    7.399417159   454.4662   5  13   3.0148   2.5360   7.7037   0.9223   1.5687   3.1022   0.00    0.0
2022/11/10 11:04:17.416    9.042510339    7.399425362   461.0626   5  14   2.6112   2.5360   7.3905   0.9287   1.5745   2.5186   0.00    0.0
2022/11/10 11:04:18.416    9.042437871    7.399433416   458.5090   5  13   3.0150   2.5360   7.7058   0.9219   1.5691   3.1030   0.00    0.0
2022/11/10 11:04:19.416    9.042535289    7.399418690   465.6491   5  14   2.6112   2.5360   7.3919   0.9284   1.5749   2.5186   0.00    0.0
2022/11/10 11:04:20.416    9.042525709    7.399415814   471.0529   5  14   2.6112   2.5360   7.3926   0.9283   1.5751   2.5187   0.00    0.0
2022/11/10 11:04:21.416    9.042514623    7.399428305   471.8856   5  13   3.0153   2.5360   7.7089   0.9214   1.5697   3.1041   0.00    0.0
2022/11/10 11:04:22.416    9.042448734    7.399402370   451.3694   5  13   3.0154   2.5361   7.7099   0.9213   1.5699   3.1046   0.00    0.0
2022/11/10 11:04:23.416    9.042482595    7.399412777   474.5666   5  14   2.6113   2.5361   7.3947   0.9278   1.5758   2.5188   0.00    0.0
2022/11/10 11:04:24.416    9.042450476    7.399398359   458.5954   5  14   2.6113   2.5361   7.3954   0.9277   1.5760   2.5188   0.00    0.0
2022/11/10 11:04:25.416    9.042495776    7.399387849   454.8961   5  13   2.6266   2.6116   7.9698   0.8270   2.0824   2.3463   0.00    0.0
2022/11/10 11:04:26.416    9.042501485    7.399411653   467.2869   5  14   2.6113   2.5361   7.3968   0.9274   1.5764   2.5189   0.00    0.0
2022/11/10 11:04:27.416    9.042483549    7.399383766   467.0484   5  13   2.6266   2.6117   7.9709   0.8266   2.0826   2.3463   0.00    0.0
2022/11/10 11:04:28.416    9.042486125    7.399372145   459.6096   5  14   2.6113   2.5361   7.3982   0.9271   1.5769   2.5190   0.00    0.0
2022/11/10 11:04:29.416    9.042499766    7.399394093   474.2703   5  13   2.6267   2.6117   7.9719   0.8261   2.0828   2.3463   0.00    0.0
2022/11/10 11:04:30.416    9.042479216    7.399379604   456.7216   5  13   2.6267   2.6117   7.9725   0.8259   2.0830   2.3462   0.00    0.0
2022/11/10 11:04:31.416    9.042496699    7.399384763   454.4231   5  13   2.6267   2.6117   7.9730   0.8257   2.0831   2.3462   0.00    0.0
2022/11/10 11:04:32.416    9.042473028    7.399421180   484.4893   5  14   2.6114   2.5362   7.4010   0.9264   1.5777   2.5191   0.00    0.0
2022/11/10 11:04:33.416    9.042491211    7.399372325   452.8537   5  13   2.6268   2.6117   7.9740   0.8253   2.0833   2.3462   0.00    0.0
2022/11/10 11:04:34.416    9.042467307    7.399376020   454.3092   5  13   2.6268   2.6118   7.9746   0.8251   2.0834   2.3462   0.00    0.0
2022/11/10 11:04:35.416    9.042438147    7.399418583   473.8839   5  14   2.6114   2.5362   7.4032   0.9260   1.5784   2.5192   0.00    0.0
2022/11/10 11:04:36.416    9.042460900    7.399376034   450.0649   5  13   2.6269   2.6118   7.9756   0.8246   2.0837   2.3461   0.00    0.0
2022/11/10 11:04:37.416    9.042473152    7.399386488   447.9624   5  13   2.6269   2.6118   7.9761   0.8244   2.0838   2.3461   0.00    0.0
2022/11/10 11:04:38.416    9.042425889    7.399455130   495.0099   5  14   2.6115   2.5362   7.4053   0.9255   1.5790   2.5193   0.00    0.0
2022/11/10 11:04:39.416    9.042407890    7.399387148   445.4408   5  14   2.5909   2.5553   7.8865   0.6667   2.2342   2.4544   0.00    0.0
2022/11/10 11:04:40.416    9.042388223    7.399457586   472.3563   5  14   2.6115   2.5362   7.4067   0.9252   1.5794   2.5194   0.00    0.0
2022/11/10 11:04:41.416    9.042416167    7.399406318   433.4237   5  14   2.5909   2.5553   7.8876   0.6660   2.2343   2.4545   0.00    0.0
2022/11/10 11:04:42.416    9.042427662    7.399493659   483.7346   5  15   2.5730   2.4835   7.2884   0.7910   1.7827   2.6344   0.00    0.0
2022/11/10 11:04:43.416    9.042448471    7.399381401   442.9063   5  14   2.5909   2.5554   7.8887   0.6653   2.2345   2.4545   0.00    0.0
2022/11/10 11:04:44.416    9.042452961    7.399375725   446.8243   5  14   2.5909   2.5554   7.8893   0.6649   2.2346   2.4545   0.00    0.0
2022/11/10 11:04:45.416    9.042380933    7.399422447   488.8735   5  15   2.5730   2.4836   7.2907   0.7902   1.7832   2.6346   0.00    0.0
2022/11/10 11:04:46.416    9.042452982    7.399425083   496.6803   5  15   2.5730   2.4836   7.2914   0.7900   1.7833   2.6347   0.00    0.0
2022/11/10 11:04:47.416    9.042478859    7.399381215   452.4841   5  14   2.5909   2.5554   7.8909   0.6638   2.2348   2.4545   0.00    0.0
2022/11/10 11:04:48.416    9.042477111    7.399398704   453.1173   5  14   2.5908   2.5554   7.8915   0.6635   2.2349   2.4545   0.00    0.0
2022/11/10 11:04:49.416    9.042434468    7.399442074   486.7257   5  15   2.5729   2.4836   7.2937   0.7892   1.7838   2.6349   0.00    0.0
2022/11/10 11:04:50.416    9.042388968    7.399433220   462.2466   5  15   2.5729   2.4837   7.2944   0.7890   1.7840   2.6350   0.00    0.0
2022/11/10 11:04:51.416    9.042440947    7.399417553   469.7548   5  15   2.5728   2.4837   7.2952   0.7887   1.7841   2.6351   0.00    0.0
2022/11/10 11:04:52.416    9.042467632    7.399412656   467.8494   5  15   2.5728   2.4837   7.2959   0.7885   1.7843   2.6351   0.00    0.0
2022/11/10 11:04:53.416    9.042442231    7.399437090   486.4045   5  15   2.5728   2.4837   7.2967   0.7882   1.7844   2.6352   0.00    0.0
2022/11/10 11:04:54.416    9.042431486    7.399392288   464.0750   5  15   2.5728   2.4837   7.2974   0.7880   1.7846   2.6353   0.00    0.0
2022/11/10 11:04:55.416    9.042431962    7.399441040   466.1619   5  15   2.5727   2.4837   7.2982   0.7877   1.7847   2.6354   0.00    0.0
2022/11/10 11:04:56.416    9.042471520    7.399472527   480.6472   5  15   2.5727   2.4837   7.2989   0.7875   1.7849   2.6354   0.00    0.0
2022/11/10 11:04:57.416    9.042418802    7.399433234   456.6022   5  15   2.5727   2.4838   7.2997   0.7872   1.7851   2.6355   0.00    0.0
2022/11/10 11:04:58.416    9.042473455    7.399428909   456.3687   5  14   2.5908   2.5556   7.8971   0.6598   2.2357   2.4546   0.00    0.0
2022/11/10 11:04:59.416    9.042386656    7.399427893   455.5571   5  15   2.5726   2.4838   7.3012   0.7867   1.7854   2.6356   0.00    0.0
2022/11/10 11:05:00.416    9.042406943    7.399460936   466.6776   5  15   2.5726   2.4838   7.3019   0.7865   1.7855   2.6357   0.00    0.0
2022/11/10 11:05:01.416    9.042436756    7.399449219   474.5116   5  15   2.5726   2.4838   7.3027   0.7862   1.7857   2.6358   0.00    0.0
2022/11/10 11:05:02.416    9.042389982    7.399425478   472.5009   5  15   2.5726   2.4838   7.3034   0.7860   1.7858   2.6358   0.00    0.0
2022/11/10 11:05:03.416    9.042399672    7.399443377   472.2591   5  15   2.5725   2.4838   7.3042   0.7857   1.7860   2.6359   0.00    0.0
2022/11/10 11:05:04.416    9.042436322    7.399419601   469.6483   5  15   2.5725   2.4838   7.3049   0.7855   1.7861   2.6360   0.00    0.0
2022/11/10 11:05:05.416    9.042418156    7.399445221   483.1818   5  15   2.5725   2.4839   7.3057   0.7852   1.7863   2.6361   0.00    0.0
2022/11/10 11:05:06.416    9.042389123    7.399458554   457.3312   5  15   2.5725   2.4839   7.3064   0.7850   1.7864   2.6361   0.00    0.0
2022/11/10 11:05:07.416    9.042451929    7.399474141   481.3576   5  15   2.5724   2.4839   7.3072   0.7847   1.7866   2.6362   0.00    0.0
2022/11/10 11:05:08.416    9.042416695    7.399439962   448.4302   5  15   2.5724   2.4839   7.3079   0.7844   1.7867   2.6363   0.00    0.0
2022/11/10 11:05:09.416    9.042463780    7.399424277   465.4670   5  15   2.5724   2.4839   7.3087   0.7842   1.7869   2.6363   0.00    0.0
2022/11/10 11:05:10.416    9.042477532    7.399439710   467.9413   5  15   2.5724   2.4839   7.3094   0.7839   1.7870   2.6364   0.00    0.0
2022/11/10 11:05:11.416    9.042487539    7.399423462   463.5947   5  14   2.5917   2.6870   7.5141   0.5388   2.2307   2.5301   0.00    0.0
2022/11/10 11:05:12.416    9.042477304    7.399436664   455.6690   5  15   2.5723   2.4840   7.3109   0.7834   1.7874   2.6365   0.00    0.0
2022/11/10 11:05:13.416    9.042458331    7.399451389   450.8818   5  15   2.5723   2.4840   7.3117   0.7832   1.7875   2.6366   0.00    0.0
2022/11/10 11:05:14.416    9.042476908    7.399533579   468.8943   5  15   2.5723   2.4840   7.3124   0.7829   1.7876   2.6367   0.00    0.0
2022/11/10 11:05:15.416    9.042476483    7.399517404   461.3865   5  15   2.5723   2.4840   7.3131   0.7827   1.7878   2.6367   0.00    0.0
2022/11/10 11:05:16.416    9.042486699    7.399398693   425.9357   5  13   2.6211   2.8237   8.2995  -0.2271   2.8340   2.2409   0.00    0.0
2022/11/10 11:05:17.416    9.042464762    7.399499960   456.5402   5  15   2.5722   2.4840   7.3146   0.7822   1.7881   2.6369   0.00    0.0
2022/11/10 11:05:18.416    9.042440568    7.399495084   448.0897   5  15   2.5722   2.4840   7.3154   0.7819   1.7883   2.6369   0.00    0.0
2022/11/10 11:05:19.416    9.042461855    7.399483449   464.9889   5  15   2.5722   2.4840   7.3161   0.7816   1.7884   2.6370   0.00    0.0
2022/11/10 11:05:20.416    9.042459630    7.399409863   441.4648   5  14   2.5912   2.6879   7.5239   0.5368   2.2357   2.5306   0.00    0.0
2022/11/10 11:05:21.416    9.042472724    7.399497687   468.0418   5  15   2.5721   2.4841   7.3176   0.7811   1.7887   2.6371   0.00    0.0
2022/11/10 11:05:22.416    9.042474878    7.399460656   454.4479   5  14   2.5906   2.5559   7.9104   0.6510   2.2374   2.4549   0.00    0.0
2022/11/10 11:05:23.416    9.042480893    7.399502244   456.6797   5  15   2.5721   2.4841   7.3191   0.7806   1.7890   2.6373   0.00    0.0
2022/11/10 11:05:24.416    9.042536188    7.399445685   456.7750   5  14   2.5906   2.5559   7.9114   0.6502   2.2376   2.4549   0.00    0.0
2022/11/10 11:05:25.416    9.042494699    7.399475358   467.0543   5  15   2.5720   2.4841   7.3206   0.7801   1.7893   2.6374   0.00    0.0
2022/11/10 11:05:26.416    9.042524282    7.399416953   459.7149   5  14   2.5906   2.5559   7.9125   0.6495   2.2377   2.4549   0.00    0.0
2022/11/10 11:05:27.416    9.042475020    7.399449504   464.6372   5  15   2.5720   2.4842   7.3221   0.7796   1.7896   2.6375   0.00    0.0
2022/11/10 11:05:28.416    9.042527072    7.399424934   459.6457   5  14   2.5906   2.5560   7.9136   0.6487   2.2379   2.4549   0.00    0.0
2022/11/10 11:05:29.416    9.042503493    7.399410625   452.2464   5  15   2.5719   2.4842   7.3236   0.7791   1.7899   2.6377   0.00    0.0
2022/11/10 11:05:30.416    9.042468410    7.399366151   446.9458   5  14   2.5906   2.5560   7.9147   0.6480   2.2380   2.4549   0.00    0.0
2022/11/10 11:05:31.416    9.042416084    7.399436125   469.5871   5  15   2.5719   2.4842   7.3251   0.7786   1.7902   2.6378   0.00    0.0
2022/11/10 11:05:32.416    9.042424751    7.399427125   443.0831   5  14   2.5905   2.5560   7.9158   0.6472   2.2382   2.4549   0.00    0.0
2022/11/10 11:05:33.416    9.042461302    7.399387874   443.9221   5  14   2.5905   2.5560   7.9164   0.6468   2.2382   2.4549   0.00    0.0
2022/11/10 11:05:34.416    9.042437293    7.399367915   450.0163   5  14   2.5905   2.5560   7.9169   0.6465   2.2383   2.4550   0.00    0.0
2022/11/10 11:05:35.416    9.042444978    7.399383167   440.1595   5  14   2.5905   2.5561   7.9175   0.6461   2.2384   2.4550   0.00    0.0
2022/11/10 11:05:36.416    9.042449249    7.399343287   440.9330   5  14   2.5905   2.5561   7.9180   0.6457   2.2385   2.4550   0.00    0.0
2022/11/10 11:05:37.416    9.042414615    7.399370569   470.0382   5  14   2.5905   2.5561   7.9185   0.6453   2.2385   2.4550   0.00    0.0
2022/11/10 11:05:38.416    9.042488764    7.399346226   465.1734   5  14   2.5905   2.5561   7.9191   0.6450   2.2386   2.4550   0.00    0.0
2022/11/10 11:05:39.416    9.042443435    7.399398612   496.3590   5  14   2.5905   2.5561   7.9196   0.6446   2.2387   2.4550   0.00    0.0
2022/11/10 11:05:40.416    9.042453799    7.399408996   478.5929   5  13   2.6203   2.8267   8.3244  -0.2465   2.8468   2.2398   0.00    0.0
2022/11/10 11:05:41.416    9.042481676    7.399369287   478.5948   5  14   2.5905   2.5561   7.9207   0.6438   2.2388   2.4550   0.00    0.0
2022/11/10 11:05:42.416    9.042443718    7.399434474   472.9253   5  14   2.5905   2.5562   7.9213   0.6434   2.2388   2.4550   0.00    0.0
2022/11/10 11:05:43.416    9.042467650    7.399408207   477.8739   5  13   2.6202   2.8271   8.3275  -0.2488   2.8484   2.2397   0.00    0.0
2022/11/10 11:05:44.416    9.042493147    7.399376739   499.6698   5  14   2.5905   2.5562   7.9223   0.6427   2.2390   2.4550   0.00    0.0
2022/11/10 11:05:45.416    9.042483774    7.399378847   511.2292   5  13   2.6201   2.8274   8.3295  -0.2504   2.8495   2.2396   0.00    0.0
2022/11/10 11:05:46.416    9.042530246    7.399385106   523.4482   5  13   2.6201   2.8275   8.3306  -0.2512   2.8500   2.2396   0.00    0.0
2022/11/10 11:05:47.416    9.042469815    7.399498779   569.8483   5  14   2.5898   2.6904   7.5531   0.5309   2.2507   2.5320   0.00    0.0
2022/11/10 11:05:48.416    9.042514574    7.399427961   506.3055   5  13   2.6200   2.8278   8.3327  -0.2527   2.8511   2.2395   0.00    0.0
2022/11/10 11:05:49.416    9.042469707    7.399528594   561.0591   5  14   2.5897   2.6906   7.5553   0.5304   2.2519   2.5321   0.00    0.0
2022/11/10 11:05:50.416    9.042488309    7.399428916   506.5247   5  13   2.6200   2.8280   8.3347  -0.2542   2.8522   2.2394   0.00    0.0
2022/11/10 11:05:51.416    9.042477241    7.399419206   492.6506   5  13   2.6199   2.8281   8.3358  -0.2549   2.8527   2.2394   0.00    0.0
2022/11/10 11:05:52.416    9.042422796    7.399559217   529.1334   5  14   2.5896   2.6909   7.5586   0.5298   2.2535   2.5323   0.00    0.0
2022/11/10 11:05:53.416    9.042487421    7.399413315   490.5426   5  13   2.6199   2.8284   8.3379  -0.2564   2.8538   2.2393   0.00    0.0
2022/11/10 11:05:54.416    9.042472157    7.399451883   487.4283   5  13   2.6198   2.8285   8.3389  -0.2572   2.8543   2.2392   0.00    0.0
2022/11/10 11:05:55.416    9.042414658    7.399496561   521.2826   5  14   2.5894   2.6912   7.5619   0.5291   2.2552   2.5324   0.00    0.0
2022/11/10 11:05:56.416    9.042429188    7.399495165   503.3413   5  14   2.5894   2.6913   7.5630   0.5289   2.2558   2.5325   0.00    0.0
2022/11/10 11:05:57.416    9.042444290    7.399418709   472.6844   5  13   2.6197   2.8289   8.3420  -0.2594   2.8559   2.2391   0.00    0.0
2022/11/10 11:05:58.416    9.042442956    7.399492348   500.8992   5  14   2.5893   2.6915   7.5652   0.5284   2.2569   2.5326   0.00    0.0
2022/11/10 11:05:59.416    9.042424560    7.399507684   506.8661   5  14   2.5892   2.6916   7.5662   0.5282   2.2574   2.5326   0.00    0.0
2022/11/10 11:06:00.416    9.042461391    7.399418141   477.8961   5  13   2.6197   2.8293   8.3451  -0.2616   2.8575   2.2390   0.00    0.0
2022/11/10 11:06:01.416    9.042522561    7.399340063   479.3961   5  15   2.5711   2.4846   7.3473   0.7708   1.7947   2.6397   0.00    0.0
2022/11/10 11:06:02.416    9.042455691    7.399455629   499.6104   5  14   2.5891   2.6918   7.5695   0.5275   2.2591   2.5328   0.00    0.0
2022/11/10 11:06:03.416    9.042520622    7.399296201   473.5979   5  15   2.5711   2.4846   7.3488   0.7703   1.7950   2.6399   0.00    0.0
2022/11/10 11:06:04.416    9.042542247    7.399383600   470.9690   5  13   2.6195   2.8298   8.3493  -0.2646   2.8596   2.2388   0.00    0.0
2022/11/10 11:06:05.416    9.042461754    7.399330227   457.9813   5  15   2.5710   2.4847   7.3503   0.7698   1.7953   2.6400   0.00    0.0
2022/11/10 11:06:06.416    9.042426854    7.399406565   474.0523   5  15   2.5710   2.4847   7.3510   0.7695   1.7954   2.6401   0.00    0.0
2022/11/10 11:06:07.416    9.042437663    7.399403584   473.8541   5  15   2.5710   2.4847   7.3518   0.7692   1.7955   2.6401   0.00    0.0
2022/11/10 11:06:08.416    9.042439357    7.399422137   469.9462   5  15   2.5710   2.4847   7.3525   0.7690   1.7957   2.6402   0.00    0.0
2022/11/10 11:06:09.416    9.042416834    7.399422432   452.0131   5  15   2.5709   2.4847   7.3533   0.7687   1.7958   2.6403   0.00    0.0
2022/11/10 11:06:10.416    9.042437535    7.399430012   465.7372   5  15   2.5709   2.4847   7.3540   0.7684   1.7959   2.6403   0.00    0.0
2022/11/10 11:06:11.416    9.042460949    7.399402480   459.9636   5  15   2.5709   2.4848   7.3547   0.7682   1.7961   2.6404   0.00    0.0
2022/11/10 11:06:12.416    9.042492409    7.399424603   486.7401   5  15   2.5709   2.4848   7.3555   0.7679   1.7962   2.6404   0.00    0.0
2022/11/10 11:06:13.416    9.042472500    7.399366628   455.0320   5  14   2.5903   2.5566   7.9379   0.6315   2.2409   2.4552   0.00    0.0
2022/11/10 11:06:14.416    9.042521944    7.399418688   473.8683   5  15   2.5708   2.4848   7.3569   0.7674   1.7965   2.6406   0.00    0.0
2022/11/10 11:06:15.416    9.042504266    7.399423608   462.8823   5  15   2.5708   2.4848   7.3577   0.7671   1.7967   2.6406   0.00    0.0
2022/11/10 11:06:16.416    9.042531759    7.399371271   442.1319   5  14   2.5902   2.5566   7.9395   0.6303   2.2410   2.4552   0.00    0.0
2022/11/10 11:06:17.416    9.042488332    7.399427422   456.2240   5  15   2.5707   2.4848   7.3592   0.7666   1.7970   2.6408   0.00    0.0
2022/11/10 11:06:18.416    9.042473360    7.399421577   449.0672   5  15   2.5707   2.4849   7.3599   0.7663   1.7971   2.6408   0.00    0.0
2022/11/10 11:06:19.416    9.042543557    7.399390886   448.2646   5  14   2.5902   2.5567   7.9411   0.6292   2.2412   2.4552   0.00    0.0
2022/11/10 11:06:20.416    9.042457706    7.399456241   455.7649   5  15   2.5707   2.4849   7.3614   0.7658   1.7974   2.6409   0.00    0.0
2022/11/10 11:06:21.416    9.042477785    7.399445457   442.5524   5  15   2.5706   2.4849   7.3621   0.7655   1.7975   2.6410   0.00    0.0
2022/11/10 11:06:22.416    9.042510424    7.399401922   459.3427   5  15   2.5706   2.4849   7.3628   0.7653   1.7977   2.6411   0.00    0.0
2022/11/10 11:06:23.416    9.042522115    7.399389965   443.4523   5  14   2.5902   2.5567   7.9432   0.6276   2.2415   2.4552   0.00    0.0
2022/11/10 11:06:24.416    9.042529496    7.399422157   466.0587   5  15   2.5706   2.4849   7.3643   0.7647   1.7980   2.6412   0.00    0.0
2022/11/10 11:06:25.416    9.042475626    7.399444014   490.2119   5  15   2.5705   2.4850   7.3650   0.7645   1.7981   2.6412   0.00    0.0
2022/11/10 11:06:26.416    9.042538426    7.399375684   448.5337   5  14   2.5902   2.5568   7.9448   0.6264   2.2416   2.4552   0.00    0.0
2022/11/10 11:06:27.416    9.042518521    7.399421106   489.8369   5  15   2.5705   2.4850   7.3665   0.7639   1.7984   2.6413   0.00    0.0
2022/11/10 11:06:28.416    9.042513688    7.399379317   457.1495   5  14   2.5902   2.5568   7.9459   0.6256   2.2418   2.4552   0.00    0.0
2022/11/10 11:06:29.416    9.042555374    7.399449965   489.8611   5  15   2.5704   2.4850   7.3680   0.7634   1.7987   2.6415   0.00    0.0
2022/11/10 11:06:30.416    9.042540983    7.399388679   457.5710   5  14   2.5901   2.5568   7.9469   0.6248   2.2419   2.4552   0.00    0.0
2022/11/10 11:06:31.416    9.042503963    7.399396844   457.3295   5  14   2.5901   2.5568   7.9475   0.6244   2.2419   2.4552   0.00    0.0
2022/11/10 11:06:32.416    9.042476652    7.399447935   466.7292   5  15   2.5704   2.4851   7.3702   0.7626   1.7991   2.6417   0.00    0.0
2022/11/10 11:06:33.416    9.042467557    7.399443952   476.9616   5  15   2.5703   2.4851   7.3709   0.7623   1.7992   2.6417   0.00    0.0
2022/11/10 11:06:34.416    9.042449473    7.399504256   492.8944   5  15   2.5703   2.4851   7.3717   0.7621   1.7993   2.6418   0.00    0.0
2022/11/10 11:06:35.416    9.042490351    7.399364566   452.4562   5  14   2.5901   2.5569   7.9496   0.6228   2.2422   2.4552   0.00    0.0
2022/11/10 11:06:36.416    9.042441170    7.399434276   474.2377   5  15   2.5703   2.4851   7.3731   0.7615   1.7996   2.6419   0.00    0.0
2022/11/10 11:06:37.416    9.042483865    7.399413841   443.1471   5  14   2.5901   2.5569   7.9506   0.6220   2.2423   2.4552   0.00    0.0
2022/11/10 11:06:38.416    9.042503463    7.399411470   476.7765   5  15   2.5702   2.4851   7.3746   0.7610   1.7999   2.6420   0.00    0.0
2022/11/10 11:06:39.416    9.042569869    7.399392324   458.8793   5  15   2.5702   2.4851   7.3753   0.7607   1.8001   2.6421   0.00    0.0
2022/11/10 11:06:40.416    9.042537885    7.399356536   468.6972   5  14   2.5901   2.5569   7.9522   0.6208   2.2424   2.4552   0.00    0.0
2022/11/10 11:06:41.416    9.042516044    7.399447202   472.8707   5  15   2.5701   2.4852   7.3768   0.7602   1.8003   2.6422   0.00    0.0
2022/11/10 11:06:42.416    9.042565528    7.399346845   475.7931   5  14   2.5901   2.5570   7.9532   0.6200   2.2425   2.4552   0.00    0.0
2022/11/10 11:06:43.416    9.042484896    7.399390492   479.5073   5  15   2.5701   2.4852   7.3783   0.7597   1.8006   2.6423   0.00    0.0
2022/11/10 11:06:44.416    9.042502293    7.399345084   477.8400   5  15   2.5701   2.4852   7.3790   0.7594   1.8008   2.6424   0.00    0.0
2022/11/10 11:06:45.416    9.042485622    7.399355358   494.0119   5  15   2.5700   2.4852   7.3797   0.7591   1.8009   2.6424   0.00    0.0
2022/11/10 11:06:46.416    9.042474891    7.399384038   497.1781   5  15   2.5700   2.4852   7.3805   0.7589   1.8010   2.6425   0.00    0.0
2022/11/10 11:06:47.416    9.042479996    7.399354195   495.8305   5  15   2.5700   2.4853   7.3812   0.7586   1.8012   2.6425   0.00    0.0
2022/11/10 11:06:48.416    9.042436914    7.399373540   470.3303   5  15   2.5700   2.4853   7.3819   0.7583   1.8013   2.6426   0.00    0.0
2022/11/10 11:06:49.416    9.042393873    7.399379259   497.4568   5  15   2.5699   2.4853   7.3827   0.7581   1.8015   2.6427   0.00    0.0
2022/11/10 11:06:50.416    9.042418370    7.399384237   505.0968   5  15   2.5699   2.4853   7.3834   0.7578   1.8016   2.6427   0.00    0.0
2022/11/10 11:06:51.416    9.042441636    7.399384421   481.7110   5  15   2.5699   2.4853   7.3841   0.7575   1.8017   2.6428   0.00    0.0
2022/11/10 11:06:52.416    9.042475939    7.399373486   483.3714   5  15   2.5699   2.4853   7.3849   0.7572   1.8019   2.6428   0.00    0.0
2022/11/10 11:06:53.416    9.042473439    7.399365286   476.4518   5  15   2.5698   2.4853   7.3856   0.7570   1.8020   2.6429   0.00    0.0
2022/11/10 11:06:54.416    9.042481609    7.399348091   499.6773   5  15   2.5698   2.4854   7.3863   0.7567   1.8022   2.6429   0.00    0.0
2022/11/10 11:06:55.416    9.042435564    7.399368307   505.5528   5  15   2.5698   2.4854   7.3870   0.7564   1.8023   2.6430   0.00    0.0
2022/11/10 11:06:56.416    9.042442547    7.399359479   476.7559   5  15   2.5698   2.4854   7.3878   0.7562   1.8024   2.6431   0.00    0.0
2022/11/10 11:06:57.416    9.042445652    7.399345287   486.5745   5  15   2.5697   2.4854   7.3885   0.7559   1.8026   2.6431   0.00    0.0
2022/11/10 11:06:58.416    9.042450368    7.399336702   493.3925   5  15   2.5697   2.4854   7.3892   0.7556   1.8027   2.6432   0.00    0.0
